$ADVER,3080,2.3
$GPRMC,215152.228,A,3748.8017,N,12217.8650,W,0.32,195.48,191212,,,A*76
$GPRMC,215153.228,A,3748.8019,N,12217.8652,W,0.18,313.70,191212,,,A*74
$GPRMC,215154.228,A,3748.8018,N,12217.8650,W,0.04,320.73,191212,,,A*7E
$GPRMC,215155.000,A,3748.8018,N,12217.8650,W,0.03,289.47,191212,,,A*75
$GPRMC,215156.000,A,3748.8017,N,12217.8648,W,0.19,59.13,191212,,,A*45
$GPRMC,215157.000,A,3748.8017,N,12217.8647,W,0.45,30.67,191212,,,A*4E
$GPRMC,215158.000,A,3748.8009,N,12217.8648,W,0.30,45.61,191212,,,A*47
$GPRMC,215159.000,A,3748.8007,N,12217.8648,W,0.48,224.01,191212,,,A*74
$GPRMC,215200.000,A,3748.8006,N,12217.8648,W,0.11,10.05,191212,,,A*47
$GPRMC,215201.000,A,3748.8006,N,12217.8647,W,0.34,358.02,191212,,,A*76
$GPRMC,215202.000,A,3748.8007,N,12217.8639,W,0.64,12.82,191212,,,A*4D
$GPRMC,215203.000,A,3748.8006,N,12217.8637,W,0.42,319.28,191212,,,A*7F
$GPRMC,215204.000,A,3748.8010,N,12217.8638,W,0.39,296.38,191212,,,A*7B
$GPRMC,215205.000,A,3748.8007,N,12217.8641,W,1.37,210.69,191212,,,A*77
$GPRMC,215206.000,A,3748.8003,N,12217.8644,W,1.55,216.46,191212,,,A*7A
$GPRMC,215207.000,A,3748.7999,N,12217.8651,W,2.33,222.87,191212,,,A*73
$GPRMC,215208.000,A,3748.7992,N,12217.8658,W,3.30,217.96,191212,,,A*7A
$GPRMC,215209.000,A,3748.7978,N,12217.8664,W,4.56,206.55,191212,,,A*78
$GPRMC,215210.000,A,3748.7972,N,12217.8672,W,4.45,205.86,191212,,,A*72
$GPRMC,215211.000,A,3748.7964,N,12217.8680,W,5.18,207.82,191212,,,A*76
$GPRMC,215212.000,A,3748.7949,N,12217.8688,W,5.01,211.33,191212,,,A*77
$GPRMC,215213.000,A,3748.7938,N,12217.8690,W,4.41,193.23,191212,,,A*74
$GPRMC,215214.000,A,3748.7928,N,12217.8690,W,2.77,190.00,191212,,,A*73
$GPRMC,215215.000,A,3748.7918,N,12217.8698,W,3.19,201.81,191212,,,A*72
$GPRMC,215216.000,A,3748.7901,N,12217.8692,W,3.37,183.63,191212,,,A*7A
$GPRMC,215217.000,A,3748.7891,N,12217.8690,W,2.30,162.59,191212,,,A*71
$GPRMC,215218.000,A,3748.7893,N,12217.8697,W,1.64,161.06,191212,,,A*70
$GPRMC,215219.000,A,3748.7900,N,12217.8698,W,0.56,95.63,191212,,,A*4C
$GPRMC,215220.000,A,3748.7905,N,12217.8699,W,0.32,37.35,191212,,,A*4B
$GPRMC,215221.000,A,3748.7904,N,12217.8694,W,0.30,19.52,191212,,,A*49
$GPRMC,215222.000,A,3748.7907,N,12217.8692,W,0.30,45.09,191212,,,A*48
$GPRMC,215223.000,A,3748.7908,N,12217.8691,W,0.51,106.70,191212,,,A*7A
$GPRMC,215224.000,A,3748.7907,N,12217.8691,W,0.33,125.94,191212,,,A*7D
$GPRMC,215225.000,A,3748.7907,N,12217.8692,W,0.33,144.11,191212,,,A*75
$GPRMC,215226.000,A,3748.7908,N,12217.8693,W,0.45,335.27,191212,,,A*78
$GPRMC,215227.000,A,3748.7905,N,12217.8694,W,0.44,202.63,191212,,,A*77
$GPRMC,215228.000,A,3748.7908,N,12217.8697,W,0.33,155.95,191212,,,A*7E
$GPRMC,215229.000,A,3748.7907,N,12217.8697,W,0.31,153.39,191212,,,A*72
$GPRMC,215230.000,A,3748.7910,N,12217.8699,W,0.42,333.38,191212,,,A*73
$GPRMC,215231.000,A,3748.7913,N,12217.8702,W,0.81,330.67,191212,,,A*74
$GPRMC,215232.000,A,3748.7921,N,12217.8705,W,1.00,332.47,191212,,,A*79
$GPRMC,215233.000,A,3748.7919,N,12217.8706,W,0.21,172.91,191212,,,A*7F
$GPRMC,215234.000,A,3748.7919,N,12217.8709,W,0.11,164.74,191212,,,A*78
$GPRMC,215235.000,A,3748.7918,N,12217.8710,W,0.36,138.54,191212,,,A*7E
$GPRMC,215236.000,A,3748.7917,N,12217.8713,W,0.16,278.55,191212,,,A*75
$GPRMC,215237.000,A,3748.7916,N,12217.8712,W,0.09,318.62,191212,,,D*7C
$GPRMC,215238.000,A,3748.7914,N,12217.8710,W,0.20,139.23,191212,,,D*7C
$GPRMC,215239.000,A,3748.7914,N,12217.8713,W,0.15,154.55,191212,,,D*72
$GPRMC,215240.000,A,3748.7914,N,12217.8714,W,0.28,293.90,191212,,,D*74
$GPRMC,215241.000,A,3748.7914,N,12217.8717,W,0.28,305.40,191212,,,D*75
$GPRMC,215242.000,A,3748.7914,N,12217.8718,W,0.16,311.96,191212,,,D*7A
$GPRMC,215243.000,A,3748.7914,N,12217.8719,W,0.17,312.29,191212,,,D*7C
$GPRMC,215244.000,A,3748.7913,N,12217.8717,W,0.22,136.42,191212,,,D*7D
$GPRMC,215245.000,A,3748.7912,N,12217.8716,W,0.15,157.75,191212,,,D*7B
$GPRMC,215246.000,A,3748.7912,N,12217.8715,W,0.07,169.95,191212,,,D*7B
$GPRMC,215247.000,A,3748.7911,N,12217.8714,W,0.10,160.68,191212,,,D*75
$GPRMC,215248.000,A,3748.7910,N,12217.8713,W,0.06,178.14,191212,,,D*79
$GPRMC,215249.000,A,3748.7910,N,12217.8712,W,0.11,319.07,191212,,,D*78
$GPRMC,215250.000,A,3748.7912,N,12217.8713,W,0.38,326.86,191212,,,D*7D
$GPRMC,215251.000,A,3748.7911,N,12217.8712,W,0.18,343.38,191212,,,D*7A
$GPRMC,215252.000,A,3748.7912,N,12217.8714,W,0.03,322.99,191212,,,D*7A
$GPRMC,215253.000,A,3748.7911,N,12217.8713,W,0.28,135.69,191212,,,D*7D
$GPRMC,215254.000,A,3748.7911,N,12217.8712,W,0.25,138.85,191212,,,D*79
$GPRMC,215255.000,A,3748.7910,N,12217.8709,W,0.37,136.44,191212,,,D*73
$GPRMC,215256.000,A,3748.7908,N,12217.8706,W,0.49,138.50,191212,,,D*74
$GPRMC,215257.000,A,3748.7908,N,12217.8703,W,0.32,149.98,191212,,,D*7E
$GPRMC,215258.000,A,3748.7907,N,12217.8702,W,0.52,134.46,191212,,,D*70
$GPRMC,215259.000,A,3748.7908,N,12217.8703,W,0.11,234.37,191212,,,D*7D
$GPRMC,215300.000,A,3748.7909,N,12217.8704,W,0.05,287.51,191212,,,D*7B
$GPRMC,215301.000,A,3748.7910,N,12217.8707,W,0.08,187.16,191212,,,D*7C
$GPRMC,215302.000,A,3748.7912,N,12217.8708,W,0.04,340.50,191212,,,D*75
$GPRMC,215303.000,A,3748.7912,N,12217.8708,W,0.27,121.82,191212,,,D*7F
$GPRMC,215304.000,A,3748.7913,N,12217.8709,W,0.01,80.83,191212,,,D*47
$GPRMC,215305.000,A,3748.7915,N,12217.8712,W,0.05,348.59,191212,,,D*7E
$GPRMC,215306.000,A,3748.7916,N,12217.8714,W,0.02,264.12,191212,,,D*7F
$GPRMC,215307.000,A,3748.7917,N,12217.8716,W,0.05,336.99,191212,,,D*7F
$GPRMC,215308.000,A,3748.7917,N,12217.8717,W,0.11,168.58,191212,,,D*70
$GPRMC,215309.000,A,3748.7917,N,12217.8717,W,0.22,160.07,191212,,,D*73
$GPRMC,215310.000,A,3748.7918,N,12217.8718,W,0.16,156.89,191212,,,D*7F
$GPRMC,215311.000,A,3748.7918,N,12217.8720,W,0.18,172.87,191212,,,D*73
$GPRMC,215312.000,A,3748.7916,N,12217.8720,W,0.38,156.24,191212,,,D*73
$GPRMC,215313.000,A,3748.7915,N,12217.8718,W,0.27,170.61,191212,,,D*71
$GPRMC,215314.000,A,3748.7915,N,12217.8718,W,0.30,147.34,191212,,,D*74
$GPRMC,215315.000,A,3748.7914,N,12217.8718,W,0.21,141.36,191212,,,D*70
$GPRMC,215316.000,A,3748.7915,N,12217.8718,W,0.04,348.85,191212,,,D*76
$GPRMC,215317.000,A,3748.7915,N,12217.8718,W,0.19,327.40,191212,,,D*7B
$GPRMC,215318.000,A,3748.7916,N,12217.8718,W,0.23,331.69,191212,,,D*72
$GPRMC,215319.000,A,3748.7917,N,12217.8718,W,0.17,331.35,191212,,,D*7C
$GPRMC,215320.000,A,3748.7918,N,12217.8720,W,0.46,311.32,191212,,,D*73
$GPRMC,215321.000,A,3748.7918,N,12217.8722,W,0.46,311.91,191212,,,D*79
$GPRMC,215322.000,A,3748.7911,N,12217.8713,W,0.17,323.69,191212,,,D*73
$GPRMC,215323.000,A,3748.7906,N,12217.8707,W,0.08,327.41,191212,,,D*71
$GPRMC,215324.000,A,3748.7904,N,12217.8703,W,0.11,318.43,191212,,,D*76
$GPRMC,215325.000,A,3748.7901,N,12217.8701,W,0.11,318.48,191212,,,D*7B
$GPRMC,215326.000,A,3748.7900,N,12217.8698,W,0.13,337.99,191212,,,D*7B
$GPRMC,215327.000,A,3748.7899,N,12217.8697,W,0.13,330.88,191212,,,D*73
$GPRMC,215328.000,A,3748.7898,N,12217.8695,W,0.04,52.62,191212,,,D*4A
$GPRMC,215329.000,A,3748.7897,N,12217.8694,W,0.02,175.90,191212,,,D*7A
$GPRMC,215330.000,A,3748.7897,N,12217.8694,W,0.19,173.29,191212,,,D*7C
$GPRMC,215331.000,A,3748.7896,N,12217.8693,W,0.23,161.23,191212,,,D*7B
$GPRMC,215332.000,A,3748.7895,N,12217.8691,W,0.28,176.77,191212,,,D*75
$GPRMC,215333.000,A,3748.7895,N,12217.8690,W,0.25,174.68,191212,,,D*74
$GPRMC,215334.000,A,3748.7894,N,12217.8689,W,0.22,186.30,191212,,,D*7D
$GPRMC,215335.000,A,3748.7894,N,12217.8691,W,0.19,210.53,191212,,,D*74
$GPRMC,215336.000,A,3748.7893,N,12217.8691,W,0.27,175.17,191212,,,D*7D
$GPRMC,215337.000,A,3748.7892,N,12217.8690,W,0.17,184.10,191212,,,D*76
$GPRMC,215338.000,A,3748.7892,N,12217.8690,W,0.08,330.39,191212,,,D*71
$GPRMC,215339.000,A,3748.7892,N,12217.8690,W,0.02,50.38,191212,,,D*4E
$GPRMC,215338.000,A,3748.7892,N,12217.8689,W,0.05,110.15,191212,,,D*7A
$GPRMC,215339.000,A,3748.7891,N,12217.8688,W,0.35,140.60,191212,,,D*7D
$GPRMC,215340.000,A,3748.7890,N,12217.8688,W,0.20,169.29,191212,,,D*70
$GPRMC,215341.000,A,3748.7890,N,12217.8688,W,0.10,198.44,191212,,,D*77
$GPRMC,215342.000,A,3748.7890,N,12217.8688,W,0.14,187.02,191212,,,D*7C
$GPRMC,215343.000,A,3748.7890,N,12217.8688,W,0.16,217.16,191212,,,D*70
$GPRMC,215344.000,A,3748.7889,N,12217.8689,W,0.22,185.52,191212,,,D*71
$GPRMC,215345.000,A,3748.7885,N,12217.8688,W,0.20,190.10,191212,,,D*7D
$GPRMC,215346.000,A,3748.7885,N,12217.8688,W,0.05,183.96,191212,,,D*75
$GPRMC,215347.000,A,3748.7885,N,12217.8689,W,0.19,308.00,191212,,,D*76
$GPRMC,215348.000,A,3748.7887,N,12217.8691,W,0.21,3.58,191212,,,D*7C
$GPRMC,215349.000,A,3748.7889,N,12217.8692,W,0.07,129.74,191212,,,D*73
$GPRMC,215350.000,A,3748.7890,N,12217.8693,W,0.09,279.14,191212,,,D*7C
$GPRMC,215351.000,A,3748.7891,N,12217.8694,W,0.16,262.91,191212,,,D*72
$GPRMC,215352.000,A,3748.7891,N,12217.8696,W,0.14,243.34,191212,,,D*7D
$GPRMC,215353.000,A,3748.7891,N,12217.8696,W,0.20,165.34,191212,,,D*7C
$GPRMC,215354.000,A,3748.7890,N,12217.8697,W,0.22,228.62,191212,,,D*70
$GPRMC,215355.000,A,3748.7890,N,12217.8698,W,0.18,166.94,191212,,,D*77
$GPRMC,215356.000,A,3748.7890,N,12217.8698,W,0.06,337.60,191212,,,D*76
$GPRMC,215357.000,A,3748.7890,N,12217.8699,W,0.11,2.71,191212,,,D*75
$GPRMC,215358.000,A,3748.7891,N,12217.8699,W,0.24,329.63,191212,,,D*74
$GPRMC,215359.000,A,3748.7891,N,12217.8700,W,0.17,304.12,191212,,,D*7D
$GPRMC,215400.000,A,3748.7891,N,12217.8701,W,0.37,303.61,191212,,,D*76
$GPRMC,215401.000,A,3748.7891,N,12217.8701,W,0.23,144.88,191212,,,D*74
$GPRMC,215402.000,A,3748.7890,N,12217.8700,W,0.34,151.07,191212,,,D*72
$GPRMC,215403.000,A,3748.7889,N,12217.8700,W,0.15,282.89,191212,,,D*73
$GPRMC,215404.000,A,3748.7890,N,12217.8701,W,0.39,325.78,191212,,,D*71
$GPRMC,215405.000,A,3748.7890,N,12217.8701,W,0.18,27.79,191212,,,D*43
$GPRMC,215406.000,A,3748.7890,N,12217.8701,W,0.28,313.04,191212,,,D*7D
$GPRMC,215407.000,A,3748.7890,N,12217.8701,W,0.12,259.63,191212,,,D*7B
$GPRMC,215408.000,A,3748.7889,N,12217.8702,W,0.18,283.24,191212,,,D*71
$GPRMC,215409.000,A,3748.7889,N,12217.8702,W,0.04,343.13,191212,,,D*74
$GPRMC,215410.000,A,3748.7888,N,12217.8701,W,0.13,114.05,191212,,,D*7F
$GPRMC,215411.000,A,3748.7888,N,12217.8700,W,0.25,107.95,191212,,,D*71
$GPRMC,215412.000,A,3748.7888,N,12217.8700,W,0.42,324.19,191212,,,D*74
$GPRMC,215413.000,A,3748.7889,N,12217.8701,W,0.44,329.50,191212,,,D*73
$GPRMC,215414.000,A,3748.7889,N,12217.8700,W,0.13,80.56,191212,,,D*41
$GPRMC,215415.000,A,3748.7889,N,12217.8699,W,0.10,125.81,191212,,,D*76
$GPRMC,215416.000,A,3748.7889,N,12217.8699,W,0.09,247.50,191212,,,D*76
$GPRMC,215417.000,A,3748.7889,N,12217.8699,W,0.12,316.76,191212,,,D*7C
$GPRMC,215418.000,A,3748.7889,N,12217.8699,W,0.25,310.63,191212,,,D*75
$GPRMC,215419.000,A,3748.7889,N,12217.8700,W,0.38,295.94,191212,,,D*7D
$GPRMC,215420.000,A,3748.7889,N,12217.8700,W,0.12,234.75,191212,,,D*7B
$GPRMC,215421.000,A,3748.7888,N,12217.8700,W,0.22,168.08,191212,,,D*78
$GPRMC,215422.000,A,3748.7887,N,12217.8699,W,0.28,154.08,191212,,,D*70
$GPRMC,215423.000,A,3748.7886,N,12217.8699,W,0.04,196.51,191212,,,D*7C
$GPRMC,215424.000,A,3748.7886,N,12217.8698,W,0.12,132.99,191212,,,D*77
$GPRMC,215425.000,A,3748.7886,N,12217.8697,W,0.08,103.98,191212,,,D*71
$GPRMC,215426.000,A,3748.7886,N,12217.8697,W,0.03,292.28,191212,,,D*79
$GPRMC,215427.000,A,3748.7886,N,12217.8696,W,0.10,164.20,191212,,,D*79
$GPRMC,215428.000,A,3748.7885,N,12217.8695,W,0.36,141.15,191212,,,D*73
$GPRMC,215429.000,A,3748.7885,N,12217.8695,W,0.22,313.64,191212,,,D*74
$GPRMC,215430.000,A,3748.7885,N,12217.8695,W,0.16,319.62,191212,,,D*77
$GPRMC,215431.000,A,3748.7886,N,12217.8695,W,0.10,359.62,191212,,,D*77
$GPRMC,215432.000,A,3748.7886,N,12217.8695,W,0.06,276.65,191212,,,D*78
$GPRMC,215433.000,A,3748.7885,N,12217.8695,W,0.27,272.35,191212,,,D*78
$GPRMC,215434.000,A,3748.7885,N,12217.8696,W,0.26,269.39,191212,,,D*7B
$GPRMC,215435.000,A,3748.7885,N,12217.8696,W,0.11,96.46,191212,,,D*44
$GPRMC,215436.000,A,3748.7886,N,12217.8695,W,0.17,22.65,191212,,,D*4F
$GPRMC,215437.000,A,3748.7886,N,12217.8695,W,0.36,325.94,191212,,,D*77
$GPRMC,215438.000,A,3748.7887,N,12217.8695,W,0.29,338.20,191212,,,D*74
$GPRMC,215439.000,A,3748.7887,N,12217.8695,W,0.22,351.26,191212,,,D*77
$GPRMC,215440.000,A,3748.7888,N,12217.8695,W,0.19,304.86,191212,,,D*74
$GPRMC,215441.000,A,3748.7887,N,12217.8695,W,0.18,132.50,191212,,,D*77
$GPRMC,215442.000,A,3748.7887,N,12217.8695,W,0.26,308.29,191212,,,D*7C
$GPRMC,215443.000,A,3748.7888,N,12217.8696,W,0.39,317.16,191212,,,D*7D
$GPRMC,215444.000,A,3748.7888,N,12217.8696,W,0.20,325.91,191212,,,D*7C
$GPRMC,215445.000,A,3748.7887,N,12217.8696,W,0.03,151.51,191212,,,D*7E
$GPRMC,215446.000,A,3748.7887,N,12217.8695,W,0.36,143.36,191212,,,D*7A
$GPRMC,215447.000,A,3748.7886,N,12217.8694,W,0.34,152.26,191212,,,D*78
$GPRMC,215448.000,A,3748.7886,N,12217.8694,W,0.18,266.36,191212,,,D*7C
$GPRMC,215449.000,A,3748.7886,N,12217.8694,W,0.16,272.77,191212,,,D*73
$GPRMC,215450.000,A,3748.7886,N,12217.8695,W,0.10,309.50,191212,,,D*74
$GPRMC,215451.000,A,3748.7887,N,12217.8695,W,0.03,355.42,191212,,,D*7C
$GPRMC,215452.000,A,3748.7887,N,12217.8694,W,0.23,352.08,191212,,,D*75
$GPRMC,215453.000,A,3748.7888,N,12217.8694,W,0.26,4.67,191212,,,D*77
$GPRMC,215454.000,A,3748.7888,N,12217.8695,W,0.39,300.77,191212,,,D*79
$GPRMC,215455.000,A,3748.7888,N,12217.8695,W,0.31,294.29,191212,,,D*77
$GPRMC,215456.000,A,3748.7887,N,12217.8695,W,0.16,202.94,191212,,,D*77
$GPRMC,215457.000,A,3748.7886,N,12217.8694,W,0.23,149.58,191212,,,D*7C
$GPRMC,215458.000,A,3748.7885,N,12217.8692,W,0.36,145.62,191212,,,D*77
$GPRMC,215459.000,A,3748.7884,N,12217.8691,W,0.45,136.52,191212,,,D*77
$GPRMC,215500.000,A,3748.7883,N,12217.8690,W,0.07,244.28,191212,,,D*71
$GPRMC,215501.000,A,3748.7884,N,12217.8691,W,0.19,112.12,191212,,,D*70
$GPRMC,215502.000,A,3748.7885,N,12217.8691,W,0.06,272.78,191212,,,D*75
$GPRMC,215503.000,A,3748.7885,N,12217.8690,W,0.29,316.66,191212,,,D*74
$GPRMC,215504.000,A,3748.7886,N,12217.8692,W,0.35,323.10,191212,,,D*78
$GPRMC,215505.000,A,3748.7887,N,12217.8692,W,0.14,302.89,191212,,,D*78
$GPRMC,215506.000,A,3748.7885,N,12217.8691,W,0.16,220.79,191212,,,D*76
$GPRMC,215507.000,A,3748.7884,N,12217.8690,W,0.10,196.05,191212,,,D*74
$GPRMC,215508.000,A,3748.7882,N,12217.8688,W,0.44,143.08,191212,,,D*70
$GPRMC,215509.000,A,3748.7882,N,12217.8687,W,0.08,231.35,191212,,,D*7E
$GPRMC,215510.000,A,3748.7882,N,12217.8688,W,0.28,150.70,191212,,,D*7E
$GPRMC,215511.000,A,3748.7883,N,12217.8688,W,0.41,148.66,191212,,,D*7F
$GPRMC,215512.000,A,3748.7882,N,12217.8688,W,0.12,203.28,191212,,,D*7D
$GPRMC,215513.000,A,3748.7880,N,12217.8686,W,0.23,203.79,191212,,,D*76
$GPRMC,215514.000,A,3748.7880,N,12217.8684,W,0.24,126.15,191212,,,D*7A
$GPRMC,215515.000,A,3748.7879,N,12217.8683,W,0.39,127.27,191212,,,D*76
$GPRMC,215516.000,A,3748.7879,N,12217.8682,W,0.14,151.49,191212,,,D*72
$GPRMC,215517.000,A,3748.7881,N,12217.8684,W,0.34,287.49,191212,,,D*78
$GPRMC,215518.000,A,3748.7881,N,12217.8684,W,0.21,0.62,191212,,,D*77
$GPRMC,215519.000,A,3748.7883,N,12217.8686,W,0.51,315.46,191212,,,D*70
$GPRMC,215520.000,A,3748.7885,N,12217.8688,W,0.45,329.17,191212,,,D*7C
$GPRMC,215521.000,A,3748.7887,N,12217.8689,W,0.22,9.02,191212,,,D*7A
$GPRMC,215522.000,A,3748.7888,N,12217.8691,W,0.32,280.44,191212,,,D*7F
$GPRMC,215523.000,A,3748.7889,N,12217.8692,W,0.16,16.38,191212,,,D*4C
$GPRMC,215524.000,A,3748.7890,N,12217.8692,W,0.12,79.95,191212,,,D*49
$GPRMC,215525.000,A,3748.7890,N,12217.8692,W,0.21,242.91,191212,,,D*76
$GPRMC,215526.000,A,3748.7888,N,12217.8690,W,0.30,192.94,191212,,,D*75
$GPRMC,215527.000,A,3748.7890,N,12217.8694,W,0.24,267.49,191212,,,D*75
$GPRMC,215528.000,A,3748.7892,N,12217.8696,W,0.28,277.28,191212,,,D*70
$GPRMC,215529.000,A,3748.7892,N,12217.8695,W,0.10,291.70,191212,,,D*7C
$GPRMC,215530.000,A,3748.7891,N,12217.8695,W,0.48,305.13,191212,,,D*73
$GPRMC,215531.000,A,3748.7891,N,12217.8694,W,0.46,342.84,191212,,,D*70
$GPRMC,215532.000,A,3748.7892,N,12217.8694,W,0.34,6.86,191212,,,D*74
$GPRMC,215533.000,A,3748.7892,N,12217.8693,W,0.49,113.12,191212,,,D*70
$GPRMC,215534.000,A,3748.7892,N,12217.8693,W,0.26,265.09,191212,,,D*76
$GPRMC,215535.000,A,3748.7893,N,12217.8694,W,0.20,252.42,191212,,,D*7C
$GPRMC,215536.000,A,3748.7893,N,12217.8695,W,0.21,202.90,191212,,,D*75
$GPRMC,215537.000,A,3748.7893,N,12217.8696,W,0.15,256.73,191212,,,D*7C
$GPRMC,215538.000,A,3748.7896,N,12217.8699,W,0.29,339.72,191212,,,D*7F
$GPRMC,215539.000,A,3748.7897,N,12217.8699,W,0.15,103.27,191212,,,D*7B
$GPRMC,215540.000,A,3748.7899,N,12217.8700,W,0.03,173.45,191212,,,D*7E
$GPRMC,215541.000,A,3748.7900,N,12217.8701,W,0.22,69.81,191212,,,D*4E
$GPRMC,215542.000,A,3748.7903,N,12217.8704,W,0.50,321.37,191212,,,D*7C
$GPRMC,215543.000,A,3748.7906,N,12217.8707,W,0.59,315.49,191212,,,D*7C
$GPRMC,215544.000,A,3748.7908,N,12217.8709,W,0.06,17.60,191212,,,D*4B
$GPRMC,215545.000,A,3748.7908,N,12217.8710,W,0.20,255.06,191212,,,D*72
$GPRMC,215546.000,A,3748.7907,N,12217.8709,W,0.15,271.88,191212,,,D*70
$GPRMC,215547.000,A,3748.7907,N,12217.8708,W,0.30,74.58,191212,,,D*4D
$GPRMC,215548.000,A,3748.7908,N,12217.8708,W,0.28,117.66,191212,,,D*7D
$GPRMC,215549.000,A,3748.7909,N,12217.8708,W,0.50,311.71,191212,,,D*70
$GPRMC,215550.000,A,3748.7909,N,12217.8709,W,0.62,312.15,191212,,,D*79
$GPRMC,215551.000,A,3748.7911,N,12217.8710,W,0.53,325.98,191212,,,D*7A
$GPRMC,215552.000,A,3748.7912,N,12217.8711,W,0.63,321.81,191212,,,D*74
$GPRMC,215553.000,A,3748.7914,N,12217.8713,W,0.60,321.23,191212,,,D*7A
$GPRMC,215554.000,A,3748.7915,N,12217.8713,W,0.75,316.61,191212,,,D*7A
$GPRMC,215555.000,A,3748.7914,N,12217.8712,W,0.15,1.61,191212,,,D*78
$GPRMC,215556.000,A,3748.7914,N,12217.8712,W,0.29,313.61,191212,,,D*74
$GPRMC,215557.000,A,3748.7915,N,12217.8713,W,0.39,309.38,191212,,,D*73
$GPRMC,215558.000,A,3748.7915,N,12217.8712,W,0.25,325.01,191212,,,D*74
$GPRMC,215559.000,A,3748.7914,N,12217.8712,W,0.24,280.14,191212,,,D*7F
$GPRMC,215600.000,A,3748.7913,N,12217.8711,W,0.09,246.96,191212,,,D*7B
$GPRMC,215601.000,A,3748.7910,N,12217.8707,W,0.28,128.79,191212,,,D*77
$GPRMC,215602.000,A,3748.7909,N,12217.8705,W,0.23,146.15,191212,,,D*77
$GPRMC,215603.000,A,3748.7909,N,12217.8704,W,0.17,116.24,191212,,,D*77
$GPRMC,215604.000,A,3748.7907,N,12217.8701,W,0.22,93.16,191212,,,D*40
$GPRMC,215605.000,A,3748.7907,N,12217.8700,W,0.18,346.44,191212,,,D*75
$GPRMC,215606.000,A,3748.7906,N,12217.8698,W,0.27,39.85,191212,,,D*4D
$GPRMC,215607.000,A,3748.7906,N,12217.8696,W,0.36,29.81,191212,,,D*47
$GPRMC,215608.000,A,3748.7906,N,12217.8695,W,0.51,333.50,191212,,,D*7E
$GPRMC,215609.000,A,3748.7907,N,12217.8696,W,0.58,318.57,191212,,,D*7A
$GPRMC,215610.000,A,3748.7906,N,12217.8697,W,0.46,286.42,191212,,,D*7F
$GPRMC,215611.000,A,3748.7905,N,12217.8697,W,0.36,244.68,191212,,,D*7C
$GPRMC,215612.000,A,3748.7903,N,12217.8695,W,0.46,260.24,191212,,,D*72
$GPRMC,215613.000,A,3748.7901,N,12217.8694,W,0.46,146.16,191212,,,D*76
$GPRMC,215614.000,A,3748.7900,N,12217.8692,W,0.16,142.04,191212,,,D*74
$GPRMC,215615.000,A,3748.7900,N,12217.8692,W,0.12,221.09,191212,,,D*7A
$GPRMC,215616.000,A,3748.7900,N,12217.8691,W,0.24,216.49,191212,,,D*7F
$GPRMC,215617.000,A,3748.7899,N,12217.8690,W,0.31,162.40,191212,,,D*73
$GPRMC,215618.000,A,3748.7898,N,12217.8689,W,0.19,187.24,191212,,,D*76
$GPRMC,215619.000,A,3748.7897,N,12217.8687,W,0.26,105.64,191212,,,D*74
$GPRMC,215620.000,A,3748.7896,N,12217.8686,W,0.23,105.00,191212,,,D*79
$GPRMC,215621.000,A,3748.7895,N,12217.8684,W,0.38,125.92,191212,,,D*7A
$GPRMC,215622.000,A,3748.7894,N,12217.8682,W,0.53,132.18,191212,,,D*77
$GPRMC,215623.000,A,3748.7895,N,12217.8685,W,0.22,288.20,191212,,,D*7F
$GPRMC,215624.000,A,3748.7895,N,12217.8685,W,0.29,286.70,191212,,,D*78
$GPRMC,215625.000,A,3748.7895,N,12217.8685,W,0.11,326.83,191212,,,D*75
$GPRMC,215626.000,A,3748.7895,N,12217.8684,W,0.18,87.54,191212,,,D*4C
$GPRMC,215627.000,A,3748.7897,N,12217.8688,W,0.10,60.06,191212,,,D*45
$GPRMC,215628.000,A,3748.7897,N,12217.8688,W,0.14,304.40,191212,,,D*7D
$GPRMC,215629.000,A,3748.7899,N,12217.8692,W,0.11,46.50,191212,,,D*48
$GPRMC,215630.000,A,3748.7898,N,12217.8688,W,0.37,96.33,191212,,,D*46
$GPRMC,215631.000,A,3748.7896,N,12217.8682,W,0.40,104.17,191212,,,D*7F
$GPRMC,215632.000,A,3748.7897,N,12217.8683,W,0.08,316.37,191212,,,D*73
$GPRMC,215633.000,A,3748.7897,N,12217.8684,W,0.37,286.27,191212,,,D*70
$GPRMC,215634.000,A,3748.7897,N,12217.8685,W,0.64,296.54,191212,,,D*75
$GPRMC,215635.000,A,3748.7894,N,12217.8684,W,0.22,319.17,191212,,,D*75
$GPRMC,215636.000,A,3748.7897,N,12217.8689,W,0.36,324.03,191212,,,D*76
$GPRMC,215637.000,A,3748.7898,N,12217.8689,W,0.46,340.77,191212,,,D*7E
$GPRMC,215638.000,A,3748.7900,N,12217.8692,W,0.38,347.54,191212,,,D*74
$GPRMC,215639.000,A,3748.7901,N,12217.8694,W,0.32,349.26,191212,,,D*73
$GPRMC,215640.000,A,3748.7903,N,12217.8697,W,0.59,320.49,191212,,,D*77
$GPRMC,215641.000,A,3748.7904,N,12217.8699,W,0.36,302.49,191212,,,D*76
$GPRMC,215642.000,A,3748.7904,N,12217.8698,W,0.32,327.50,191212,,,D*7F
$GPRMC,215643.000,A,3748.7903,N,12217.8697,W,0.47,313.18,191212,,,D*7F
$GPRMC,215644.000,A,3748.7903,N,12217.8698,W,0.34,278.56,191212,,,D*75
$GPRMC,215645.000,A,3748.7902,N,12217.8697,W,0.16,215.07,191212,,,D*75
$GPRMC,215646.000,A,3748.7900,N,12217.8693,W,0.40,152.22,191212,,,D*74
$GPRMC,215647.000,A,3748.7898,N,12217.8691,W,0.35,152.38,191212,,,D*7E
$GPRMC,215648.000,A,3748.7898,N,12217.8693,W,0.32,146.51,191212,,,D*7E
$GPRMC,215649.000,A,3748.7898,N,12217.8693,W,0.32,134.56,191212,,,D*7D
$GPRMC,215650.000,A,3748.7899,N,12217.8693,W,0.25,256.00,191212,,,D*76
$GPRMC,215651.000,A,3748.7900,N,12217.8694,W,0.44,277.64,191212,,,D*77
$GPRMC,215652.000,A,3748.7901,N,12217.8696,W,0.41,267.50,191212,,,D*74
$GPRMC,215653.000,A,3748.7901,N,12217.8697,W,0.31,275.62,191212,,,D*71
$GPRMC,215654.000,A,3748.7899,N,12217.8697,W,0.39,265.86,191212,,,D*75
$GPRMC,215655.000,A,3748.7899,N,12217.8698,W,0.39,278.98,191212,,,D*78
$GPRMC,215656.000,A,3748.7900,N,12217.8700,W,0.43,298.10,191212,,,D*79
$GPRMC,215657.000,A,3748.7901,N,12217.8702,W,0.58,301.97,191212,,,D*7F
$GPRMC,215658.000,A,3748.7902,N,12217.8704,W,0.70,311.87,191212,,,D*7F
$GPRMC,215659.000,A,3748.7903,N,12217.8706,W,0.71,312.73,191212,,,D*74
$GPRMC,215700.000,A,3748.7904,N,12217.8707,W,0.52,306.72,191212,,,D*7A
$GPRMC,215701.000,A,3748.7904,N,12217.8709,W,0.28,300.83,191212,,,D*70
$GPRMC,215702.000,A,3748.7904,N,12217.8709,W,0.27,311.38,191212,,,D*7C
$GPRMC,215703.000,A,3748.7905,N,12217.8710,W,0.43,320.88,191212,,,D*7F
$GPRMC,215704.000,A,3748.7905,N,12217.8710,W,0.39,318.87,191212,,,D*71
$GPRMC,215705.000,A,3748.7906,N,12217.8710,W,0.39,326.55,191212,,,D*71
$GPRMC,215706.000,A,3748.7908,N,12217.8712,W,0.48,316.56,191212,,,D*78
$GPRMC,215707.000,A,3748.7910,N,12217.8715,W,0.36,298.64,191212,,,D*78
$GPRMC,215708.000,A,3748.7910,N,12217.8717,W,0.33,280.73,191212,,,D*7F
$GPRMC,215709.000,A,3748.7911,N,12217.8719,W,0.30,280.65,191212,,,D*75
$GPRMC,215710.000,A,3748.7909,N,12217.8715,W,0.17,196.04,191212,,,D*7E
$GPRMC,215711.000,A,3748.7907,N,12217.8713,W,0.15,175.97,191212,,,D*72
$GPRMC,215712.000,A,3748.7904,N,12217.8710,W,0.20,138.04,191212,,,D*74
$GPRMC,215713.000,A,3748.7904,N,12217.8710,W,0.15,287.85,191212,,,D*7D
$GPRMC,215714.000,A,3748.7904,N,12217.8710,W,0.34,314.71,191212,,,D*79
$GPRMC,215715.000,A,3748.7903,N,12217.8705,W,0.19,343.77,191212,,,D*70
$GPRMC,215716.000,A,3748.7905,N,12217.8710,W,0.57,315.16,191212,,,D*7F
$GPRMC,215717.000,A,3748.7907,N,12217.8715,W,0.30,292.55,191212,,,D*71
$GPRMC,215718.000,A,3748.7905,N,12217.8715,W,0.32,262.63,191212,,,D*74
$GPRMC,215719.000,A,3748.7905,N,12217.8715,W,0.13,224.76,191212,,,D*70
$GPRMC,215720.000,A,3748.7905,N,12217.8716,W,0.16,155.10,191212,,,D*79
$GPRMC,215721.000,A,3748.7905,N,12217.8716,W,0.21,145.50,191212,,,D*79
$GPRMC,215722.000,A,3748.7904,N,12217.8715,W,0.43,143.30,191212,,,D*7C
$GPRMC,215723.000,A,3748.7902,N,12217.8711,W,0.52,145.29,191212,,,D*71
$GPRMC,215724.000,A,3748.7901,N,12217.8709,W,0.47,143.33,191212,,,D*75
$GPRMC,215725.000,A,3748.7899,N,12217.8705,W,0.59,142.99,191212,,,D*76
$GPRMC,215726.000,A,3748.7900,N,12217.8709,W,0.27,121.18,191212,,,D*7D
$GPRMC,215727.000,A,3748.7900,N,12217.8707,W,0.18,99.65,191212,,,D*46
$GPRMC,215728.000,A,3748.7900,N,12217.8708,W,0.37,320.44,191212,,,D*79
$GPRMC,215729.000,A,3748.7900,N,12217.8707,W,0.33,304.22,191212,,,D*75
$GPRMC,215730.000,A,3748.7902,N,12217.8710,W,0.54,292.88,191212,,,D*76
$GPRMC,215731.000,A,3748.7903,N,12217.8713,W,0.80,309.37,191212,,,D*7B
$GPRMC,215732.000,A,3748.7904,N,12217.8713,W,0.44,318.87,191212,,,D*7C
$GPRMC,215733.000,A,3748.7904,N,12217.8713,W,0.11,28.83,191212,,,D*49
$GPRMC,215734.000,A,3748.7901,N,12217.8711,W,0.24,126.86,191212,,,D*75
$GPRMC,215735.000,A,3748.7901,N,12217.8710,W,0.27,147.07,191212,,,D*78
$GPRMC,215736.000,A,3748.7901,N,12217.8710,W,0.16,311.74,191212,,,D*7C
$GPRMC,215737.000,A,3748.7899,N,12217.8708,W,0.29,131.34,191212,,,D*7C
$GPRMC,215738.000,A,3748.7896,N,12217.8704,W,0.60,167.47,191212,,,D*7A
$GPRMC,215739.000,A,3748.7898,N,12217.8707,W,0.48,194.66,191212,,,D*73
$GPRMC,215740.000,A,3748.7895,N,12217.8704,W,0.14,232.16,191212,,,D*72
$GPRMC,215741.000,A,3748.7899,N,12217.8706,W,0.17,316.95,191212,,,D*72
$GPRMC,215742.000,A,3748.7895,N,12217.8701,W,0.27,163.78,191212,,,D*7A
$GPRMC,215743.000,A,3748.7894,N,12217.8699,W,0.10,209.31,191212,,,D*7C
$GPRMC,215744.000,A,3748.7895,N,12217.8701,W,0.61,149.71,191212,,,D*7F
$GPRMC,215745.000,A,3748.7893,N,12217.8699,W,1.08,159.03,191212,,,D*72
$GPRMC,215746.000,A,3748.7885,N,12217.8694,W,1.07,162.32,191212,,,D*7E
$GPRMC,215747.000,A,3748.7884,N,12217.8693,W,0.33,175.68,191212,,,D*76
$GPRMC,215748.000,A,3748.7882,N,12217.8690,W,0.59,340.49,191212,,,D*77
$GPRMC,215749.000,A,3748.7885,N,12217.8691,W,1.22,334.71,191212,,,D*75
$GPRMC,215750.000,A,3748.7891,N,12217.8695,W,1.81,333.26,191212,,,D*70
$GPRMC,215751.000,A,3748.7899,N,12217.8701,W,1.68,333.85,191212,,,D*7B
$GPRMC,215752.000,A,3748.7904,N,12217.8703,W,1.59,330.87,191212,,,D*7C
$GPRMC,215753.000,A,3748.7908,N,12217.8706,W,0.75,340.63,191212,,,D*76
$GPRMC,215754.000,A,3748.7908,N,12217.8707,W,0.22,141.49,191212,,,D*79
$GPRMC,215755.000,A,3748.7906,N,12217.8704,W,0.75,140.99,191212,,,D*7B
$GPRMC,215756.000,A,3748.7912,N,12217.8704,W,1.34,145.78,191212,,,D*73
$GPRMC,215757.000,A,3748.7910,N,12217.8704,W,0.96,159.98,191212,,,D*7A
$GPRMC,215758.000,A,3748.7909,N,12217.8703,W,0.25,174.89,191212,,,D*7D
$GPRMC,215759.000,A,3748.7912,N,12217.8705,W,0.22,256.95,191212,,,D*79
$GPRMC,215800.000,A,3748.7912,N,12217.8705,W,0.20,294.69,191212,,,D*75
$GPRMC,215801.000,A,3748.7910,N,12217.8703,W,0.28,295.80,191212,,,D*7E
$GPRMC,215802.000,A,3748.7909,N,12217.8703,W,0.39,317.11,191212,,,D*76
$GPRMC,215803.000,A,3748.7908,N,12217.8701,W,0.15,347.09,191212,,,D*76
$GPRMC,215804.000,A,3748.7906,N,12217.8698,W,0.24,147.43,191212,,,D*70
$GPRMC,215805.000,A,3748.7904,N,12217.8696,W,0.30,118.92,191212,,,D*7E
$GPRMC,215806.000,A,3748.7905,N,12217.8695,W,0.30,103.28,191212,,,D*74
$GPRMC,215807.000,A,3748.7904,N,12217.8694,W,0.40,106.44,191212,,,D*7D
$GPRMC,215808.000,A,3748.7903,N,12217.8691,W,0.41,113.86,191212,,,D*7B
$GPRMC,215809.000,A,3748.7903,N,12217.8689,W,0.44,114.99,191212,,,D*7F
$GPRMC,215810.000,A,3748.7901,N,12217.8685,W,0.71,132.97,191212,,,D*75
$GPRMC,215811.000,A,3748.7901,N,12217.8688,W,0.53,144.63,191212,,,D*73
$GPRMC,215812.000,A,3748.7901,N,12217.8688,W,0.46,131.87,191212,,,D*7C
$GPRMC,215813.000,A,3748.7900,N,12217.8686,W,0.11,160.37,191212,,,D*7F
$GPRMC,215814.000,A,3748.7901,N,12217.8688,W,0.41,320.86,191212,,,D*7E
$GPRMC,215815.000,A,3748.7900,N,12217.8686,W,0.10,55.93,191212,,,D*41
$GPRMC,215816.000,A,3748.7900,N,12217.8684,W,0.31,83.92,191212,,,D*49
$GPRMC,215817.000,A,3748.7899,N,12217.8681,W,0.25,347.77,191212,,,D*79
$GPRMC,215818.000,A,3748.7900,N,12217.8684,W,0.17,179.76,191212,,,D*7D
$GPRMC,215819.000,A,3748.7899,N,12217.8683,W,0.37,135.81,191212,,,D*78
$GPRMC,215820.000,A,3748.7898,N,12217.8682,W,0.06,104.49,191212,,,D*76
$GPRMC,215821.000,A,3748.7898,N,12217.8681,W,0.21,316.18,191212,,,D*74
$GPRMC,215822.000,A,3748.7896,N,12217.8680,W,0.34,151.71,191212,,,D*72
$GPRMC,215823.000,A,3748.7894,N,12217.8677,W,0.53,143.84,191212,,,D*71
$GPRMC,215824.000,A,3748.7895,N,12217.8678,W,0.24,333.58,191212,,,D*7C
$GPRMC,215825.000,A,3748.7896,N,12217.8680,W,0.43,319.02,191212,,,D*7F
$GPRMC,215826.000,A,3748.7896,N,12217.8679,W,0.19,92.43,191212,,,D*40
$GPRMC,215827.000,A,3748.7896,N,12217.8677,W,0.14,86.56,191212,,,D*43
$GPRMC,215828.000,A,3748.7896,N,12217.8676,W,0.17,106.20,191212,,,D*76
$GPRMC,215829.000,A,3748.7896,N,12217.8677,W,0.16,4.34,191212,,,D*71
$GPRMC,215830.000,A,3748.7897,N,12217.8678,W,0.10,345.03,191212,,,D*73
$GPRMC,215831.000,A,3748.7896,N,12217.8677,W,0.15,180.12,191212,,,D*72
$GPRMC,215832.000,A,3748.7896,N,12217.8676,W,0.37,128.80,191212,,,D*79
$GPRMC,215833.000,A,3748.7897,N,12217.8679,W,0.05,135.30,191212,,,D*70
$GPRMC,215834.000,A,3748.7898,N,12217.8682,W,0.22,305.47,191212,,,D*78
$GPRMC,215835.000,A,3748.7899,N,12217.8682,W,0.08,144.00,191212,,,D*74
$GPRMC,215836.000,A,3748.7901,N,12217.8686,W,0.46,310.24,191212,,,D*7C
$GPRMC,215837.000,A,3748.7902,N,12217.8688,W,0.45,293.88,191212,,,D*7F
$GPRMC,215838.000,A,3748.7902,N,12217.8688,W,0.14,309.96,191212,,,D*79
$GPRMC,215839.000,A,3748.7901,N,12217.8687,W,0.23,132.95,191212,,,D*79
$GPRMC,215840.000,A,3748.7900,N,12217.8683,W,0.26,141.16,191212,,,D*78
$GPRMC,215841.000,A,3748.7898,N,12217.8681,W,0.53,142.72,191212,,,D*78
$GPRMC,215842.000,A,3748.7898,N,12217.8681,W,0.17,227.15,191212,,,D*7A
$GPRMC,215843.000,A,3748.7898,N,12217.8682,W,0.27,292.35,191212,,,D*77
$GPRMC,215844.000,A,3748.7899,N,12217.8684,W,0.19,273.45,191212,,,D*72
$GPRMC,215845.000,A,3748.7900,N,12217.8685,W,0.19,142.46,191212,,,D*71
$GPRMC,215846.000,A,3748.7901,N,12217.8688,W,0.03,322.06,191212,,,D*75
$GPRMC,215847.000,A,3748.7900,N,12217.8686,W,0.27,155.57,191212,,,D*7B
$GPRMC,215848.000,A,3748.7899,N,12217.8685,W,0.18,277.66,191212,,,D*7B
$GPRMC,215849.000,A,3748.7898,N,12217.8685,W,0.38,279.96,191212,,,D*78
$GPRMC,215850.000,A,3748.7897,N,12217.8683,W,0.14,211.02,191212,,,D*74
$GPRMC,215851.000,A,3748.7897,N,12217.8683,W,0.13,184.95,191212,,,D*73
$GPRMC,215852.000,A,3748.7898,N,12217.8685,W,0.09,196.08,191212,,,D*75
$GPRMC,215853.000,A,3748.7900,N,12217.8689,W,0.46,310.39,191212,,,D*7D
$GPRMC,215854.000,A,3748.7902,N,12217.8690,W,0.18,355.79,191212,,,D*7E
$GPRMC,215855.000,A,3748.7902,N,12217.8691,W,0.11,200.11,191212,,,D*78
$GPRMC,215856.000,A,3748.7903,N,12217.8694,W,0.32,278.84,191212,,,D*7D
$GPRMC,215857.000,A,3748.7904,N,12217.8698,W,0.26,322.08,191212,,,D*78
$GPRMC,215858.000,A,3748.7906,N,12217.8700,W,0.66,315.96,191212,,,D*72
$GPRMC,215859.000,A,3748.7905,N,12217.8699,W,0.14,344.10,191212,,,D*7E
$GPRMC,215900.000,A,3748.7907,N,12217.8701,W,0.65,325.49,191212,,,D*7C
$GPRMC,215901.000,A,3748.7905,N,12217.8698,W,0.12,298.66,191212,,,D*74
$GPRMC,215902.000,A,3748.7904,N,12217.8696,W,0.18,157.88,191212,,,D*72
$GPRMC,215903.000,A,3748.7906,N,12217.8697,W,0.11,306.92,191212,,,D*74
$GPRMC,215904.000,A,3748.7906,N,12217.8697,W,0.08,282.57,191212,,,D*7F
$GPRMC,215905.000,A,3748.7906,N,12217.8697,W,0.09,60.99,191212,,,D*43
$GPRMC,215906.000,A,3748.7905,N,12217.8695,W,0.38,146.44,191212,,,D*76
$GPRMC,215907.000,A,3748.7903,N,12217.8692,W,0.25,173.02,191212,,,D*7E
$GPRMC,215908.000,A,3748.7903,N,12217.8693,W,0.33,286.74,191212,,,D*7F
$GPRMC,215909.000,A,3748.7904,N,12217.8695,W,0.14,321.45,191212,,,D*74
$GPRMC,215910.000,A,3748.7905,N,12217.8696,W,0.05,114.93,191212,,,D*71
$GPRMC,215911.000,A,3748.7905,N,12217.8697,W,0.12,206.70,191212,,,D*7A
$GPRMC,215912.000,A,3748.7906,N,12217.8698,W,0.22,322.49,191212,,,D*7B
$GPRMC,215913.000,A,3748.7905,N,12217.8697,W,0.09,218.05,191212,,,D*7F
$GPRMC,215914.000,A,3748.7906,N,12217.8700,W,0.18,179.98,191212,,,D*74
$GPRMC,215915.000,A,3748.7905,N,12217.8699,W,0.20,138.77,191212,,,D*78
$GPRMC,215916.000,A,3748.7906,N,12217.8700,W,0.21,265.60,191212,,,D*75
$GPRMC,215917.000,A,3748.7905,N,12217.8699,W,0.16,316.05,191212,,,D*74
$GPRMC,215918.000,A,3748.7905,N,12217.8698,W,0.04,70.49,191212,,,D*42
$GPRMC,215919.000,A,3748.7904,N,12217.8696,W,0.27,118.38,191212,,,D*74
$GPRMC,215920.000,A,3748.7903,N,12217.8694,W,0.20,99.37,191212,,,D*4B
$GPRMC,215921.000,A,3748.7905,N,12217.8697,W,0.44,302.78,191212,,,D*77
$GPRMC,215922.000,A,3748.7908,N,12217.8702,W,0.19,276.19,191212,,,D*79
$GPRMC,215923.000,A,3748.7906,N,12217.8701,W,0.31,159.58,191212,,,D*74
$GPRMC,215924.000,A,3748.7904,N,12217.8699,W,0.25,109.84,191212,,,D*70
$GPRMC,215925.000,A,3748.7903,N,12217.8696,W,0.20,163.59,191212,,,D*70
$GPRMC,215926.000,A,3748.7904,N,12217.8696,W,0.25,288.81,191212,,,D*72
$GPRMC,215927.000,A,3748.7904,N,12217.8697,W,0.31,294.92,191212,,,D*78
$GPRMC,215928.000,A,3748.7904,N,12217.8699,W,0.15,180.64,191212,,,D*70
$GPRMC,215929.000,A,3748.7903,N,12217.8698,W,0.36,163.05,191212,,,D*7C
$GPRMC,215930.000,A,3748.7900,N,12217.8697,W,0.46,184.48,191212,,,D*7F
$GPRMC,215931.000,A,3748.7894,N,12217.8690,W,1.09,159.39,191212,,,D*79
$GPRMC,215932.000,A,3748.7889,N,12217.8686,W,0.71,151.50,191212,,,D*78
$GPRMC,215933.000,A,3748.7889,N,12217.8685,W,0.09,60.31,191212,,,D*41
$GPRMC,215934.000,A,3748.7891,N,12217.8686,W,0.60,337.02,191212,,,D*72
$GPRMC,215935.000,A,3748.7895,N,12217.8689,W,0.80,330.57,191212,,,D*71
$GPRMC,215936.000,A,3748.7897,N,12217.8690,W,0.80,336.39,191212,,,D*76
$GPRMC,215937.000,A,3748.7897,N,12217.8688,W,0.41,336.18,191212,,,D*70
$GPRMC,215938.000,A,3748.7897,N,12217.8688,W,0.44,348.04,191212,,,D*7E
$GPRMC,215939.000,A,3748.7896,N,12217.8686,W,0.11,7.74,191212,,,D*7F
$GPRMC,215940.000,A,3748.7896,N,12217.8687,W,0.10,144.44,191212,,,D*74
$GPRMC,215941.000,A,3748.7896,N,12217.8687,W,0.21,261.08,191212,,,D*7B
$GPRMC,215942.000,A,3748.7894,N,12217.8687,W,0.27,271.39,191212,,,D*7F
$GPRMC,215943.000,A,3748.7890,N,12217.8685,W,0.92,157.84,191212,,,D*77
$GPRMC,215944.000,A,3748.7886,N,12217.8682,W,0.92,168.29,191212,,,D*7B
$GPRMC,215945.000,A,3748.7882,N,12217.8680,W,0.62,159.82,191212,,,D*70
$GPRMC,215946.000,A,3748.7882,N,12217.8681,W,0.37,140.85,191212,,,D*7D
$GPRMC,215947.000,A,3748.7878,N,12217.8677,W,0.28,175.30,191212,,,D*76
$GPRMC,215948.000,A,3748.7877,N,12217.8678,W,0.46,185.41,191212,,,D*78
$GPRMC,215949.000,A,3748.7876,N,12217.8678,W,0.26,195.64,191212,,,D*78
$GPRMC,215950.000,A,3748.7875,N,12217.8677,W,0.09,13.39,191212,,,D*46
$GPRMC,215951.000,A,3748.7875,N,12217.8677,W,0.25,332.77,191212,,,D*73
$GPRMC,215952.000,A,3748.7873,N,12217.8675,W,0.49,331.08,191212,,,D*75
$GPRMC,215953.000,A,3748.7872,N,12217.8674,W,0.42,353.56,191212,,,D*70
$GPRMC,215954.000,A,3748.7873,N,12217.8675,W,0.51,344.10,191212,,,D*71
$GPRMC,215955.000,A,3748.7876,N,12217.8677,W,0.27,179.49,191212,,,D*76
$GPRMC,215956.000,A,3748.7874,N,12217.8677,W,0.92,159.02,191212,,,D*74
$GPRMC,215957.000,A,3748.7867,N,12217.8671,W,0.96,166.00,191212,,,D*7B
$GPRMC,215958.000,A,3748.7866,N,12217.8673,W,1.28,158.78,191212,,,D*71
$GPRMC,215959.000,A,3748.7863,N,12217.8671,W,0.41,158.18,191212,,,D*7F
$GPRMC,220000.000,A,3748.7864,N,12217.8671,W,0.25,338.38,191212,,,D*7F
$GPRMC,220001.000,A,3748.7862,N,12217.8668,W,0.14,42.77,191212,,,D*47
$GPRMC,220002.000,A,3748.7861,N,12217.8667,W,0.61,345.18,191212,,,D*77
$GPRMC,220003.000,A,3748.7866,N,12217.8670,W,0.77,340.18,191212,,,D*75
$GPRMC,220004.000,A,3748.7868,N,12217.8671,W,1.03,342.53,191212,,,D*72
$GPRMC,220005.000,A,3748.7870,N,12217.8671,W,0.75,346.87,191212,,,D*77
$GPRMC,220006.000,A,3748.7869,N,12217.8671,W,0.24,307.89,191212,,,D*73
$GPRMC,220007.000,A,3748.7869,N,12217.8672,W,0.75,157.84,191212,,,D*7F
$GPRMC,220008.000,A,3748.7866,N,12217.8671,W,0.17,196.05,191212,,,D*7C
$GPRMC,220009.000,A,3748.7868,N,12217.8673,W,0.08,301.48,191212,,,D*7A
$GPRMC,220010.000,A,3748.7867,N,12217.8671,W,0.10,343.00,191212,,,D*7C
$GPRMC,220011.000,A,3748.7870,N,12217.8674,W,0.35,352.74,191212,,,D*7A
$GPRMC,220012.000,A,3748.7873,N,12217.8676,W,0.54,350.62,191212,,,D*7A
$GPRMC,220013.000,A,3748.7871,N,12217.8674,W,0.57,336.71,191212,,,D*7A
$GPRMC,220014.000,A,3748.7870,N,12217.8673,W,0.38,296.03,191212,,,D*7C
$GPRMC,220015.000,A,3748.7869,N,12217.8673,W,0.37,190.46,191212,,,D*7E
$GPRMC,220016.000,A,3748.7864,N,12217.8668,W,1.29,152.85,191212,,,D*75
$GPRMC,220017.000,A,3748.7866,N,12217.8672,W,0.86,171.62,191212,,,D*71
$GPRMC,220018.000,A,3748.7863,N,12217.8671,W,0.82,162.03,191212,,,D*79
$GPRMC,220019.000,A,3748.7863,N,12217.8670,W,0.80,147.90,191212,,,D*76
$GPRMC,220020.000,A,3748.7863,N,12217.8670,W,0.09,145.03,191212,,,D*75
$GPRMC,220021.000,A,3748.7862,N,12217.8668,W,0.38,332.01,191212,,,D*7E
$GPRMC,220022.000,A,3748.7862,N,12217.8666,W,0.64,350.95,191212,,,D*73
$GPRMC,220023.000,A,3748.7860,N,12217.8663,W,0.53,352.22,191212,,,D*7F
$GPRMC,220024.000,A,3748.7857,N,12217.8659,W,0.29,7.20,191212,,,D*79
$GPRMC,220025.000,A,3748.7857,N,12217.8660,W,0.15,226.43,191212,,,D*79
$GPRMC,220026.000,A,3748.7856,N,12217.8660,W,0.51,175.48,191212,,,D*75
$GPRMC,220027.000,A,3748.7853,N,12217.8659,W,0.38,181.74,191212,,,D*70
$GPRMC,220028.000,A,3748.7855,N,12217.8662,W,0.72,167.66,191212,,,D*74
$GPRMC,220029.000,A,3748.7849,N,12217.8658,W,0.91,163.05,191212,,,D*7D
$GPRMC,220030.000,A,3748.7847,N,12217.8657,W,0.40,180.47,191212,,,D*73
$GPRMC,220031.000,A,3748.7847,N,12217.8658,W,0.26,194.05,191212,,,D*7E
$GPRMC,220032.000,A,3748.7844,N,12217.8654,W,0.69,139.68,191212,,,D*75
$GPRMC,220033.000,A,3748.7843,N,12217.8652,W,0.18,76.77,191212,,,D*47
$GPRMC,220034.000,A,3748.7844,N,12217.8652,W,0.83,337.92,191212,,,D*78
$GPRMC,220035.000,A,3748.7845,N,12217.8652,W,0.37,347.99,191212,,,D*7B
$GPRMC,220036.000,A,3748.7847,N,12217.8654,W,0.20,154.44,191212,,,D*7A
$GPRMC,220037.000,A,3748.7851,N,12217.8657,W,0.37,179.12,191212,,,D*75
$GPRMC,220038.000,A,3748.7862,N,12217.8661,W,0.55,150.77,191212,,,D*73
$GPRMC,220039.000,A,3748.7864,N,12217.8664,W,1.03,160.49,191212,,,D*7D
$GPRMC,220040.000,A,3748.7866,N,12217.8664,W,1.03,170.46,191212,,,D*7F
$GPRMC,220041.000,A,3748.7868,N,12217.8667,W,0.25,181.65,191212,,,D*79
$GPRMC,220042.000,A,3748.7873,N,12217.8671,W,0.47,333.60,191212,,,D*7D
$GPRMC,220043.000,A,3748.7876,N,12217.8673,W,0.94,336.89,191212,,,D*77
$GPRMC,220044.000,A,3748.7880,N,12217.8676,W,0.63,342.94,191212,,,D*7B
$GPRMC,220045.000,A,3748.7881,N,12217.8676,W,0.52,13.90,191212,,,D*4A
$GPRMC,220046.000,A,3748.7881,N,12217.8674,W,0.83,333.84,191212,,,D*73
$GPRMC,220047.000,A,3748.7884,N,12217.8676,W,0.78,325.60,191212,,,D*7C
$GPRMC,220048.000,A,3748.7886,N,12217.8677,W,0.49,342.52,191212,,,D*72
$GPRMC,220049.000,A,3748.7883,N,12217.8673,W,0.31,46.21,191212,,,D*4E
$GPRMC,220050.000,A,3748.7882,N,12217.8671,W,0.35,344.81,191212,,,D*7A
$GPRMC,220051.000,A,3748.7887,N,12217.8673,W,0.46,315.81,191212,,,D*7C
$GPRMC,220052.000,A,3748.7884,N,12217.8669,W,0.57,330.20,191212,,,D*7B
$GPRMC,220053.000,A,3748.7876,N,12217.8662,W,1.19,152.54,191212,,,D*72
$GPRMC,220054.000,A,3748.7867,N,12217.8655,W,1.76,154.32,191212,,,D*7E
$GPRMC,220055.000,A,3748.7857,N,12217.8650,W,1.11,157.09,191212,,,D*73
$GPRMC,220056.000,A,3748.7861,N,12217.8654,W,0.17,336.08,191212,,,D*72
$GPRMC,220057.000,A,3748.7860,N,12217.8654,W,0.13,237.05,191212,,,D*7B
$GPRMC,220058.000,A,3748.7861,N,12217.8656,W,0.25,278.78,191212,,,D*73
$GPRMC,220059.000,A,3748.7859,N,12217.8653,W,0.11,39.48,191212,,,D*4F
$GPRMC,220100.000,A,3748.7852,N,12217.8647,W,0.48,117.89,191212,,,D*70
$GPRMC,220101.000,A,3748.7852,N,12217.8646,W,0.18,31.48,191212,,,D*4D
$GPRMC,220102.000,A,3748.7852,N,12217.8645,W,0.58,339.84,191212,,,D*72
$GPRMC,220103.000,A,3748.7859,N,12217.8649,W,0.48,347.96,191212,,,D*7F
$GPRMC,220104.000,A,3748.7862,N,12217.8649,W,0.35,15.33,191212,,,D*41
$GPRMC,220105.000,A,3748.7861,N,12217.8647,W,0.27,319.44,191212,,,D*71
$GPRMC,220106.000,A,3748.7856,N,12217.8643,W,0.48,171.24,191212,,,D*71
$GPRMC,220107.000,A,3748.7856,N,12217.8645,W,0.11,200.43,191212,,,D*7E
$GPRMC,220108.000,A,3748.7855,N,12217.8645,W,0.18,213.25,191212,,,D*79
$GPRMC,220109.000,A,3748.7857,N,12217.8645,W,0.49,160.68,191212,,,D*70
$GPRMC,220110.000,A,3748.7857,N,12217.8645,W,0.21,199.17,191212,,,D*78
$GPRMC,220111.000,A,3748.7859,N,12217.8651,W,0.52,331.77,191212,,,D*70
$GPRMC,220112.000,A,3748.7861,N,12217.8651,W,0.10,28.67,191212,,,D*44
$GPRMC,220113.000,A,3748.7861,N,12217.8653,W,0.20,191.17,191212,,,D*70
$GPRMC,220114.000,A,3748.7861,N,12217.8653,W,0.23,170.24,191212,,,D*7B
$GPRMC,220115.000,A,3748.7856,N,12217.8653,W,0.15,244.56,191212,,,D*7A
$GPRMC,220116.000,A,3748.7854,N,12217.8653,W,0.58,204.15,191212,,,D*71
$GPRMC,220117.000,A,3748.7857,N,12217.8657,W,0.42,237.87,191212,,,D*77
$GPRMC,220118.000,A,3748.7860,N,12217.8658,W,0.06,219.47,191212,,,D*73
$GPRMC,220119.000,A,3748.7864,N,12217.8658,W,0.19,54.96,191212,,,D*4F
$GPRMC,220120.000,A,3748.7867,N,12217.8658,W,0.26,116.24,191212,,,D*74
$GPRMC,220121.000,A,3748.7867,N,12217.8658,W,0.13,186.12,191212,,,D*7F
$GPRMC,220122.000,A,3748.7870,N,12217.8660,W,0.60,321.38,191212,,,D*72
$GPRMC,220123.000,A,3748.7870,N,12217.8661,W,0.60,326.14,191212,,,D*7B
$GPRMC,220124.000,A,3748.7870,N,12217.8661,W,0.15,193.81,191212,,,D*7E
$GPRMC,220125.000,A,3748.7870,N,12217.8662,W,0.30,156.24,191212,,,D*7D
$GPRMC,220126.000,A,3748.7871,N,12217.8664,W,0.31,171.05,191212,,,D*7E
$GPRMC,220127.000,A,3748.7871,N,12217.8663,W,0.13,333.42,191212,,,D*7F
$GPRMC,220128.000,A,3748.7872,N,12217.8664,W,0.05,340.05,191212,,,D*74
$GPRMC,220129.000,A,3748.7873,N,12217.8664,W,0.14,115.09,191212,,,D*7A
$GPRMC,220130.000,A,3748.7875,N,12217.8665,W,0.63,325.00,191212,,,D*7D
$GPRMC,220131.000,A,3748.7877,N,12217.8668,W,0.56,331.08,191212,,,D*78
$GPRMC,220132.000,A,3748.7878,N,12217.8668,W,0.30,311.22,191212,,,D*7E
$GPRMC,220133.000,A,3748.7879,N,12217.8669,W,0.06,213.38,191212,,,D*72
$GPRMC,220134.000,A,3748.7880,N,12217.8669,W,0.24,154.81,191212,,,D*71
$GPRMC,220135.000,A,3748.7879,N,12217.8668,W,0.28,137.40,191212,,,D*73
$GPRMC,220136.000,A,3748.7880,N,12217.8669,W,0.29,306.51,191212,,,D*76
$GPRMC,220137.000,A,3748.7879,N,12217.8668,W,0.24,323.37,191212,,,D*7A
$GPRMC,220138.000,A,3748.7879,N,12217.8667,W,0.10,107.10,191212,,,D*7C
$GPRMC,220139.000,A,3748.7880,N,12217.8669,W,0.27,312.72,191212,,,D*73
$GPRMC,220140.000,A,3748.7881,N,12217.8670,W,0.24,319.36,191212,,,D*7C
$GPRMC,220141.000,A,3748.7881,N,12217.8671,W,0.03,317.45,191212,,,D*73
$GPRMC,220142.000,A,3748.7880,N,12217.8668,W,0.23,100.44,191212,,,D*7E
$GPRMC,220143.000,A,3748.7879,N,12217.8665,W,0.07,100.69,191212,,,D*7D
$GPRMC,220144.000,A,3748.7879,N,12217.8666,W,0.15,108.85,191212,,,D*70
$GPRMC,220145.000,A,3748.7877,N,12217.8662,W,0.45,125.04,191212,,,D*78
$GPRMC,220146.000,A,3748.7877,N,12217.8661,W,0.04,354.60,191212,,,D*7B
$GPRMC,220147.000,A,3748.7878,N,12217.8662,W,0.07,40.11,191212,,,D*45
$GPRMC,220148.000,A,3748.7880,N,12217.8666,W,0.41,300.00,191212,,,D*7C
$GPRMC,220149.000,A,3748.7881,N,12217.8667,W,0.16,145.01,191212,,,D*7D
$GPRMC,220150.000,A,3748.7883,N,12217.8670,W,0.07,297.62,191212,,,D*78
$GPRMC,220151.000,A,3748.7884,N,12217.8673,W,0.48,298.36,191212,,,D*78
$GPRMC,220152.000,A,3748.7886,N,12217.8677,W,0.34,305.20,191212,,,D*74
$GPRMC,220153.000,A,3748.7887,N,12217.8678,W,0.03,127.30,191212,,,D*7C
$GPRMC,220154.000,A,3748.7887,N,12217.8677,W,0.21,108.84,191212,,,D*76
$GPRMC,220155.000,A,3748.7887,N,12217.8677,W,0.24,320.57,191212,,,D*74
$GPRMC,220156.000,A,3748.7886,N,12217.8675,W,0.21,310.41,191212,,,D*75
$GPRMC,220157.000,A,3748.7885,N,12217.8674,W,0.42,310.10,191212,,,D*77
$GPRMC,220158.000,A,3748.7885,N,12217.8673,W,0.28,321.20,191212,,,D*72
$GPRMC,220159.000,A,3748.7887,N,12217.8675,W,0.52,311.55,191212,,,D*7B
$GPRMC,220200.000,A,3748.7887,N,12217.8676,W,0.19,296.36,191212,,,D*73
$GPRMC,220201.000,A,3748.7887,N,12217.8677,W,0.13,302.19,191212,,,D*78
$GPRMC,220202.000,A,3748.7886,N,12217.8675,W,0.17,288.43,191212,,,D*70
$GPRMC,220203.000,A,3748.7885,N,12217.8674,W,0.04,184.60,191212,,,D*7F
$GPRMC,220204.000,A,3748.7887,N,12217.8677,W,0.26,296.52,191212,,,D*78
$GPRMC,220205.000,A,3748.7886,N,12217.8676,W,0.15,290.06,191212,,,D*7E
$GPRMC,220206.000,A,3748.7886,N,12217.8676,W,0.08,7.56,191212,,,D*78
$GPRMC,220207.000,A,3748.7885,N,12217.8674,W,0.13,337.45,191212,,,D*70
$GPRMC,220208.000,A,3748.7886,N,12217.8674,W,0.08,4.44,191212,,,D*74
$GPRMC,220209.000,A,3748.7889,N,12217.8677,W,0.09,59.03,191212,,,D*43
$GPRMC,220210.000,A,3748.7891,N,12217.8678,W,0.09,61.24,191212,,,D*43
$GPRMC,220211.000,A,3748.7890,N,12217.8677,W,0.12,98.60,191212,,,D*40
$GPRMC,220212.000,A,3748.7889,N,12217.8676,W,0.06,238.02,191212,,,D*73
$GPRMC,220213.000,A,3748.7890,N,12217.8677,W,0.38,298.09,191212,,,D*77
$GPRMC,220214.000,A,3748.7891,N,12217.8679,W,0.04,166.96,191212,,,D*74
$GPRMC,220215.000,A,3748.7889,N,12217.8677,W,0.28,146.72,191212,,,D*74
$GPRMC,220216.000,A,3748.7886,N,12217.8673,W,0.36,142.77,191212,,,D*72
$GPRMC,220217.000,A,3748.7885,N,12217.8672,W,0.36,137.76,191212,,,D*72
$GPRMC,220218.000,A,3748.7885,N,12217.8672,W,0.07,109.71,191212,,,D*75
$GPRMC,220219.000,A,3748.7884,N,12217.8669,W,0.21,316.81,191212,,,D*78
$GPRMC,220220.000,A,3748.7885,N,12217.8671,W,0.34,320.79,191212,,,D*7C
$GPRMC,220221.000,A,3748.7886,N,12217.8671,W,0.13,348.20,191212,,,D*79
$GPRMC,220222.000,A,3748.7887,N,12217.8672,W,0.27,328.70,191212,,,D*7C
$GPRMC,220223.000,A,3748.7888,N,12217.8672,W,0.11,63.76,191212,,,D*4D
$GPRMC,220224.000,A,3748.7886,N,12217.8670,W,0.09,167.94,191212,,,D*76
$GPRMC,220225.000,A,3748.7885,N,12217.8669,W,0.11,185.95,191212,,,D*78
$GPRMC,220226.000,A,3748.7887,N,12217.8672,W,0.46,297.85,191212,,,D*70
$GPRMC,220227.000,A,3748.7887,N,12217.8673,W,0.31,294.63,191212,,,D*7B
$GPRMC,220228.000,A,3748.7886,N,12217.8671,W,0.08,266.26,191212,,,D*71
$GPRMC,220229.000,A,3748.7886,N,12217.8672,W,0.24,284.44,191212,,,D*75
$GPRMC,220230.000,A,3748.7888,N,12217.8675,W,0.17,329.41,191212,,,D*77
$GPRMC,220231.000,A,3748.7889,N,12217.8675,W,0.13,101.29,191212,,,D*75
$GPRMC,220232.000,A,3748.7889,N,12217.8675,W,0.12,107.77,191212,,,D*7A
$GPRMC,220233.000,A,3748.7889,N,12217.8674,W,0.07,104.48,191212,,,D*71
$GPRMC,220234.000,A,3748.7891,N,12217.8676,W,0.43,313.46,191212,,,D*77
$GPRMC,220235.000,A,3748.7888,N,12217.8673,W,0.31,122.53,191212,,,D*7A
$GPRMC,220236.000,A,3748.7886,N,12217.8671,W,0.26,152.71,191212,,,D*74
$GPRMC,220237.000,A,3748.7885,N,12217.8670,W,0.06,219.40,191212,,,D*7B
$GPRMC,220238.000,A,3748.7885,N,12217.8672,W,0.08,249.75,191212,,,D*7B
$GPRMC,220239.000,A,3748.7885,N,12217.8673,W,0.19,295.71,191212,,,D*7E
$GPRMC,220240.000,A,3748.7885,N,12217.8674,W,0.06,282.11,191212,,,D*79
$GPRMC,220241.000,A,3748.7886,N,12217.8675,W,0.10,298.90,191212,,,D*7F
$GPRMC,220242.000,A,3748.7884,N,12217.8672,W,0.05,324.12,191212,,,D*71
$GPRMC,220243.000,A,3748.7883,N,12217.8671,W,0.04,343.64,191212,,,D*75
$GPRMC,220244.000,A,3748.7886,N,12217.8674,W,0.10,344.61,191212,,,D*75
$GPRMC,220245.000,A,3748.7885,N,12217.8672,W,0.03,44.15,191212,,,D*43
$GPRMC,220246.000,A,3748.7885,N,12217.8672,W,0.19,314.27,191212,,,D*7C
$GPRMC,220247.000,A,3748.7888,N,12217.8676,W,0.47,313.01,191212,,,D*7C
$GPRMC,220248.000,A,3748.7888,N,12217.8678,W,0.50,304.17,191212,,,D*7A
$GPRMC,220249.000,A,3748.7891,N,12217.8682,W,0.41,294.02,191212,,,D*7A
$GPRMC,220250.000,A,3748.7890,N,12217.8683,W,0.18,189.10,191212,,,D*72
$GPRMC,220251.000,A,3748.7889,N,12217.8681,W,0.28,171.61,191212,,,D*7B
$GPRMC,220252.000,A,3748.7888,N,12217.8682,W,0.26,194.74,191212,,,D*7B
$GPRMC,220253.000,A,3748.7888,N,12217.8682,W,0.30,165.60,191212,,,D*76
$GPRMC,220254.000,A,3748.7888,N,12217.8683,W,0.17,202.00,191212,,,D*71
$GPRMC,220255.000,A,3748.7888,N,12217.8683,W,0.16,195.18,191212,,,D*75
$GPRMC,220256.000,A,3748.7890,N,12217.8686,W,0.15,266.20,191212,,,D*7D
$GPRMC,220257.000,A,3748.7890,N,12217.8685,W,0.20,12.32,191212,,,D*4B
$GPRMC,220258.000,A,3748.7891,N,12217.8684,W,0.57,334.18,191212,,,D*7B
$GPRMC,220259.000,A,3748.7891,N,12217.8682,W,0.60,345.28,191212,,,D*7D
$GPRMC,220300.000,A,3748.7891,N,12217.8681,W,0.35,22.01,191212,,,D*4A
$GPRMC,220301.000,A,3748.7890,N,12217.8678,W,0.22,122.66,191212,,,D*7A
$GPRMC,220302.000,A,3748.7889,N,12217.8678,W,0.15,231.18,191212,,,D*7D
$GPRMC,220303.000,A,3748.7886,N,12217.8675,W,0.25,192.76,191212,,,D*7F
$GPRMC,220304.000,A,3748.7885,N,12217.8674,W,0.12,137.65,191212,,,D*73
$GPRMC,220305.000,A,3748.7885,N,12217.8674,W,0.17,180.92,191212,,,D*73
$GPRMC,220306.000,A,3748.7884,N,12217.8674,W,0.20,233.90,191212,,,D*7C
$GPRMC,220307.000,A,3748.7882,N,12217.8671,W,0.31,157.89,191212,,,D*77
$GPRMC,220308.000,A,3748.7881,N,12217.8669,W,0.13,140.08,191212,,,D*7D
$GPRMC,220309.000,A,3748.7879,N,12217.8668,W,0.12,136.80,191212,,,D*7A
$GPRMC,220310.000,A,3748.7880,N,12217.8670,W,0.28,169.04,191212,,,D*72
$GPRMC,220311.000,A,3748.7880,N,12217.8672,W,0.21,193.04,191212,,,D*7D
$GPRMC,220312.000,A,3748.7880,N,12217.8673,W,0.29,189.71,191212,,,D*7E
$GPRMC,220313.000,A,3748.7880,N,12217.8675,W,0.33,197.81,191212,,,D*72
$GPRMC,220314.000,A,3748.7880,N,12217.8676,W,0.10,248.09,191212,,,D*76
$GPRMC,220315.000,A,3748.7879,N,12217.8677,W,0.18,193.08,191212,,,D*7C
$GPRMC,220316.000,A,3748.7877,N,12217.8674,W,0.32,177.38,191212,,,D*73
$GPRMC,220317.000,A,3748.7876,N,12217.8675,W,0.34,182.55,191212,,,D*75
$GPRMC,220318.000,A,3748.7876,N,12217.8675,W,0.14,336.92,191212,,,D*7E
$GPRMC,220319.000,A,3748.7877,N,12217.8677,W,0.33,348.98,191212,,,D*7A
$GPRMC,220320.000,A,3748.7881,N,12217.8682,W,0.48,342.58,191212,,,D*79
$GPRMC,220321.000,A,3748.7884,N,12217.8686,W,0.14,309.20,191212,,,D*70
$GPRMC,220322.000,A,3748.7884,N,12217.8686,W,0.50,138.92,191212,,,D*7A
$GPRMC,220323.000,A,3748.7883,N,12217.8685,W,0.26,161.88,191212,,,D*79
$GPRMC,220324.000,A,3748.7883,N,12217.8686,W,0.19,210.71,191212,,,D*72
$GPRMC,220325.000,A,3748.7883,N,12217.8686,W,0.19,186.44,191212,,,D*79
$GPRMC,220326.000,A,3748.7883,N,12217.8687,W,0.18,207.11,191212,,,D*70
$GPRMC,220327.000,A,3748.7883,N,12217.8687,W,0.39,163.09,191212,,,D*7A
$GPRMC,220328.000,A,3748.7882,N,12217.8687,W,0.39,186.44,191212,,,D*76
$GPRMC,220329.000,A,3748.7882,N,12217.8688,W,0.25,217.87,191212,,,D*71
$GPRMC,220330.000,A,3748.7880,N,12217.8684,W,0.01,86.36,191212,,,D*41
$GPRMC,220331.000,A,3748.7879,N,12217.8680,W,0.23,17.65,191212,,,D*4C
$GPRMC,220332.000,A,3748.7878,N,12217.8676,W,0.31,29.55,191212,,,D*4A
$GPRMC,220333.000,A,3748.7877,N,12217.8674,W,0.18,126.73,191212,,,D*77
$GPRMC,220334.000,A,3748.7876,N,12217.8671,W,0.11,204.23,191212,,,D*7B
$GPRMC,220335.000,A,3748.7876,N,12217.8672,W,0.39,273.81,191212,,,D*7B
$GPRMC,220336.000,A,3748.7876,N,12217.8672,W,0.29,241.85,191212,,,D*7C
$GPRMC,220337.000,A,3748.7877,N,12217.8673,W,0.18,344.55,191212,,,D*76
$GPRMC,220338.000,A,3748.7876,N,12217.8671,W,0.15,293.94,191212,,,D*71
$GPRMC,220339.000,A,3748.7875,N,12217.8670,W,0.19,163.17,191212,,,D*79
$GPRMC,220340.000,A,3748.7874,N,12217.8668,W,0.60,146.10,191212,,,D*71
$GPRMC,220341.000,A,3748.7874,N,12217.8668,W,0.22,125.61,191212,,,D*75
$GPRMC,220342.000,A,3748.7874,N,12217.8666,W,0.30,336.89,191212,,,D*7D
$GPRMC,220343.000,A,3748.7874,N,12217.8665,W,0.31,86.47,191212,,,D*44
$GPRMC,220344.000,A,3748.7875,N,12217.8664,W,0.29,6.91,191212,,,D*79
$GPRMC,220345.000,A,3748.7876,N,12217.8664,W,0.26,76.00,191212,,,D*4B
$GPRMC,220346.000,A,3748.7874,N,12217.8661,W,0.37,126.82,191212,,,D*71
$GPRMC,220347.000,A,3748.7873,N,12217.8661,W,0.25,199.36,191212,,,D*7F
$GPRMC,220348.000,A,3748.7872,N,12217.8661,W,0.36,176.02,191212,,,D*75
$GPRMC,220349.000,A,3748.7870,N,12217.8659,W,0.66,149.29,191212,,,D*7D
$GPRMC,220350.000,A,3748.7869,N,12217.8658,W,0.46,150.15,191212,,,D*79
$GPRMC,220351.000,A,3748.7868,N,12217.8657,W,0.30,231.09,191212,,,D*7E
$GPRMC,220352.000,A,3748.7868,N,12217.8658,W,0.22,173.95,191212,,,D*71
$GPRMC,220353.000,A,3748.7869,N,12217.8659,W,0.11,159.36,191212,,,D*71
$GPRMC,220354.000,A,3748.7872,N,12217.8663,W,0.14,194.50,191212,,,D*71
$GPRMC,220355.000,A,3748.7874,N,12217.8666,W,0.09,165.52,191212,,,D*73
$GPRMC,220356.000,A,3748.7873,N,12217.8663,W,0.20,346.88,191212,,,D*7D
$GPRMC,220357.000,A,3748.7872,N,12217.8661,W,0.38,141.55,191212,,,D*73
$GPRMC,220358.000,A,3748.7870,N,12217.8656,W,0.36,119.91,191212,,,D*71
$GPRMC,220359.000,A,3748.7870,N,12217.8657,W,0.28,122.54,191212,,,D*7F
$GPRMC,220400.000,A,3748.7871,N,12217.8659,W,0.23,207.87,191212,,,D*7A
$GPRMC,220401.000,A,3748.7873,N,12217.8662,W,0.16,296.38,191212,,,D*7B
$GPRMC,220402.000,A,3748.7874,N,12217.8663,W,0.41,320.65,191212,,,D*78
$GPRMC,220403.000,A,3748.7875,N,12217.8664,W,0.28,352.63,191212,,,D*73
$GPRMC,220404.000,A,3748.7877,N,12217.8667,W,0.03,29.49,191212,,,D*4B
$GPRMC,220405.000,A,3748.7875,N,12217.8663,W,0.98,135.18,191212,,,D*76
$GPRMC,220406.000,A,3748.7872,N,12217.8657,W,0.29,168.70,191212,,,D*79
$GPRMC,220407.000,A,3748.7866,N,12217.8649,W,0.59,147.30,191212,,,D*7C
$GPRMC,220408.000,A,3748.7864,N,12217.8644,W,0.36,117.49,191212,,,D*7E
$GPRMC,220409.000,A,3748.7865,N,12217.8644,W,0.33,102.75,191212,,,D*70
$GPRMC,220410.000,A,3748.7865,N,12217.8643,W,0.34,76.09,191212,,,D*41
$GPRMC,220411.000,A,3748.7867,N,12217.8646,W,0.15,279.35,191212,,,D*76
$GPRMC,220412.000,A,3748.7866,N,12217.8646,W,0.32,260.70,191212,,,D*78
$GPRMC,220413.000,A,3748.7863,N,12217.8642,W,0.33,140.76,191212,,,D*7E
$GPRMC,220414.000,A,3748.7862,N,12217.8639,W,1.01,129.38,191212,,,D*71
$GPRMC,220415.000,A,3748.7858,N,12217.8632,W,0.77,130.78,191212,,,D*7E
$GPRMC,220416.000,A,3748.7857,N,12217.8631,W,0.56,135.68,191212,,,D*76
$GPRMC,220417.000,A,3748.7857,N,12217.8631,W,0.12,155.04,191212,,,D*7B
$GPRMC,220418.000,A,3748.7859,N,12217.8634,W,0.19,62.97,191212,,,D*4B
$GPRMC,220419.000,A,3748.7857,N,12217.8630,W,0.65,123.97,191212,,,D*7F
$GPRMC,220420.000,A,3748.7855,N,12217.8626,W,0.79,104.88,191212,,,D*76
$GPRMC,220421.000,A,3748.7855,N,12217.8625,W,0.41,94.74,191212,,,D*44
$GPRMC,220422.000,A,3748.7854,N,12217.8624,W,0.47,141.70,191212,,,D*7C
$GPRMC,220423.000,A,3748.7857,N,12217.8628,W,0.03,233.95,191212,,,D*7F
$GPRMC,220424.000,A,3748.7860,N,12217.8636,W,0.46,290.62,191212,,,D*73
$GPRMC,220425.000,A,3748.7862,N,12217.8639,W,0.54,281.39,191212,,,D*72
$GPRMC,220426.000,A,3748.7861,N,12217.8640,W,0.48,137.90,191212,,,D*7C
$GPRMC,220427.000,A,3748.7864,N,12217.8645,W,0.15,268.42,191212,,,D*73
$GPRMC,220428.000,A,3748.7863,N,12217.8643,W,0.30,140.22,191212,,,D*75
$GPRMC,220429.000,A,3748.7861,N,12217.8642,W,0.30,174.76,191212,,,D*71
$GPRMC,220430.000,A,3748.7863,N,12217.8646,W,0.41,276.91,191212,,,D*71
$GPRMC,220431.000,A,3748.7862,N,12217.8645,W,0.31,156.36,191212,,,D*79
$GPRMC,220432.000,A,3748.7862,N,12217.8645,W,0.80,137.76,191212,,,D*73
$GPRMC,220433.000,A,3748.7861,N,12217.8645,W,0.76,141.69,191212,,,D*77
$GPRMC,220434.000,A,3748.7862,N,12217.8647,W,0.51,163.14,191212,,,D*7E
$GPRMC,220435.000,A,3748.7863,N,12217.8649,W,0.41,246.32,191212,,,D*71
$GPRMC,220436.000,A,3748.7864,N,12217.8653,W,0.10,211.93,191212,,,D*73
$GPRMC,220437.000,A,3748.7864,N,12217.8652,W,0.18,340.78,191212,,,D*7B
$GPRMC,220438.000,A,3748.7864,N,12217.8652,W,0.28,149.72,191212,,,D*76
$GPRMC,220439.000,A,3748.7864,N,12217.8653,W,0.30,184.72,191212,,,D*7E
$GPRMC,220440.000,A,3748.7866,N,12217.8657,W,0.52,262.96,191212,,,D*73
$GPRMC,220441.000,A,3748.7867,N,12217.8662,W,0.26,224.56,191212,,,D*78
$GPRMC,220442.000,A,3748.7868,N,12217.8667,W,0.87,306.46,191212,,,D*7A
$GPRMC,220443.000,A,3748.7871,N,12217.8672,W,0.77,303.19,191212,,,D*77
$GPRMC,220444.000,A,3748.7874,N,12217.8680,W,0.74,289.80,191212,,,D*78
$GPRMC,220445.000,A,3748.7877,N,12217.8685,W,0.72,288.12,191212,,,D*73
$GPRMC,220446.000,A,3748.7880,N,12217.8693,W,0.75,287.84,191212,,,D*78
$GPRMC,220447.000,A,3748.7882,N,12217.8697,W,0.47,288.54,191212,,,D*7C
$GPRMC,220448.000,A,3748.7884,N,12217.8702,W,0.30,273.49,191212,,,D*70
$GPRMC,220449.000,A,3748.7885,N,12217.8704,W,0.27,229.14,191212,,,D*77
$GPRMC,220450.000,A,3748.7887,N,12217.8709,W,0.88,287.29,191212,,,D*7F
$GPRMC,220451.000,A,3748.7888,N,12217.8711,W,0.85,296.89,191212,,,D*7F
$GPRMC,220452.000,A,3748.7892,N,12217.8718,W,1.16,291.04,191212,,,D*77
$GPRMC,220453.000,A,3748.7893,N,12217.8722,W,0.26,266.34,191212,,,D*77
$GPRMC,220454.000,A,3748.7893,N,12217.8722,W,0.41,294.27,191212,,,D*7E
$GPRMC,220455.000,A,3748.7895,N,12217.8725,W,0.51,317.59,191212,,,D*7C
$GPRMC,220456.000,A,3748.7899,N,12217.8733,W,1.15,311.34,191212,,,D*78
$GPRMC,220457.000,A,3748.7902,N,12217.8739,W,0.57,318.18,191212,,,D*70
$GPRMC,220458.000,A,3748.7905,N,12217.8744,W,0.25,321.69,191212,,,D*7B
$GPRMC,220459.000,A,3748.7906,N,12217.8746,W,0.26,4.15,191212,,,D*77
$GPRMC,220500.000,A,3748.7908,N,12217.8748,W,0.39,340.03,191212,,,D*70
$GPRMC,220501.000,A,3748.7907,N,12217.8746,W,0.18,173.41,191212,,,D*77
$GPRMC,220502.000,A,3748.7906,N,12217.8747,W,0.28,231.56,191212,,,D*74
$GPRMC,220503.000,A,3748.7907,N,12217.8749,W,0.25,277.54,191212,,,D*77
$GPRMC,220504.000,A,3748.7906,N,12217.8747,W,0.58,306.87,191212,,,D*7C
$GPRMC,220505.000,A,3748.7906,N,12217.8748,W,0.27,146.26,191212,,,D*77
$GPRMC,220506.000,A,3748.7907,N,12217.8748,W,0.32,290.64,191212,,,D*7F
$GPRMC,220507.000,A,3748.7908,N,12217.8745,W,0.65,317.01,191212,,,D*73
$GPRMC,220508.000,A,3748.7908,N,12217.8742,W,0.05,141.45,191212,,,D*7C
$GPRMC,220509.000,A,3748.7906,N,12217.8736,W,0.42,113.97,191212,,,D*7B
$GPRMC,220510.000,A,3748.7903,N,12217.8731,W,0.10,49.61,191212,,,D*41
$GPRMC,220511.000,A,3748.7902,N,12217.8728,W,0.23,258.81,191212,,,D*75
$GPRMC,220512.000,A,3748.7900,N,12217.8724,W,0.11,80.97,191212,,,D*49
$GPRMC,220513.000,A,3748.7900,N,12217.8722,W,0.13,353.11,191212,,,D*7F
$GPRMC,220514.000,A,3748.7899,N,12217.8721,W,0.21,150.87,191212,,,D*75
$GPRMC,220515.000,A,3748.7899,N,12217.8720,W,0.31,263.38,191212,,,D*73
$GPRMC,220516.000,A,3748.7900,N,12217.8722,W,0.55,296.05,191212,,,D*75
$GPRMC,220517.000,A,3748.7901,N,12217.8724,W,0.45,286.83,191212,,,D*7D
$GPRMC,220518.000,A,3748.7901,N,12217.8724,W,0.55,296.01,191212,,,D*78
$GPRMC,220519.000,A,3748.7900,N,12217.8723,W,0.09,22.86,191212,,,D*44
$GPRMC,220520.000,A,3748.7899,N,12217.8718,W,0.32,78.57,191212,,,D*4C
$GPRMC,220521.000,A,3748.7897,N,12217.8715,W,0.49,92.32,191212,,,D*45
$GPRMC,220522.000,A,3748.7897,N,12217.8714,W,0.45,115.52,191212,,,D*73
$GPRMC,220523.000,A,3748.7896,N,12217.8711,W,0.40,141.87,191212,,,D*7A
$GPRMC,220524.000,A,3748.7896,N,12217.8713,W,0.22,150.01,191212,,,D*75
$GPRMC,220525.000,A,3748.7896,N,12217.8714,W,0.19,268.72,191212,,,D*77
$GPRMC,220526.000,A,3748.7897,N,12217.8716,W,0.51,315.21,191212,,,D*76
$GPRMC,220527.000,A,3748.7898,N,12217.8717,W,0.45,316.58,191212,,,D*71
$GPRMC,220528.000,A,3748.7899,N,12217.8719,W,0.42,327.72,191212,,,D*7C
$GPRMC,220529.000,A,3748.7899,N,12217.8719,W,0.15,291.91,191212,,,D*7E
$GPRMC,220530.000,A,3748.7897,N,12217.8716,W,0.07,65.96,191212,,,D*4A
$GPRMC,220531.000,A,3748.7893,N,12217.8715,W,0.47,135.32,191212,,,D*72
$GPRMC,220532.000,A,3748.7892,N,12217.8713,W,0.14,25.09,191212,,,D*48
$GPRMC,220533.000,A,3748.7893,N,12217.8711,W,0.47,328.32,191212,,,D*7A
$GPRMC,220534.000,A,3748.7894,N,12217.8711,W,0.22,7.65,191212,,,D*75
$GPRMC,220535.000,A,3748.7892,N,12217.8706,W,0.19,354.76,191212,,,D*7B
$GPRMC,220536.000,A,3748.7893,N,12217.8706,W,0.45,320.89,191212,,,D*73
$GPRMC,220537.000,A,3748.7896,N,12217.8709,W,0.34,3.65,191212,,,D*7E
$GPRMC,220538.000,A,3748.7898,N,12217.8711,W,0.10,80.71,191212,,,D*4E
$GPRMC,220539.000,A,3748.7898,N,12217.8712,W,0.09,148.51,191212,,,D*73
$GPRMC,220540.000,A,3748.7901,N,12217.8715,W,0.43,305.47,191212,,,D*79
$GPRMC,220541.000,A,3748.7900,N,12217.8717,W,0.20,276.32,191212,,,D*79
$GPRMC,220542.000,A,3748.7903,N,12217.8721,W,0.74,309.78,191212,,,D*7A
$GPRMC,220543.000,A,3748.7903,N,12217.8722,W,0.12,43.66,191212,,,D*4A
$GPRMC,220544.000,A,3748.7905,N,12217.8723,W,0.41,114.95,191212,,,D*73
$GPRMC,220545.000,A,3748.7906,N,12217.8724,W,0.16,28.23,191212,,,D*47
$GPRMC,220546.000,A,3748.7909,N,12217.8727,W,0.66,306.84,191212,,,D*7D
$GPRMC,220547.000,A,3748.7909,N,12217.8728,W,0.08,179.84,191212,,,D*71
$GPRMC,220548.000,A,3748.7908,N,12217.8726,W,0.22,118.40,191212,,,D*76
$GPRMC,220549.000,A,3748.7908,N,12217.8726,W,0.31,128.34,191212,,,D*75
$GPRMC,220550.000,A,3748.7907,N,12217.8725,W,0.84,132.17,191212,,,D*75
$GPRMC,220551.000,A,3748.7906,N,12217.8723,W,0.63,123.58,191212,,,D*71
$GPRMC,220552.000,A,3748.7905,N,12217.8721,W,0.50,154.19,191212,,,D*76
$GPRMC,220553.000,A,3748.7905,N,12217.8722,W,0.34,181.65,191212,,,D*75
$GPRMC,220554.000,A,3748.7903,N,12217.8720,W,0.40,269.84,191212,,,D*7F
$GPRMC,220555.000,A,3748.7904,N,12217.8721,W,0.28,319.41,191212,,,D*79
