$ADVER,3080,2.3
$GPRMC,194829.003,A,3748.7994,N,12217.8611,W,0.10,94.56,120112,,,A*4C
$GPRMC,194830.003,A,3748.8009,N,12217.8591,W,0.08,83.92,120112,,,A*4A
$GPRMC,194831.000,A,3748.8008,N,12217.8591,W,0.08,99.86,120112,,,A*47
$GPRMC,194832.000,A,3748.8008,N,12217.8591,W,0.08,76.20,120112,,,A*49
$GPRMC,194833.000,A,3748.8008,N,12217.8591,W,0.07,73.92,120112,,,A*4B
$GPRMC,194834.000,A,3748.8007,N,12217.8591,W,0.08,88.83,120112,,,A*48
$GPRMC,194835.000,A,3748.8007,N,12217.8591,W,0.08,84.27,120112,,,A*4B
$GPRMC,194836.000,A,3748.8007,N,12217.8591,W,0.07,86.19,120112,,,A*48
$GPRMC,194837.000,A,3748.8007,N,12217.8591,W,0.08,88.34,120112,,,A*47
$GPRMC,194838.000,A,3748.8007,N,12217.8591,W,0.08,82.28,120112,,,A*4F
$GPRMC,194839.000,A,3748.8006,N,12217.8592,W,0.08,77.88,120112,,,A*4C
$GPRMC,194840.000,A,3748.8006,N,12217.8592,W,0.08,83.46,120112,,,A*4B
$GPRMC,194841.000,A,3748.8006,N,12217.8592,W,0.08,82.89,120112,,,A*48
$GPRMC,194842.000,A,3748.8006,N,12217.8592,W,0.08,77.85,120112,,,A*4D
$GPRMC,194843.000,A,3748.8006,N,12217.8592,W,0.09,88.85,120112,,,A*4D
$GPRMC,194844.000,A,3748.8006,N,12217.8592,W,0.08,84.33,120112,,,A*4A
$GPRMC,194845.000,A,3748.8006,N,12217.8592,W,0.11,67.92,120112,,,A*45
$GPRMC,194846.000,A,3748.8008,N,12217.8591,W,0.26,52.53,120112,,,A*44
$GPRMC,194847.000,A,3748.8009,N,12217.8590,W,0.48,6.93,120112,,,A*70
$GPRMC,194848.000,A,3748.8010,N,12217.8589,W,0.31,40.23,120112,,,A*48
$GPRMC,194849.000,A,3748.8011,N,12217.8589,W,0.13,38.13,120112,,,A*44
$GPRMC,194850.000,A,3748.8013,N,12217.8589,W,0.08,129.17,120112,,,A*71
$GPRMC,194851.000,A,3748.8014,N,12217.8589,W,0.12,39.27,120112,,,A*4F
$GPRMC,194852.000,A,3748.8015,N,12217.8589,W,0.24,19.21,120112,,,A*4C
$GPRMC,194853.000,A,3748.8016,N,12217.8589,W,0.18,179.58,120112,,,A*78
$GPRMC,194854.000,A,3748.8013,N,12217.8588,W,0.66,177.52,120112,,,A*76
$GPRMC,194855.000,A,3748.8011,N,12217.8588,W,0.47,205.99,120112,,,A*77
$GPRMC,194856.000,A,3748.8010,N,12217.8584,W,0.53,188.36,120112,,,A*7F
$GPRMC,194857.000,A,3748.8008,N,12217.8588,W,0.25,221.14,120112,,,A*7A
$GPRMC,194858.000,A,3748.8005,N,12217.8589,W,0.41,232.98,120112,,,A*7D
$GPRMC,194859.000,A,3748.8002,N,12217.8591,W,0.56,185.93,120112,,,A*70
$GPRMC,194900.000,A,3748.8001,N,12217.8591,W,0.25,145.46,120112,,,A*7E
$GPRMC,194901.000,A,3748.7998,N,12217.8596,W,0.40,218.14,120112,,,A*71
$GPRMC,194902.000,A,3748.7996,N,12217.8597,W,0.54,161.39,120112,,,A*7A
$GPRMC,194903.000,A,3748.7994,N,12217.8597,W,0.34,135.34,120112,,,A*73
$GPRMC,194904.000,A,3748.7994,N,12217.8594,W,0.02,148.88,120112,,,A*7F
$GPRMC,194905.000,A,3748.7990,N,12217.8598,W,1.03,190.26,120112,,,A*77
$GPRMC,194906.000,A,3748.7987,N,12217.8601,W,0.24,157.10,120112,,,A*7B
$GPRMC,194907.000,A,3748.7986,N,12217.8603,W,0.19,112.56,120112,,,A*74
$GPRMC,194908.000,A,3748.7985,N,12217.8604,W,0.11,47.22,120112,,,A*45
$GPRMC,194909.000,A,3748.7985,N,12217.8604,W,0.25,30.16,120112,,,A*44
$GPRMC,194910.000,A,3748.7987,N,12217.8604,W,0.63,42.52,120112,,,A*49
$GPRMC,194911.000,A,3748.7991,N,12217.8601,W,0.29,36.76,120112,,,A*41
$GPRMC,194912.000,A,3748.7994,N,12217.8595,W,0.59,46.95,120112,,,A*44
$GPRMC,194913.000,A,3748.7994,N,12217.8598,W,0.10,36.21,120112,,,A*4D
$GPRMC,194914.000,A,3748.7993,N,12217.8597,W,0.26,158.04,120112,,,A*79
$GPRMC,194915.000,A,3748.7994,N,12217.8600,W,0.19,264.24,120112,,,A*70
$GPRMC,194916.000,A,3748.7998,N,12217.8600,W,0.48,62.38,120112,,,A*42
$GPRMC,194917.000,A,3748.7997,N,12217.8602,W,0.86,110.70,120112,,,A*74
$GPRMC,194918.000,A,3748.7994,N,12217.8600,W,0.93,118.38,120112,,,A*7A
$GPRMC,194919.000,A,3748.7989,N,12217.8600,W,0.70,159.05,120112,,,A*71
$GPRMC,194920.000,A,3748.7990,N,12217.8596,W,0.99,70.81,120112,,,A*4E
$GPRMC,194921.000,A,3748.7991,N,12217.8595,W,0.63,241.95,120112,,,A*7D
$GPRMC,194922.000,A,3748.7991,N,12217.8598,W,0.13,17.83,120112,,,A*42
$GPRMC,194923.000,A,3748.7990,N,12217.8598,W,0.11,210.93,120112,,,A*74
$GPRMC,194924.000,A,3748.7989,N,12217.8604,W,0.28,222.07,120112,,,A*7B
$GPRMC,194925.000,A,3748.7987,N,12217.8612,W,0.69,215.85,120112,,,A*78
$GPRMC,194926.000,A,3748.7992,N,12217.8616,W,0.51,230.13,120112,,,A*78
$GPRMC,194927.000,A,3748.7994,N,12217.8619,W,0.53,227.70,120112,,,A*71
$GPRMC,194928.000,A,3748.7997,N,12217.8627,W,0.69,307.98,120112,,,A*7C
$GPRMC,194929.000,A,3748.7996,N,12217.8629,W,0.66,232.06,120112,,,A*7D
$GPRMC,194930.000,A,3748.7988,N,12217.8628,W,1.33,200.89,120112,,,A*7C
$GPRMC,194931.000,A,3748.7987,N,12217.8626,W,0.31,156.88,120112,,,A*7E
$GPRMC,194932.000,A,3748.7989,N,12217.8622,W,0.55,45.00,120112,,,A*46
$GPRMC,194933.000,A,3748.7992,N,12217.8616,W,0.55,30.31,120112,,,A*4A
$GPRMC,194934.000,A,3748.7992,N,12217.8615,W,0.45,177.34,120112,,,A*78
$GPRMC,194935.000,A,3748.7991,N,12217.8613,W,0.93,165.49,120112,,,A*7E
$GPRMC,194936.000,A,3748.7991,N,12217.8612,W,0.37,115.01,120112,,,A*79
$GPRMC,194937.000,A,3748.7993,N,12217.8608,W,0.27,117.20,120112,,,A*71
$GPRMC,194938.000,A,3748.7995,N,12217.8605,W,0.46,56.75,120112,,,A*46
$GPRMC,194939.000,A,3748.7996,N,12217.8605,W,0.63,57.74,120112,,,A*43
$GPRMC,194940.000,A,3748.7999,N,12217.8603,W,0.83,61.23,120112,,,A*4D
$GPRMC,194941.000,A,3748.7997,N,12217.8597,W,1.69,116.08,120112,,,A*71
$GPRMC,194942.000,A,3748.7994,N,12217.8588,W,2.06,116.13,120112,,,A*7F
$GPRMC,194943.000,A,3748.7991,N,12217.8580,W,2.32,126.18,120112,,,A*7C
$GPRMC,194944.000,A,3748.7986,N,12217.8572,W,2.14,126.52,120112,,,A*7A
$GPRMC,194945.000,A,3748.7983,N,12217.8565,W,2.14,127.63,120112,,,A*7B
$GPRMC,194946.000,A,3748.7979,N,12217.8556,W,2.48,123.18,120112,,,A*7C
$GPRMC,194947.000,A,3748.7974,N,12217.8549,W,2.18,124.27,120112,,,A*70
$GPRMC,194948.000,A,3748.7973,N,12217.8539,W,2.13,105.60,120112,,,A*74
$GPRMC,194949.000,A,3748.7969,N,12217.8530,W,2.49,116.66,120112,,,A*7C
$GPRMC,194950.000,A,3748.7966,N,12217.8522,W,2.39,112.36,120112,,,A*7E
$GPRMC,194951.000,A,3748.7962,N,12217.8513,W,2.13,106.19,120112,,,A*79
$GPRMC,194952.000,A,3748.7960,N,12217.8505,W,2.10,110.76,120112,,,A*72
$GPRMC,194953.000,A,3748.7958,N,12217.8499,W,1.88,113.48,120112,,,A*70
$GPRMC,194954.000,A,3748.7956,N,12217.8494,W,1.57,116.70,120112,,,A*78
$GPRMC,194955.000,A,3748.7953,N,12217.8488,W,2.21,117.90,120112,,,D*79
$GPRMC,194956.000,A,3748.7947,N,12217.8480,W,2.18,124.00,120112,,,D*74
$GPRMC,194957.000,A,3748.7944,N,12217.8474,W,2.04,128.58,120112,,,D*71
$GPRMC,194958.000,A,3748.7939,N,12217.8468,W,2.08,116.44,120112,,,D*75
$GPRMC,194959.000,A,3748.7936,N,12217.8461,W,2.15,107.50,120112,,,D*7B
$GPRMC,195000.000,A,3748.7930,N,12217.8454,W,1.91,111.35,120112,,,D*74
$GPRMC,195001.000,A,3748.7927,N,12217.8447,W,2.06,110.07,120112,,,D*7C
$GPRMC,195002.000,A,3748.7921,N,12217.8445,W,2.08,116.74,120112,,,D*77
$GPRMC,195003.000,A,3748.7916,N,12217.8442,W,2.08,123.26,120112,,,D*74
$GPRMC,195004.000,A,3748.7913,N,12217.8433,W,2.46,117.32,120112,,,D*78
$GPRMC,195005.000,A,3748.7909,N,12217.8425,W,2.38,107.65,120112,,,D*7F
$GPRMC,195006.000,A,3748.7905,N,12217.8416,W,2.54,108.97,120112,,,D*78
$GPRMC,195007.000,A,3748.7899,N,12217.8406,W,3.35,123.18,120112,,,D*74
$GPRMC,195008.000,A,3748.7894,N,12217.8395,W,3.24,111.61,120112,,,D*74
$GPRMC,195009.000,A,3748.7885,N,12217.8388,W,2.59,121.82,120112,,,D*7C
$GPRMC,195010.000,A,3748.7878,N,12217.8384,W,2.48,126.10,120112,,,D*76
$GPRMC,195011.000,A,3748.7871,N,12217.8378,W,2.58,142.60,120112,,,D*79
$GPRMC,195012.000,A,3748.7864,N,12217.8372,W,2.69,138.45,120112,,,D*7C
$GPRMC,195013.000,A,3748.7859,N,12217.8365,W,2.56,119.79,120112,,,D*75
$GPRMC,195014.000,A,3748.7856,N,12217.8357,W,2.51,113.51,120112,,,D*7B
$GPRMC,195015.000,A,3748.7850,N,12217.8349,W,2.54,118.56,120112,,,D*7A
$GPRMC,195016.000,A,3748.7844,N,12217.8343,W,2.54,115.03,120112,,,D*7B
$GPRMC,195017.000,A,3748.7842,N,12217.8333,W,2.34,117.93,120112,,,D*76
$GPRMC,195018.000,A,3748.7837,N,12217.8325,W,2.40,121.21,120112,,,D*73
$GPRMC,195019.000,A,3748.7834,N,12217.8315,W,2.59,120.06,120112,,,D*7E
$GPRMC,195020.000,A,3748.7831,N,12217.8307,W,2.68,110.49,120112,,,D*78
$GPRMC,195021.000,A,3748.7829,N,12217.8298,W,2.74,106.21,120112,,,D*73
$GPRMC,195022.000,A,3748.7822,N,12217.8292,W,2.82,112.19,120112,,,D*76
$GPRMC,195023.000,A,3748.7818,N,12217.8283,W,2.67,126.87,120112,,,A*70
$GPRMC,195024.000,A,3748.7815,N,12217.8273,W,2.73,129.51,120112,,,A*74
$GPRMC,195025.000,A,3748.7808,N,12217.8267,W,2.68,125.17,120112,,,A*78
$GPRMC,195026.000,A,3748.7802,N,12217.8261,W,2.44,121.05,120112,,,A*7E
$GPRMC,195027.000,A,3748.7799,N,12217.8253,W,2.84,122.14,120112,,,A*7C
$GPRMC,195028.000,A,3748.7793,N,12217.8244,W,2.91,125.28,120112,,,A*73
$GPRMC,195029.000,A,3748.7787,N,12217.8235,W,2.70,119.28,120112,,,A*71
$GPRMC,195030.000,A,3748.7782,N,12217.8225,W,2.69,107.31,120112,,,A*72
$GPRMC,195031.000,A,3748.7779,N,12217.8215,W,2.75,110.58,120112,,,A*70
$GPRMC,195032.000,A,3748.7774,N,12217.8206,W,2.83,113.21,120112,,,A*78
$GPRMC,195033.000,A,3748.7768,N,12217.8201,W,2.57,120.22,120112,,,A*79
$GPRMC,195034.000,A,3748.7765,N,12217.8192,W,2.58,124.15,120112,,,A*75
$GPRMC,195035.000,A,3748.7764,N,12217.8180,W,2.63,118.13,120112,,,A*77
$GPRMC,195036.000,A,3748.7762,N,12217.8169,W,2.86,115.99,120112,,,A*71
$GPRMC,195037.000,A,3748.7762,N,12217.8157,W,2.22,110.36,120112,,,A*73
$GPRMC,195038.000,A,3748.7759,N,12217.8149,W,2.43,110.53,120112,,,A*7F
$GPRMC,195039.000,A,3748.7753,N,12217.8142,W,2.89,119.64,120112,,,A*74
$GPRMC,195040.000,A,3748.7744,N,12217.8139,W,2.56,125.17,120112,,,A*79
$GPRMC,195041.000,A,3748.7739,N,12217.8132,W,2.67,108.24,120112,,,A*74
$GPRMC,195042.000,A,3748.7738,N,12217.8120,W,2.74,97.90,120112,,,A*4F
$GPRMC,195043.000,A,3748.7732,N,12217.8114,W,2.61,99.42,120112,,,A*46
$GPRMC,195044.000,A,3748.7726,N,12217.8107,W,2.51,119.67,120112,,,A*7B
$GPRMC,195045.000,A,3748.7720,N,12217.8098,W,2.74,112.65,120112,,,A*75
$GPRMC,195046.000,A,3748.7716,N,12217.8089,W,2.85,105.25,120112,,,A*7F
$GPRMC,195047.000,A,3748.7711,N,12217.8079,W,2.66,120.12,120112,,,A*78
$GPRMC,195048.000,A,3748.7708,N,12217.8070,W,2.60,114.53,120112,,,A*72
$GPRMC,195049.000,A,3748.7702,N,12217.8059,W,2.77,106.42,120112,,,A*77
$GPRMC,195050.000,A,3748.7699,N,12217.8051,W,2.52,103.15,120112,,,A*74
$GPRMC,195051.000,A,3748.7697,N,12217.8043,W,2.26,108.70,120112,,,A*73
$GPRMC,195052.000,A,3748.7694,N,12217.8034,W,2.78,114.54,120112,,,A*73
$GPRMC,195053.000,A,3748.7690,N,12217.8027,W,2.57,115.66,120112,,,A*79
$GPRMC,195054.000,A,3748.7688,N,12217.8016,W,2.36,112.95,120112,,,A*79
$GPRMC,195055.000,A,3748.7685,N,12217.8007,W,2.67,103.55,120112,,,A*7D
$GPRMC,195056.000,A,3748.7682,N,12217.7999,W,1.70,116.20,120112,,,A*7B
$GPRMC,195057.000,A,3748.7680,N,12217.7999,W,0.13,352.28,120112,,,A*76
$GPRMC,195058.000,A,3748.7681,N,12217.8001,W,0.37,347.38,120112,,,A*7C
$GPRMC,195059.000,A,3748.7681,N,12217.8003,W,0.17,55.06,120112,,,A*40
$GPRMC,195100.000,A,3748.7681,N,12217.8003,W,0.31,128.09,120112,,,A*7D
$GPRMC,195101.000,A,3748.7680,N,12217.8002,W,0.66,105.65,120112,,,A*7B
$GPRMC,195102.000,A,3748.7677,N,12217.7998,W,1.56,122.77,120112,,,A*71
$GPRMC,195103.000,A,3748.7676,N,12217.7989,W,2.31,115.12,120112,,,A*74
$GPRMC,195104.000,A,3748.7669,N,12217.7980,W,2.72,111.36,120112,,,A*71
$GPRMC,195105.000,A,3748.7665,N,12217.7970,W,2.69,117.94,120112,,,A*77
$GPRMC,195106.000,A,3748.7657,N,12217.7961,W,2.43,123.81,120112,,,A*7E
$GPRMC,195107.000,A,3748.7653,N,12217.7952,W,2.84,121.36,120112,,,A*7E
$GPRMC,195108.000,A,3748.7647,N,12217.7944,W,2.82,122.85,120112,,,A*7E
$GPRMC,195109.000,A,3748.7643,N,12217.7935,W,2.73,118.89,120112,,,A*76
$GPRMC,195110.000,A,3748.7638,N,12217.7928,W,2.53,115.10,120112,,,A*71
$GPRMC,195111.000,A,3748.7633,N,12217.7922,W,2.43,123.15,120112,,,D*75
$GPRMC,195112.000,A,3748.7630,N,12217.7914,W,2.32,127.79,120112,,,D*78
$GPRMC,195113.000,A,3748.7627,N,12217.7907,W,2.32,118.73,120112,,,D*7B
$GPRMC,195114.000,A,3748.7624,N,12217.7898,W,2.63,117.31,120112,,,D*75
$GPRMC,195115.000,A,3748.7621,N,12217.7889,W,2.61,111.16,120112,,,D*70
$GPRMC,195116.000,A,3748.7618,N,12217.7880,W,2.61,112.81,120112,,,D*7D
$GPRMC,195117.000,A,3748.7614,N,12217.7872,W,2.76,110.07,120112,,,D*77
$GPRMC,195118.000,A,3748.7610,N,12217.7863,W,2.49,110.18,120112,,,D*7E
$GPRMC,195119.000,A,3748.7606,N,12217.7855,W,2.27,119.16,120112,,,D*72
$GPRMC,195120.000,A,3748.7603,N,12217.7848,W,2.40,112.74,120112,,,D*7F
$GPRMC,195121.000,A,3748.7600,N,12217.7840,W,2.49,113.39,120112,,,D*74
$GPRMC,195122.000,A,3748.7597,N,12217.7832,W,2.46,118.26,120112,,,D*75
$GPRMC,195123.000,A,3748.7596,N,12217.7824,W,2.29,109.86,120112,,,D*71
$GPRMC,195124.000,A,3748.7592,N,12217.7817,W,2.53,129.79,120112,,,D*7D
$GPRMC,195125.000,A,3748.7585,N,12217.7811,W,2.45,129.56,120112,,,D*76
$GPRMC,195126.000,A,3748.7577,N,12217.7803,W,2.65,122.15,120112,,,D*75
$GPRMC,195127.000,A,3748.7568,N,12217.7796,W,2.28,119.10,120112,,,D*7D
$GPRMC,195128.000,A,3748.7566,N,12217.7788,W,2.04,106.61,120112,,,D*75
$GPRMC,195129.000,A,3748.7565,N,12217.7778,W,2.30,121.44,120112,,,D*7D
$GPRMC,195130.000,A,3748.7562,N,12217.7770,W,2.21,122.07,120112,,,D*7E
$GPRMC,195131.000,A,3748.7558,N,12217.7764,W,2.39,114.37,120112,,,D*7C
$GPRMC,195132.000,A,3748.7556,N,12217.7755,W,2.43,113.52,120112,,,D*7A
$GPRMC,195133.000,A,3748.7554,N,12217.7747,W,2.35,106.15,120112,,,D*7C
$GPRMC,195134.000,A,3748.7552,N,12217.7738,W,2.47,116.22,120112,,,D*75
$GPRMC,195135.000,A,3748.7550,N,12217.7728,W,2.46,123.24,120112,,,D*76
$GPRMC,195136.000,A,3748.7548,N,12217.7719,W,2.50,120.44,120112,,,D*7C
$GPRMC,195137.000,A,3748.7543,N,12217.7713,W,2.18,122.44,120112,,,D*72
$GPRMC,195138.000,A,3748.7538,N,12217.7705,W,2.32,110.81,120112,,,D*76
$GPRMC,195139.000,A,3748.7537,N,12217.7696,W,2.24,115.84,120112,,,D*74
$GPRMC,195140.000,A,3748.7525,N,12217.7688,W,2.14,125.61,120112,,,D*7D
$GPRMC,195141.000,A,3748.7520,N,12217.7679,W,2.19,117.22,120112,,,D*7C
$GPRMC,195142.000,A,3748.7520,N,12217.7672,W,2.11,117.38,120112,,,D*77
$GPRMC,195143.000,A,3748.7514,N,12217.7665,W,2.24,106.42,120112,,,D*7C
$GPRMC,195144.000,A,3748.7510,N,12217.7658,W,2.25,127.47,120112,,,D*76
$GPRMC,195145.000,A,3748.7503,N,12217.7654,W,2.13,133.62,120112,,,D*7E
$GPRMC,195146.000,A,3748.7499,N,12217.7647,W,2.17,120.96,120112,,,D*70
$GPRMC,195147.000,A,3748.7497,N,12217.7640,W,2.20,113.01,120112,,,D*72
$GPRMC,195148.000,A,3748.7499,N,12217.7631,W,2.34,108.82,120112,,,D*71
$GPRMC,195149.000,A,3748.7495,N,12217.7623,W,2.48,112.37,120112,,,D*71
$GPRMC,195150.000,A,3748.7492,N,12217.7614,W,2.35,107.37,120112,,,D*74
$GPRMC,195151.000,A,3748.7490,N,12217.7606,W,2.63,112.02,120112,,,D*75
$GPRMC,195152.000,A,3748.7485,N,12217.7598,W,2.60,115.43,120112,,,D*77
$GPRMC,195153.000,A,3748.7482,N,12217.7589,W,2.51,115.52,120112,,,D*73
$GPRMC,195154.000,A,3748.7477,N,12217.7580,W,2.47,116.69,120112,,,D*7B
$GPRMC,195155.000,A,3748.7474,N,12217.7571,W,2.33,105.74,120112,,,D*7A
$GPRMC,195156.000,A,3748.7465,N,12217.7573,W,2.10,113.88,120112,,,D*7E
$GPRMC,195157.000,A,3748.7459,N,12217.7571,W,2.09,114.72,120112,,,D*78
$GPRMC,195158.000,A,3748.7456,N,12217.7563,W,2.16,115.98,120112,,,D*70
$GPRMC,195159.000,A,3748.7452,N,12217.7555,W,2.21,118.84,120112,,,D*74
$GPRMC,195200.000,A,3748.7450,N,12217.7547,W,2.11,110.48,120112,,,D*71
$GPRMC,195201.000,A,3748.7444,N,12217.7542,W,2.09,113.19,120112,,,D*7E
$GPRMC,195202.000,A,3748.7440,N,12217.7536,W,2.14,109.90,120112,,,D*7C
$GPRMC,195203.000,A,3748.7434,N,12217.7527,W,2.04,100.41,120112,,,D*7A
$GPRMC,195204.000,A,3748.7431,N,12217.7520,W,1.93,100.45,120112,,,D*76
$GPRMC,195205.000,A,3748.7425,N,12217.7513,W,2.90,122.27,120112,,,D*76
$GPRMC,195206.000,A,3748.7419,N,12217.7505,W,2.66,116.12,120112,,,D*75
$GPRMC,195207.000,A,3748.7415,N,12217.7497,W,2.61,117.97,120112,,,D*79
$GPRMC,195208.000,A,3748.7412,N,12217.7487,W,2.83,115.70,120112,,,D*77
$GPRMC,195209.000,A,3748.7406,N,12217.7477,W,2.88,118.11,120112,,,D*7D
$GPRMC,195210.000,A,3748.7396,N,12217.7468,W,2.64,115.45,120112,,,D*7B
$GPRMC,195211.000,A,3748.7403,N,12217.7460,W,1.96,89.67,120112,,,D*43
$GPRMC,195212.000,A,3748.7402,N,12217.7451,W,1.82,94.65,120112,,,D*48
$GPRMC,195213.000,A,3748.7398,N,12217.7444,W,1.95,113.16,120112,,,D*75
$GPRMC,195214.000,A,3748.7394,N,12217.7435,W,2.72,101.40,120112,,,D*72
$GPRMC,195215.000,A,3748.7392,N,12217.7425,W,2.23,94.66,120112,,,D*49
$GPRMC,195216.000,A,3748.7389,N,12217.7414,W,2.40,119.58,120112,,,D*7E
$GPRMC,195217.000,A,3748.7379,N,12217.7403,W,2.99,123.65,120112,,,D*75
$GPRMC,195218.000,A,3748.7370,N,12217.7393,W,2.67,112.49,120112,,,D*70
$GPRMC,195219.000,A,3748.7366,N,12217.7383,W,2.24,115.05,120112,,,D*7F
$GPRMC,195220.000,A,3748.7366,N,12217.7375,W,2.00,88.40,120112,,,D*4E
$GPRMC,195221.000,A,3748.7361,N,12217.7372,W,1.87,114.70,120112,,,D*74
$GPRMC,195222.000,A,3748.7348,N,12217.7369,W,2.03,137.79,120112,,,D*71
$GPRMC,195223.000,A,3748.7336,N,12217.7366,W,2.30,125.54,120112,,,D*7A
$GPRMC,195224.000,A,3748.7327,N,12217.7360,W,2.29,118.34,120112,,,D*7B
$GPRMC,195225.000,A,3748.7323,N,12217.7352,W,2.13,106.38,120112,,,D*75
$GPRMC,195226.000,A,3748.7322,N,12217.7340,W,2.33,115.33,120112,,,D*7F
$GPRMC,195227.000,A,3748.7320,N,12217.7329,W,2.12,109.07,120112,,,D*7A
$GPRMC,195228.000,A,3748.7315,N,12217.7322,W,2.15,106.64,120112,,,D*75
$GPRMC,195229.000,A,3748.7309,N,12217.7316,W,2.26,124.62,120112,,,D*78
$GPRMC,195230.000,A,3748.7305,N,12217.7306,W,2.32,113.19,120112,,,D*70
$GPRMC,195231.000,A,3748.7302,N,12217.7295,W,2.54,109.47,120112,,,D*7D
$GPRMC,195232.000,A,3748.7295,N,12217.7288,W,2.75,114.59,120112,,,D*7D
$GPRMC,195233.000,A,3748.7288,N,12217.7277,W,2.84,115.02,120112,,,D*71
$GPRMC,195234.000,A,3748.7288,N,12217.7268,W,2.58,109.54,120112,,,D*77
$GPRMC,195235.000,A,3748.7285,N,12217.7259,W,2.59,105.24,120112,,,D*73
$GPRMC,195236.000,A,3748.7284,N,12217.7249,W,2.51,104.74,120112,,,D*7C
$GPRMC,195237.000,A,3748.7283,N,12217.7237,W,2.64,106.12,120112,,,D*77
$GPRMC,195238.000,A,3748.7281,N,12217.7228,W,2.54,108.58,120112,,,D*77
$GPRMC,195239.000,A,3748.7280,N,12217.7219,W,2.25,109.80,120112,,,D*77
$GPRMC,195240.000,A,3748.7280,N,12217.7211,W,2.15,103.73,120112,,,D*74
$GPRMC,195241.000,A,3748.7276,N,12217.7204,W,2.17,106.58,120112,,,D*76
$GPRMC,195242.000,A,3748.7268,N,12217.7196,W,2.13,104.66,120112,,,D*79
$GPRMC,195243.000,A,3748.7271,N,12217.7184,W,2.32,78.67,120112,,,D*4B
$GPRMC,195244.000,A,3748.7276,N,12217.7177,W,2.03,25.27,120112,,,D*49
$GPRMC,195245.000,A,3748.7284,N,12217.7170,W,2.02,10.19,120112,,,D*48
$GPRMC,195246.000,A,3748.7290,N,12217.7168,W,1.78,1.38,120112,,,D*7A
$GPRMC,195247.000,A,3748.7298,N,12217.7163,W,1.89,9.46,120112,,,D*77
$GPRMC,195248.000,A,3748.7304,N,12217.7158,W,2.20,32.23,120112,,,D*4F
$GPRMC,195249.000,A,3748.7311,N,12217.7153,W,2.23,17.51,120112,,,D*40
$GPRMC,195250.000,A,3748.7319,N,12217.7146,W,2.19,5.13,120112,,,D*78
$GPRMC,195251.000,A,3748.7324,N,12217.7144,W,2.08,358.75,120112,,,D*7E
$GPRMC,195252.000,A,3748.7330,N,12217.7141,W,2.05,0.02,120112,,,D*7E
$GPRMC,195253.000,A,3748.7335,N,12217.7138,W,2.05,5.70,120112,,,D*74
$GPRMC,195254.000,A,3748.7342,N,12217.7132,W,2.06,16.69,120112,,,D*40
$GPRMC,195255.000,A,3748.7347,N,12217.7126,W,2.19,20.30,120112,,,D*46
$GPRMC,195256.000,A,3748.7354,N,12217.7121,W,1.70,31.58,120112,,,D*42
$GPRMC,195257.000,A,3748.7354,N,12217.7111,W,1.96,18.92,120112,,,D*45
$GPRMC,195258.000,A,3748.7355,N,12217.7103,W,1.81,16.90,120112,,,D*42
$GPRMC,195259.000,A,3748.7360,N,12217.7098,W,1.85,15.80,120112,,,D*40
$GPRMC,195300.000,A,3748.7367,N,12217.7094,W,2.15,28.19,120112,,,D*42
$GPRMC,195301.000,A,3748.7372,N,12217.7085,W,2.10,31.07,120112,,,D*45
$GPRMC,195302.000,A,3748.7376,N,12217.7078,W,1.79,36.80,120112,,,D*44
$GPRMC,195303.000,A,3748.7381,N,12217.7071,W,2.47,33.56,120112,,,D*44
$GPRMC,195304.000,A,3748.7387,N,12217.7062,W,2.80,42.87,120112,,,D*46
$GPRMC,195305.000,A,3748.7396,N,12217.7052,W,2.51,36.57,120112,,,D*46
$GPRMC,195306.000,A,3748.7403,N,12217.7045,W,2.15,30.82,120112,,,D*46
$GPRMC,195307.000,A,3748.7407,N,12217.7038,W,2.29,28.27,120112,,,D*40
$GPRMC,195308.000,A,3748.7414,N,12217.7033,W,2.11,19.73,120112,,,D*4E
$GPRMC,195309.000,A,3748.7418,N,12217.7028,W,2.03,16.64,120112,,,D*43
$GPRMC,195310.000,A,3748.7424,N,12217.7025,W,1.90,1.24,120112,,,D*72
$GPRMC,195311.000,A,3748.7430,N,12217.7023,W,1.95,354.33,120112,,,D*70
$GPRMC,195312.000,A,3748.7437,N,12217.7018,W,2.07,1.74,120112,,,D*74
$GPRMC,195313.000,A,3748.7444,N,12217.7015,W,2.41,5.90,120112,,,D*70
$GPRMC,195314.000,A,3748.7452,N,12217.7009,W,2.39,13.94,120112,,,D*41
$GPRMC,195315.000,A,3748.7456,N,12217.6999,W,2.06,19.21,120112,,,D*4D
$GPRMC,195316.000,A,3748.7466,N,12217.6990,W,2.54,11.93,120112,,,D*42
$GPRMC,195317.000,A,3748.7474,N,12217.6986,W,2.68,13.53,120112,,,D*46
$GPRMC,195318.000,A,3748.7478,N,12217.6978,W,2.77,27.69,120112,,,D*44
$GPRMC,195319.000,A,3748.7483,N,12217.6968,W,2.93,25.84,120112,,,D*4B
$GPRMC,195320.000,A,3748.7492,N,12217.6966,W,2.72,10.83,120112,,,D*41
$GPRMC,195321.000,A,3748.7497,N,12217.6959,W,2.56,10.86,120112,,,D*4A
$GPRMC,195322.000,A,3748.7501,N,12217.6957,W,2.14,11.40,120112,,,D*44
$GPRMC,195323.000,A,3748.7509,N,12217.6949,W,2.32,10.33,120112,,,D*43
$GPRMC,195324.000,A,3748.7516,N,12217.6944,W,2.14,7.60,120112,,,D*73
$GPRMC,195325.000,A,3748.7524,N,12217.6939,W,2.66,20.66,120112,,,D*4F
$GPRMC,195326.000,A,3748.7530,N,12217.6931,W,2.12,38.39,120112,,,D*41
$GPRMC,195327.000,A,3748.7535,N,12217.6926,W,1.86,9.44,120112,,,D*75
$GPRMC,195328.000,A,3748.7540,N,12217.6924,W,2.28,17.58,120112,,,D*4F
$GPRMC,195329.000,A,3748.7545,N,12217.6920,W,1.95,15.14,120112,,,D*40
$GPRMC,195330.000,A,3748.7551,N,12217.6914,W,2.19,15.10,120112,,,D*49
$GPRMC,195331.000,A,3748.7557,N,12217.6910,W,2.09,11.80,120112,,,D*46
$GPRMC,195332.000,A,3748.7562,N,12217.6906,W,1.86,23.31,120112,,,D*4B
$GPRMC,195333.000,A,3748.7565,N,12217.6900,W,2.40,22.06,120112,,,D*47
$GPRMC,195334.000,A,3748.7570,N,12217.6893,W,2.47,18.11,120112,,,D*47
$GPRMC,195335.000,A,3748.7574,N,12217.6888,W,2.32,21.42,120112,,,D*46
$GPRMC,195336.000,A,3748.7580,N,12217.6885,W,2.36,13.68,120112,,,D*4E
$GPRMC,195337.000,A,3748.7587,N,12217.6878,W,2.52,14.63,120112,,,D*44
$GPRMC,195338.000,A,3748.7595,N,12217.6872,W,2.18,21.60,120112,,,D*49
$GPRMC,195339.000,A,3748.7600,N,12217.6865,W,2.27,24.11,120112,,,D*4E
$GPRMC,195340.000,A,3748.7608,N,12217.6856,W,2.50,26.78,120112,,,D*45
$GPRMC,195341.000,A,3748.7612,N,12217.6850,W,2.30,9.12,120112,,,D*7E
$GPRMC,195342.000,A,3748.7618,N,12217.6843,W,2.35,9.61,120112,,,D*74
$GPRMC,195343.000,A,3748.7625,N,12217.6840,W,2.11,4.78,120112,,,D*7B
$GPRMC,195344.000,A,3748.7631,N,12217.6836,W,2.57,351.30,120112,,,D*75
$GPRMC,195345.000,A,3748.7636,N,12217.6837,W,2.40,354.69,120112,,,D*7D
$GPRMC,195346.000,A,3748.7645,N,12217.6837,W,1.43,347.80,120112,,,D*7F
$GPRMC,195347.000,A,3748.7648,N,12217.6834,W,1.86,16.68,120112,,,D*48
$GPRMC,195348.000,A,3748.7657,N,12217.6831,W,2.16,2.27,120112,,,D*78
$GPRMC,195349.000,A,3748.7665,N,12217.6826,W,2.05,7.60,120112,,,D*7A
$GPRMC,195350.000,A,3748.7670,N,12217.6825,W,2.09,4.50,120112,,,D*79
$GPRMC,195351.000,A,3748.7679,N,12217.6820,W,1.40,21.35,120112,,,D*4E
$GPRMC,195352.000,A,3748.7683,N,12217.6813,W,2.15,11.28,120112,,,D*44
$GPRMC,195353.000,A,3748.7688,N,12217.6809,W,2.04,11.05,120112,,,D*4A
$GPRMC,195354.000,A,3748.7694,N,12217.6802,W,2.35,19.75,120112,,,D*46
$GPRMC,195355.000,A,3748.7701,N,12217.6794,W,2.62,27.32,120112,,,D*46
$GPRMC,195356.000,A,3748.7711,N,12217.6788,W,2.34,25.55,120112,,,D*49
$GPRMC,195357.000,A,3748.7715,N,12217.6782,W,2.24,21.56,120112,,,D*40
$GPRMC,195358.000,A,3748.7719,N,12217.6774,W,2.30,24.52,120112,,,D*4E
$GPRMC,195359.000,A,3748.7727,N,12217.6766,W,2.36,12.86,120112,,,D*4B
$GPRMC,195400.000,A,3748.7735,N,12217.6762,W,2.37,5.65,120112,,,D*7D
$GPRMC,195401.000,A,3748.7742,N,12217.6752,W,2.60,26.48,120112,,,D*43
$GPRMC,195402.000,A,3748.7748,N,12217.6743,W,2.40,29.58,120112,,,D*46
$GPRMC,195403.000,A,3748.7755,N,12217.6734,W,2.67,44.10,120112,,,D*49
$GPRMC,195404.000,A,3748.7763,N,12217.6723,W,3.04,30.21,120112,,,D*48
$GPRMC,195405.000,A,3748.7770,N,12217.6715,W,3.03,29.18,120112,,,D*4B
$GPRMC,195406.000,A,3748.7779,N,12217.6705,W,2.71,29.21,120112,,,D*4E
$GPRMC,195407.000,A,3748.7784,N,12217.6695,W,2.34,28.05,120112,,,D*43
$GPRMC,195408.000,A,3748.7789,N,12217.6688,W,2.23,22.25,120112,,,D*43
$GPRMC,195409.000,A,3748.7798,N,12217.6684,W,2.43,13.82,120112,,,D*47
$GPRMC,195410.000,A,3748.7806,N,12217.6683,W,2.14,5.33,120112,,,D*7F
$GPRMC,195411.000,A,3748.7814,N,12217.6679,W,2.10,13.02,120112,,,D*49
$GPRMC,195412.000,A,3748.7823,N,12217.6678,W,2.44,5.32,120112,,,D*7A
$GPRMC,195413.000,A,3748.7831,N,12217.6676,W,2.58,5.14,120112,,,D*7F
$GPRMC,195414.000,A,3748.7840,N,12217.6672,W,2.46,11.62,120112,,,D*41
$GPRMC,195415.000,A,3748.7846,N,12217.6669,W,2.14,2.38,120112,,,D*76
$GPRMC,195416.000,A,3748.7852,N,12217.6666,W,2.41,5.01,120112,,,D*72
$GPRMC,195417.000,A,3748.7859,N,12217.6660,W,2.47,13.21,120112,,,D*4D
$GPRMC,195418.000,A,3748.7867,N,12217.6653,W,3.04,22.60,120112,,,D*4E
$GPRMC,195419.000,A,3748.7876,N,12217.6647,W,2.88,26.57,120112,,,D*4F
$GPRMC,195420.000,A,3748.7883,N,12217.6640,W,2.69,34.43,120112,,,D*41
$GPRMC,195421.000,A,3748.7889,N,12217.6633,W,2.54,29.42,120112,,,D*4D
$GPRMC,195422.000,A,3748.7897,N,12217.6627,W,2.72,20.27,120112,,,D*4A
$GPRMC,195423.000,A,3748.7904,N,12217.6623,W,2.67,16.95,120112,,,D*4C
$GPRMC,195424.000,A,3748.7911,N,12217.6621,W,2.28,14.80,120112,,,D*40
$GPRMC,195425.000,A,3748.7918,N,12217.6618,W,2.60,17.29,120112,,,D*4E
$GPRMC,195426.000,A,3748.7926,N,12217.6616,W,2.28,15.93,120112,,,D*41
$GPRMC,195427.000,A,3748.7931,N,12217.6617,W,1.58,32.07,120112,,,D*4B
$GPRMC,195428.000,A,3748.7937,N,12217.6616,W,1.36,22.29,120112,,,D*46
$GPRMC,195429.000,A,3748.7945,N,12217.6613,W,2.59,10.68,120112,,,D*49
$GPRMC,195430.000,A,3748.7952,N,12217.6605,W,2.92,20.54,120112,,,D*4B
$GPRMC,195431.000,A,3748.7958,N,12217.6600,W,2.02,16.01,120112,,,D*49
$GPRMC,195432.000,A,3748.7964,N,12217.6595,W,2.68,18.87,120112,,,D*46
$GPRMC,195433.000,A,3748.7972,N,12217.6587,W,2.01,21.67,120112,,,D*48
$GPRMC,195434.000,A,3748.7981,N,12217.6581,W,2.22,13.45,120112,,,D*45
$GPRMC,195435.000,A,3748.7989,N,12217.6573,W,2.32,24.18,120112,,,A*49
$GPRMC,195436.000,A,3748.7996,N,12217.6567,W,2.41,23.22,120112,,,A*4B
$GPRMC,195437.000,A,3748.8005,N,12217.6560,W,2.63,8.73,120112,,,A*7C
$GPRMC,195438.000,A,3748.8007,N,12217.6553,W,1.95,18.86,120112,,,A*40
$GPRMC,195439.000,A,3748.8013,N,12217.6550,W,1.62,24.09,120112,,,A*47
$GPRMC,195440.000,A,3748.8015,N,12217.6547,W,0.91,16.93,120112,,,A*46
$GPRMC,195441.000,A,3748.8018,N,12217.6546,W,0.59,5.48,120112,,,A*7B
$GPRMC,195442.000,A,3748.8018,N,12217.6544,W,0.61,71.57,120112,,,A*4C
$GPRMC,195443.000,A,3748.8018,N,12217.6542,W,0.50,95.50,120112,,,A*44
$GPRMC,195444.000,A,3748.8018,N,12217.6540,W,0.20,172.75,120112,,,A*79
$GPRMC,195445.000,A,3748.8021,N,12217.6537,W,1.08,62.36,120112,,,D*4B
$GPRMC,195446.000,A,3748.8021,N,12217.6526,W,2.66,58.87,120112,,,D*40
$GPRMC,195447.000,A,3748.8029,N,12217.6522,W,2.26,31.46,120112,,,D*4B
$GPRMC,195448.000,A,3748.8039,N,12217.6516,W,2.67,29.64,120112,,,D*4E
$GPRMC,195449.000,A,3748.8047,N,12217.6514,W,2.76,26.28,120112,,,D*43
$GPRMC,195450.000,A,3748.8054,N,12217.6512,W,2.35,19.54,120112,,,D*4F
$GPRMC,195451.000,A,3748.8061,N,12217.6507,W,2.55,19.64,120112,,,D*49
$GPRMC,195452.000,A,3748.8067,N,12217.6499,W,3.01,24.48,120112,,,D*4A
$GPRMC,195453.000,A,3748.8075,N,12217.6490,W,2.55,17.93,120112,,,D*47
$GPRMC,195454.000,A,3748.8084,N,12217.6481,W,2.37,13.41,120112,,,D*41
$GPRMC,195455.000,A,3748.8091,N,12217.6474,W,2.81,21.32,120112,,,D*46
$GPRMC,195456.000,A,3748.8095,N,12217.6465,W,2.58,26.19,120112,,,D*4B
$GPRMC,195457.000,A,3748.8097,N,12217.6453,W,2.47,26.81,120112,,,D*42
$GPRMC,195458.000,A,3748.8101,N,12217.6444,W,2.38,22.46,120112,,,D*42
$GPRMC,195459.000,A,3748.8104,N,12217.6434,W,2.73,21.80,120112,,,D*47
$GPRMC,195500.000,A,3748.8108,N,12217.6424,W,2.62,20.46,120112,,,D*4C
$GPRMC,195501.000,A,3748.8111,N,12217.6416,W,2.02,39.43,120112,,,D*4F
$GPRMC,195502.000,A,3748.8112,N,12217.6406,W,1.68,38.55,120112,,,D*47
$GPRMC,195503.000,A,3748.8113,N,12217.6399,W,1.88,35.48,120112,,,D*49
$GPRMC,195504.000,A,3748.8113,N,12217.6392,W,1.09,72.82,120112,,,D*49
$GPRMC,195505.000,A,3748.8116,N,12217.6381,W,1.75,64.00,120112,,,D*49
$GPRMC,195506.000,A,3748.8121,N,12217.6370,W,2.02,45.30,120112,,,D*43
$GPRMC,195507.000,A,3748.8127,N,12217.6360,W,2.04,41.79,120112,,,D*4A
$GPRMC,195508.000,A,3748.8132,N,12217.6356,W,1.65,47.80,120112,,,D*40
$GPRMC,195509.000,A,3748.8134,N,12217.6353,W,1.83,54.81,120112,,,D*49
$GPRMC,195510.000,A,3748.8134,N,12217.6351,W,1.41,50.99,120112,,,D*40
$GPRMC,195511.000,A,3748.8133,N,12217.6345,W,1.19,50.12,120112,,,D*4D
$GPRMC,195512.000,A,3748.8135,N,12217.6338,W,1.18,78.24,120112,,,D*4C
$GPRMC,195513.000,A,3748.8133,N,12217.6328,W,1.32,100.24,120112,,,D*7C
$GPRMC,195514.000,A,3748.8132,N,12217.6319,W,1.45,99.06,120112,,,D*49
$GPRMC,195515.000,A,3748.8132,N,12217.6307,W,1.29,83.52,120112,,,D*47
$GPRMC,195516.000,A,3748.8129,N,12217.6296,W,1.26,69.80,120112,,,D*43
$GPRMC,195517.000,A,3748.8131,N,12217.6287,W,1.28,93.76,120112,,,D*49
$GPRMC,195518.000,A,3748.8132,N,12217.6280,W,1.77,98.71,120112,,,D*44
$GPRMC,195519.000,A,3748.8132,N,12217.6271,W,1.69,93.92,120112,,,D*42
$GPRMC,195520.000,A,3748.8135,N,12217.6262,W,1.90,66.22,120112,,,D*4A
$GPRMC,195521.000,A,3748.8139,N,12217.6252,W,2.06,73.07,120112,,,D*4B
$GPRMC,195522.000,A,3748.8142,N,12217.6246,W,1.56,83.29,120112,,,D*44
$GPRMC,195523.000,A,3748.8143,N,12217.6241,W,1.23,111.03,120112,,,D*73
$GPRMC,195524.000,A,3748.8149,N,12217.6239,W,1.29,111.10,120112,,,D*79
$GPRMC,195525.000,A,3748.8156,N,12217.6234,W,1.42,82.09,120112,,,D*45
$GPRMC,195526.000,A,3748.8163,N,12217.6229,W,1.72,61.60,120112,,,D*4D
$GPRMC,195527.000,A,3748.8170,N,12217.6223,W,2.00,50.55,120112,,,D*46
$GPRMC,195528.000,A,3748.8176,N,12217.6215,W,1.66,62.66,120112,,,D*48
$GPRMC,195529.000,A,3748.8175,N,12217.6205,W,1.46,89.84,120112,,,D*40
$GPRMC,195530.000,A,3748.8177,N,12217.6197,W,1.59,72.41,120112,,,D*41
$GPRMC,195531.000,A,3748.8183,N,12217.6190,W,1.74,64.34,120112,,,D*46
$GPRMC,195532.000,A,3748.8192,N,12217.6184,W,2.01,54.12,120112,,,D*46
$GPRMC,195533.000,A,3748.8195,N,12217.6179,W,1.55,67.55,120112,,,D*43
$GPRMC,195534.000,A,3748.8197,N,12217.6177,W,1.24,74.07,120112,,,D*4B
$GPRMC,195535.000,A,3748.8200,N,12217.6169,W,1.35,87.78,120112,,,D*4C
$GPRMC,195536.000,A,3748.8200,N,12217.6164,W,1.24,75.07,120112,,,D*47
$GPRMC,195537.000,A,3748.8206,N,12217.6158,W,1.13,72.81,120112,,,D*42
$GPRMC,195538.000,A,3748.8208,N,12217.6147,W,1.72,57.93,120112,,,D*4E
$GPRMC,195539.000,A,3748.8215,N,12217.6140,W,1.93,53.12,120112,,,D*46
$GPRMC,195540.000,A,3748.8220,N,12217.6131,W,1.77,61.74,120112,,,D*43
$GPRMC,195541.000,A,3748.8229,N,12217.6127,W,1.94,46.98,120112,,,D*46
$GPRMC,195542.000,A,3748.8232,N,12217.6123,W,1.82,82.19,120112,,,D*4D
$GPRMC,195543.000,A,3748.8234,N,12217.6119,W,1.50,85.65,120112,,,D*40
$GPRMC,195544.000,A,3748.8237,N,12217.6119,W,1.22,84.53,120112,,,D*45
$GPRMC,195545.000,A,3748.8241,N,12217.6116,W,1.91,122.47,120112,,,D*7A
$GPRMC,195546.000,A,3748.8239,N,12217.6114,W,2.21,128.58,120112,,,D*78
$GPRMC,195547.000,A,3748.8244,N,12217.6116,W,1.61,118.14,120112,,,D*7D
$GPRMC,195548.000,A,3748.8248,N,12217.6120,W,1.46,143.72,120112,,,D*70
$GPRMC,195549.000,A,3748.8249,N,12217.6119,W,1.95,103.90,120112,,,D*7C
$GPRMC,195550.000,A,3748.8254,N,12217.6115,W,2.21,107.63,120112,,,D*70
$GPRMC,195551.000,A,3748.8260,N,12217.6113,W,2.09,81.91,120112,,,D*48
$GPRMC,195552.000,A,3748.8264,N,12217.6109,W,2.20,87.43,120112,,,D*46
$GPRMC,195553.000,A,3748.8270,N,12217.6108,W,1.79,71.93,120112,,,D*48
$GPRMC,195554.000,A,3748.8278,N,12217.6106,W,1.87,88.74,120112,,,D*47
$GPRMC,195555.000,A,3748.8288,N,12217.6099,W,2.31,93.98,120112,,,D*48
$GPRMC,195556.000,A,3748.8289,N,12217.6093,W,2.50,95.42,120112,,,D*46
$GPRMC,195557.000,A,3748.8283,N,12217.6082,W,2.02,93.43,120112,,,D*4D
$GPRMC,195558.000,A,3748.8288,N,12217.6079,W,1.97,115.96,120112,,,A*70
$GPRMC,195559.000,A,3748.8293,N,12217.6073,W,2.10,113.52,120112,,,A*73
$GPRMC,195600.000,A,3748.8295,N,12217.6067,W,1.98,123.13,120112,,,A*7A
$GPRMC,195601.000,A,3748.8297,N,12217.6067,W,1.51,160.45,120112,,,A*78
$GPRMC,195602.000,A,3748.8298,N,12217.6066,W,1.44,139.59,120112,,,A*70
$GPRMC,195603.000,A,3748.8296,N,12217.6059,W,1.53,123.19,120112,,,A*7A
$GPRMC,195604.000,A,3748.8292,N,12217.6053,W,2.10,129.96,120112,,,A*7A
$GPRMC,195605.000,A,3748.8288,N,12217.6047,W,1.54,133.34,120112,,,A*75
$GPRMC,195606.000,A,3748.8284,N,12217.6039,W,1.48,149.07,120112,,,A*73
$GPRMC,195607.000,A,3748.8279,N,12217.6034,W,1.54,143.89,120112,,,A*7C
$GPRMC,195608.000,A,3748.8276,N,12217.6031,W,1.80,167.58,120112,,,A*7A
$GPRMC,195609.000,A,3748.8272,N,12217.6030,W,1.52,168.19,120112,,,A*7B
$GPRMC,195610.000,A,3748.8268,N,12217.6022,W,1.73,135.82,120112,,,D*77
$GPRMC,195611.000,A,3748.8263,N,12217.6014,W,1.93,126.57,120112,,,D*7C
$GPRMC,195612.000,A,3748.8260,N,12217.6004,W,2.67,120.04,120112,,,D*75
$GPRMC,195613.000,A,3748.8257,N,12217.5996,W,2.31,121.93,120112,,,D*7D
$GPRMC,195614.000,A,3748.8249,N,12217.5985,W,2.05,120.43,120112,,,D*7C
$GPRMC,195615.000,A,3748.8247,N,12217.5973,W,2.25,104.28,120112,,,D*73
$GPRMC,195616.000,A,3748.8246,N,12217.5961,W,2.71,107.38,120112,,,D*71
$GPRMC,195617.000,A,3748.8247,N,12217.5947,W,3.12,105.28,120112,,,D*72
$GPRMC,195618.000,A,3748.8245,N,12217.5938,W,2.35,118.50,120112,,,D*70
$GPRMC,195619.000,A,3748.8241,N,12217.5931,W,2.25,116.72,120112,,,D*73
$GPRMC,195620.000,A,3748.8238,N,12217.5924,W,2.17,119.74,120112,,,D*7B
$GPRMC,195621.000,A,3748.8236,N,12217.5913,W,2.22,127.81,120112,,,D*71
$GPRMC,195622.000,A,3748.8232,N,12217.5908,W,2.09,124.22,120112,,,D*7F
$GPRMC,195623.000,A,3748.8231,N,12217.5898,W,2.46,114.56,120112,,,D*7E
$GPRMC,195624.000,A,3748.8226,N,12217.5887,W,2.91,113.55,120112,,,D*7F
$GPRMC,195625.000,A,3748.8223,N,12217.5876,W,2.35,116.00,120112,,,D*7E
$GPRMC,195626.000,A,3748.8222,N,12217.5867,W,2.19,125.16,120112,,,D*75
$GPRMC,195627.000,A,3748.8218,N,12217.5860,W,2.47,118.03,120112,,,D*7B
$GPRMC,195628.000,A,3748.8214,N,12217.5855,W,2.22,121.19,120112,,,D*7C
$GPRMC,195629.000,A,3748.8206,N,12217.5849,W,2.67,117.80,120112,,,D*77
$GPRMC,195630.000,A,3748.8200,N,12217.5840,W,2.62,122.52,120112,,,D*7C
$GPRMC,195631.000,A,3748.8194,N,12217.5832,W,2.54,124.84,120112,,,D*7E
$GPRMC,195632.000,A,3748.8189,N,12217.5823,W,2.43,120.56,120112,,,D*7C
$GPRMC,195633.000,A,3748.8186,N,12217.5813,W,2.32,113.87,120112,,,D*7B
$GPRMC,195634.000,A,3748.8182,N,12217.5806,W,1.67,109.80,120112,,,D*73
$GPRMC,195635.000,A,3748.8180,N,12217.5799,W,1.92,121.01,120112,,,D*70
$GPRMC,195636.000,A,3748.8176,N,12217.5789,W,2.04,125.24,120112,,,D*74
$GPRMC,195637.000,A,3748.8172,N,12217.5779,W,1.63,127.32,120112,,,D*79
$GPRMC,195638.000,A,3748.8172,N,12217.5770,W,1.98,125.60,120112,,,D*7E
$GPRMC,195639.000,A,3748.8169,N,12217.5760,W,1.71,136.39,120112,,,D*7D
$GPRMC,195640.000,A,3748.8164,N,12217.5748,W,1.94,112.00,120112,,,D*73
$GPRMC,195641.000,A,3748.8160,N,12217.5736,W,1.30,115.83,120112,,,D*7D
$GPRMC,195642.000,A,3748.8159,N,12217.5724,W,1.51,106.49,120112,,,D*74
$GPRMC,195643.000,A,3748.8153,N,12217.5716,W,1.48,117.93,120112,,,D*71
$GPRMC,195644.000,A,3748.8147,N,12217.5710,W,1.97,120.18,120112,,,D*70
$GPRMC,195645.000,A,3748.8145,N,12217.5699,W,2.11,121.16,120112,,,D*71
$GPRMC,195646.000,A,3748.8143,N,12217.5693,W,2.44,109.41,120112,,,D*76
$GPRMC,195647.000,A,3748.8137,N,12217.5684,W,1.58,109.57,120112,,,D*7B
$GPRMC,195648.000,A,3748.8134,N,12217.5674,W,1.37,95.00,120112,,,D*47
$GPRMC,195649.000,A,3748.8130,N,12217.5667,W,1.54,105.11,120112,,,D*7D
$GPRMC,195650.000,A,3748.8127,N,12217.5658,W,1.92,118.53,120112,,,D*7F
$GPRMC,195651.000,A,3748.8123,N,12217.5650,W,1.92,127.08,120112,,,D*70
$GPRMC,195652.000,A,3748.8119,N,12217.5650,W,1.37,136.73,120112,,,D*79
$GPRMC,195653.000,A,3748.8118,N,12217.5644,W,2.32,126.86,120112,,,D*71
$GPRMC,195654.000,A,3748.8114,N,12217.5635,W,1.94,124.85,120112,,,D*72
$GPRMC,195655.000,A,3748.8107,N,12217.5632,W,1.41,117.45,120112,,,D*72
$GPRMC,195656.000,A,3748.8107,N,12217.5622,W,2.71,117.72,120112,,,D*74
$GPRMC,195657.000,A,3748.8100,N,12217.5612,W,3.03,124.55,120112,,,D*70
$GPRMC,195658.000,A,3748.8084,N,12217.5597,W,4.15,141.25,120112,,,D*78
$GPRMC,195659.000,A,3748.8081,N,12217.5586,W,2.63,129.37,120112,,,D*76
$GPRMC,195700.000,A,3748.8081,N,12217.5570,W,2.88,116.57,120112,,,D*7D
$GPRMC,195701.000,A,3748.8076,N,12217.5556,W,2.46,117.28,120112,,,D*7B
$GPRMC,195702.000,A,3748.8072,N,12217.5539,W,2.30,110.28,120112,,,A*76
$GPRMC,195703.000,A,3748.8066,N,12217.5528,W,1.95,104.33,120112,,,A*71
$GPRMC,195704.000,A,3748.8058,N,12217.5515,W,2.38,112.39,120112,,,A*7C
$GPRMC,195705.000,A,3748.8050,N,12217.5504,W,2.45,123.92,120112,,,A*7C
$GPRMC,195706.000,A,3748.8039,N,12217.5497,W,2.17,126.64,120112,,,A*70
$GPRMC,195707.000,A,3748.8035,N,12217.5491,W,1.46,130.10,120112,,,A*78
$GPRMC,195708.000,A,3748.8033,N,12217.5488,W,0.83,181.87,120112,,,A*75
$GPRMC,195709.000,A,3748.8033,N,12217.5495,W,1.01,238.29,120112,,,A*76
$GPRMC,195710.000,A,3748.8027,N,12217.5503,W,1.62,231.51,120112,,,A*76
$GPRMC,195711.000,A,3748.8021,N,12217.5512,W,1.65,240.28,120112,,,A*7E
$GPRMC,195712.000,A,3748.8011,N,12217.5521,W,1.70,209.48,120112,,,A*71
$GPRMC,195713.000,A,3748.7992,N,12217.5538,W,2.50,206.14,120112,,,A*72
$GPRMC,195714.000,A,3748.7986,N,12217.5546,W,2.59,205.78,120112,,,A*79
$GPRMC,195715.000,A,3748.7979,N,12217.5551,W,2.45,197.30,120112,,,A*77
$GPRMC,195716.000,A,3748.7974,N,12217.5545,W,2.52,205.46,120112,,,A*73
$GPRMC,195717.000,A,3748.7965,N,12217.5553,W,2.33,211.97,120112,,,A*7B
$GPRMC,195718.000,A,3748.7957,N,12217.5563,W,1.55,199.16,120112,,,A*7F
$GPRMC,195719.000,A,3748.7947,N,12217.5569,W,2.54,198.71,120112,,,A*77
$GPRMC,195720.000,A,3748.7935,N,12217.5575,W,2.84,196.12,120112,,,A*73
$GPRMC,195721.000,A,3748.7931,N,12217.5579,W,2.67,210.59,120112,,,A*75
$GPRMC,195722.000,A,3748.7927,N,12217.5581,W,2.49,212.11,120112,,,A*74
$GPRMC,195723.000,A,3748.7919,N,12217.5581,W,2.38,205.64,120112,,,A*7A
$GPRMC,195724.000,A,3748.7910,N,12217.5587,W,2.24,209.44,120112,,,A*71
$GPRMC,195725.000,A,3748.7905,N,12217.5590,W,2.70,213.08,120112,,,A*70
$GPRMC,195726.000,A,3748.7900,N,12217.5591,W,2.54,195.09,120112,,,A*7D
$GPRMC,195727.000,A,3748.7892,N,12217.5595,W,2.31,197.89,120112,,,A*7B
$GPRMC,195728.000,A,3748.7885,N,12217.5598,W,2.53,200.61,120112,,,A*70
$GPRMC,195729.000,A,3748.7877,N,12217.5607,W,3.01,206.25,120112,,,A*79
$GPRMC,195730.000,A,3748.7869,N,12217.5610,W,2.34,218.52,120112,,,A*70
$GPRMC,195731.000,A,3748.7869,N,12217.5619,W,1.77,239.10,120112,,,A*79
$GPRMC,195732.000,A,3748.7864,N,12217.5627,W,2.21,204.99,120112,,,A*75
$GPRMC,195733.000,A,3748.7851,N,12217.5629,W,2.16,190.03,120112,,,A*75
$GPRMC,195734.000,A,3748.7843,N,12217.5631,W,2.39,202.56,120112,,,A*7D
$GPRMC,195735.000,A,3748.7838,N,12217.5631,W,1.96,209.93,120112,,,A*74
$GPRMC,195736.000,A,3748.7826,N,12217.5638,W,1.30,209.73,120112,,,A*73
$GPRMC,195737.000,A,3748.7825,N,12217.5642,W,0.75,245.07,120112,,,A*77
$GPRMC,195738.000,A,3748.7819,N,12217.5650,W,1.95,236.30,120112,,,A*7B
$GPRMC,195739.000,A,3748.7809,N,12217.5662,W,1.46,231.35,120112,,,A*76
$GPRMC,195740.000,A,3748.7801,N,12217.5674,W,2.12,224.35,120112,,,A*71
$GPRMC,195741.000,A,3748.7795,N,12217.5685,W,1.62,210.77,120112,,,A*79
$GPRMC,195742.000,A,3748.7787,N,12217.5692,W,1.35,212.92,120112,,,A*74
$GPRMC,195743.000,A,3748.7784,N,12217.5691,W,1.52,198.41,120112,,,A*7B
$GPRMC,195744.000,A,3748.7782,N,12217.5692,W,1.95,215.73,120112,,,A*75
$GPRMC,195745.000,A,3748.7780,N,12217.5695,W,1.84,224.72,120112,,,A*72
$GPRMC,195746.000,A,3748.7773,N,12217.5699,W,1.93,209.49,120112,,,A*70
$GPRMC,195747.000,A,3748.7764,N,12217.5705,W,2.56,228.44,120112,,,A*77
$GPRMC,195748.000,A,3748.7758,N,12217.5712,W,2.39,224.26,120112,,,A*70
$GPRMC,195749.000,A,3748.7750,N,12217.5721,W,2.31,231.60,120112,,,A*77
$GPRMC,195750.000,A,3748.7747,N,12217.5731,W,2.36,223.53,120112,,,A*7C
$GPRMC,195751.000,A,3748.7742,N,12217.5738,W,2.17,216.01,120112,,,A*73
$GPRMC,195752.000,A,3748.7740,N,12217.5747,W,2.42,213.77,120112,,,A*7E
$GPRMC,195753.000,A,3748.7732,N,12217.5751,W,2.06,203.09,120112,,,A*75
$GPRMC,195754.000,A,3748.7725,N,12217.5756,W,2.55,208.09,120112,,,A*7E
$GPRMC,195755.000,A,3748.7716,N,12217.5763,W,2.99,203.29,120112,,,A*70
$GPRMC,195756.000,A,3748.7707,N,12217.5767,W,2.82,202.25,120112,,,A*70
$GPRMC,195757.000,A,3748.7699,N,12217.5771,W,2.51,200.39,120112,,,A*71
$GPRMC,195758.000,A,3748.7691,N,12217.5777,W,2.60,205.80,120112,,,A*75
$GPRMC,195759.000,A,3748.7682,N,12217.5779,W,2.81,197.06,120112,,,A*71
$GPRMC,195800.000,A,3748.7674,N,12217.5786,W,3.01,213.70,120112,,,A*7C
$GPRMC,195801.000,A,3748.7664,N,12217.5794,W,2.98,203.59,120112,,,A*74
$GPRMC,195802.000,A,3748.7656,N,12217.5801,W,2.77,206.84,120112,,,A*71
$GPRMC,195803.000,A,3748.7650,N,12217.5810,W,2.63,205.26,120112,,,A*78
$GPRMC,195804.000,A,3748.7643,N,12217.5814,W,2.41,199.70,120112,,,A*7C
$GPRMC,195805.000,A,3748.7637,N,12217.5818,W,2.18,199.08,120112,,,A*71
$GPRMC,195806.000,A,3748.7630,N,12217.5822,W,2.85,198.32,120112,,,A*70
$GPRMC,195807.000,A,3748.7620,N,12217.5829,W,2.84,206.57,120112,,,A*7D
$GPRMC,195808.000,A,3748.7610,N,12217.5835,W,2.72,199.33,120112,,,A*72
$GPRMC,195809.000,A,3748.7603,N,12217.5837,W,2.64,200.36,120112,,,A*72
$GPRMC,195810.000,A,3748.7597,N,12217.5838,W,2.13,198.50,120112,,,A*79
$GPRMC,195811.000,A,3748.7585,N,12217.5840,W,3.14,185.18,120112,,,A*72
$GPRMC,195812.000,A,3748.7572,N,12217.5846,W,3.07,193.93,120112,,,A*79
$GPRMC,195813.000,A,3748.7564,N,12217.5853,W,2.62,211.23,120112,,,A*7B
$GPRMC,195814.000,A,3748.7556,N,12217.5861,W,2.78,217.31,120112,,,A*72
$GPRMC,195815.000,A,3748.7549,N,12217.5871,W,2.05,223.06,120112,,,A*75
$GPRMC,195816.000,A,3748.7542,N,12217.5871,W,2.12,204.80,120112,,,A*70
$GPRMC,195817.000,A,3748.7534,N,12217.5871,W,1.77,202.45,120112,,,A*7F
$GPRMC,195818.000,A,3748.7524,N,12217.5878,W,1.92,195.08,120112,,,A*77
$GPRMC,195819.000,A,3748.7514,N,12217.5885,W,2.21,204.44,120112,,,A*7F
$GPRMC,195820.000,A,3748.7503,N,12217.5890,W,2.18,206.46,120112,,,A*7D
$GPRMC,195821.000,A,3748.7490,N,12217.5897,W,1.95,201.31,120112,,,A*71
$GPRMC,195822.000,A,3748.7482,N,12217.5910,W,1.62,208.93,120112,,,A*76
$GPRMC,195823.000,A,3748.7475,N,12217.5919,W,2.03,220.82,120112,,,A*78
$GPRMC,195824.000,A,3748.7469,N,12217.5931,W,2.38,226.21,120112,,,A*7F
$GPRMC,195825.000,A,3748.7464,N,12217.5942,W,2.50,212.93,120112,,,A*77
$GPRMC,195826.000,A,3748.7460,N,12217.5951,W,2.49,212.92,120112,,,A*7B
$GPRMC,195827.000,A,3748.7452,N,12217.5954,W,2.56,210.72,120112,,,A*7C
$GPRMC,195828.000,A,3748.7441,N,12217.5960,W,1.97,202.35,120112,,,A*78
$GPRMC,195829.000,A,3748.7433,N,12217.5964,W,1.66,190.94,120112,,,A*75
$GPRMC,195830.000,A,3748.7426,N,12217.5966,W,1.76,202.85,120112,,,A*72
$GPRMC,195831.000,A,3748.7416,N,12217.5972,W,2.48,202.29,120112,,,A*7D
$GPRMC,195832.000,A,3748.7411,N,12217.5978,W,2.20,211.03,120112,,,A*77
$GPRMC,195833.000,A,3748.7411,N,12217.5985,W,1.85,215.76,120112,,,A*7E
$GPRMC,195834.000,A,3748.7406,N,12217.5995,W,1.39,227.88,120112,,,A*79
$GPRMC,195835.000,A,3748.7404,N,12217.6005,W,1.00,220.81,120112,,,A*7D
$GPRMC,195836.000,A,3748.7397,N,12217.6008,W,1.06,195.95,120112,,,A*70
$GPRMC,195837.000,A,3748.7391,N,12217.6007,W,1.78,206.13,120112,,,A*76
$GPRMC,195838.000,A,3748.7385,N,12217.6009,W,1.97,198.53,120112,,,A*73
$GPRMC,195839.000,A,3748.7382,N,12217.6012,W,1.55,214.09,120112,,,A*79
$GPRMC,195839.000,A,3748.7378,N,12217.6017,W,2.08,213.14,120112,,,A*79
$GPRMC,195840.000,A,3748.7372,N,12217.6021,W,2.08,204.25,120112,,,A*7C
$GPRMC,195841.000,A,3748.7365,N,12217.6024,W,1.73,208.00,120112,,,A*7A
$GPRMC,195842.000,A,3748.7357,N,12217.6027,W,2.90,200.13,120112,,,A*7F
$GPRMC,195843.000,A,3748.7350,N,12217.6034,W,3.16,215.10,120112,,,A*73
$GPRMC,195844.000,A,3748.7345,N,12217.6043,W,2.44,220.06,120112,,,A*77
$GPRMC,195845.000,A,3748.7338,N,12217.6053,W,1.92,213.18,120112,,,A*7A
$GPRMC,195846.000,A,3748.7331,N,12217.6060,W,1.95,222.49,120112,,,A*71
$GPRMC,195847.000,A,3748.7325,N,12217.6066,W,2.08,221.46,120112,,,A*78
$GPRMC,195848.000,A,3748.7314,N,12217.6069,W,2.61,211.87,120112,,,A*7B
$GPRMC,195849.000,A,3748.7307,N,12217.6073,W,2.34,207.69,120112,,,A*74
$GPRMC,195850.000,A,3748.7302,N,12217.6080,W,2.52,205.20,120112,,,A*7A
$GPRMC,195851.000,A,3748.7295,N,12217.6085,W,2.72,203.34,120112,,,A*70
$GPRMC,195852.000,A,3748.7288,N,12217.6092,W,2.98,202.21,120112,,,A*78
$GPRMC,195853.000,A,3748.7283,N,12217.6102,W,2.54,213.01,120112,,,A*78
$GPRMC,195854.000,A,3748.7276,N,12217.6107,W,2.67,204.47,120112,,,A*74
$GPRMC,195855.000,A,3748.7266,N,12217.6109,W,2.46,201.21,120112,,,A*7C
$GPRMC,195856.000,A,3748.7258,N,12217.6108,W,1.90,189.67,120112,,,A*7A
$GPRMC,195857.000,A,3748.7250,N,12217.6107,W,1.84,179.26,120112,,,A*73
$GPRMC,195858.000,A,3748.7242,N,12217.6116,W,1.95,196.01,120112,,,A*7B
$GPRMC,195859.000,A,3748.7237,N,12217.6119,W,1.38,196.42,120112,,,A*77
$GPRMC,195900.000,A,3748.7231,N,12217.6123,W,1.42,185.99,120112,,,A*7C
$GPRMC,195901.000,A,3748.7227,N,12217.6129,W,1.40,185.61,120112,,,A*75
$GPRMC,195902.000,A,3748.7222,N,12217.6133,W,1.81,190.37,120112,,,A*72
$GPRMC,195903.000,A,3748.7219,N,12217.6141,W,1.67,203.00,120112,,,A*7B
$GPRMC,195904.000,A,3748.7216,N,12217.6150,W,2.53,216.98,120112,,,A*72
$GPRMC,195905.000,A,3748.7211,N,12217.6158,W,1.94,211.58,120112,,,A*7F
$GPRMC,195906.000,A,3748.7203,N,12217.6161,W,2.26,190.39,120112,,,A*72
$GPRMC,195907.000,A,3748.7195,N,12217.6164,W,1.83,193.26,120112,,,A*7B
$GPRMC,195908.000,A,3748.7188,N,12217.6168,W,1.45,177.39,120112,,,A*7A
$GPRMC,195909.000,A,3748.7182,N,12217.6169,W,1.43,171.07,120112,,,A*7D
$GPRMC,195910.000,A,3748.7178,N,12217.6174,W,1.04,191.48,120112,,,A*7A
$GPRMC,195911.000,A,3748.7172,N,12217.6176,W,1.45,206.13,120112,,,A*75
$GPRMC,195912.000,A,3748.7165,N,12217.6177,W,1.61,198.45,120112,,,A*70
$GPRMC,195913.000,A,3748.7159,N,12217.6179,W,1.38,200.10,120112,,,A*7E
$GPRMC,195914.000,A,3748.7154,N,12217.6182,W,1.11,189.07,120112,,,A*7F
$GPRMC,195915.000,A,3748.7149,N,12217.6184,W,1.45,202.93,120112,,,A*78
$GPRMC,195916.000,A,3748.7142,N,12217.6186,W,1.85,192.46,120112,,,A*7C
$GPRMC,195917.000,A,3748.7134,N,12217.6188,W,2.57,197.89,120112,,,A*78
$GPRMC,195918.000,A,3748.7123,N,12217.6192,W,2.64,196.73,120112,,,A*7E
$GPRMC,195919.000,A,3748.7116,N,12217.6198,W,2.36,209.27,120112,,,A*70
$GPRMC,195920.000,A,3748.7108,N,12217.6204,W,2.72,204.97,120112,,,A*75
$GPRMC,195921.000,A,3748.7100,N,12217.6207,W,2.60,198.19,120112,,,A*7C
$GPRMC,195922.000,A,3748.7092,N,12217.6211,W,2.57,202.35,120112,,,A*78
$GPRMC,195923.000,A,3748.7083,N,12217.6218,W,1.99,200.68,120112,,,A*7B
$GPRMC,195924.000,A,3748.7076,N,12217.6224,W,2.25,201.91,120112,,,A*7A
$GPRMC,195925.000,A,3748.7071,N,12217.6231,W,1.98,199.01,120112,,,A*76
$GPRMC,195926.000,A,3748.7065,N,12217.6236,W,1.61,199.24,120112,,,A*76
$GPRMC,195927.000,A,3748.7051,N,12217.6252,W,1.92,207.45,120112,,,A*7D
$GPRMC,195928.000,A,3748.7041,N,12217.6264,W,1.52,228.87,120112,,,A*79
$GPRMC,195929.000,A,3748.7032,N,12217.6272,W,1.74,208.27,120112,,,A*77
$GPRMC,195930.000,A,3748.7022,N,12217.6288,W,1.81,230.13,120112,,,A*7D
$GPRMC,195931.000,A,3748.7013,N,12217.6296,W,2.46,200.19,120112,,,A*70
$GPRMC,195932.000,A,3748.7007,N,12217.6301,W,2.70,198.02,120112,,,A*74
$GPRMC,195933.000,A,3748.6997,N,12217.6305,W,2.70,199.47,120112,,,A*70
$GPRMC,195934.000,A,3748.6990,N,12217.6312,W,2.82,208.68,120112,,,A*7D
$GPRMC,195935.000,A,3748.6983,N,12217.6318,W,2.62,208.78,120112,,,A*7B
$GPRMC,195936.000,A,3748.6974,N,12217.6322,W,2.48,206.36,120112,,,A*75
$GPRMC,195937.000,A,3748.6968,N,12217.6326,W,2.00,201.66,120112,,,A*73
$GPRMC,195938.000,A,3748.6961,N,12217.6330,W,1.96,198.79,120112,,,A*73
$GPRMC,195939.000,A,3748.6957,N,12217.6334,W,1.92,193.28,120112,,,A*78
$GPRMC,195940.000,A,3748.6955,N,12217.6337,W,1.87,199.61,120112,,,A*74
$GPRMC,195941.000,A,3748.6951,N,12217.6343,W,2.41,205.96,120112,,,A*75
$GPRMC,195942.000,A,3748.6945,N,12217.6349,W,2.64,210.84,120112,,,A*79
$GPRMC,195943.000,A,3748.6938,N,12217.6357,W,2.44,206.70,120112,,,A*73
$GPRMC,195944.000,A,3748.6932,N,12217.6363,W,1.45,206.44,120112,,,A*7C
$GPRMC,195945.000,A,3748.6928,N,12217.6367,W,1.08,184.18,120112,,,A*7B
$GPRMC,195946.000,A,3748.6922,N,12217.6371,W,2.36,197.78,120112,,,A*7F
$GPRMC,195947.000,A,3748.6913,N,12217.6379,W,2.93,208.27,120112,,,A*74
$GPRMC,195948.000,A,3748.6904,N,12217.6388,W,2.81,217.90,120112,,,A*72
$GPRMC,195949.000,A,3748.6897,N,12217.6395,W,2.66,219.36,120112,,,A*7F
$GPRMC,195950.000,A,3748.6889,N,12217.6402,W,2.75,207.93,120112,,,A*73
$GPRMC,195951.000,A,3748.6897,N,12217.6480,W,2.99,167.32,120112,,,A*7B
$GPRMC,195952.000,A,3748.6877,N,12217.6492,W,2.79,179.23,120112,,,A*74
$GPRMC,195953.000,A,3748.6879,N,12217.6466,W,2.64,194.43,120112,,,A*79
$GPRMC,195954.000,A,3748.6872,N,12217.6458,W,2.62,194.63,120112,,,A*7C
$GPRMC,195955.000,A,3748.6864,N,12217.6471,W,2.69,205.92,120112,,,A*7F
$GPRMC,195956.000,A,3748.6856,N,12217.6485,W,2.89,218.04,120112,,,A*7B
$GPRMC,195957.000,A,3748.6848,N,12217.6504,W,2.30,221.18,120112,,,A*78
$GPRMC,195958.000,A,3748.6827,N,12217.6514,W,2.65,212.34,120112,,,A*71
$GPRMC,195959.000,A,3748.6810,N,12217.6520,W,2.58,216.04,120112,,,A*7A
$GPRMC,200000.000,A,3748.6804,N,12217.6523,W,2.18,209.74,120112,,,A*7B
$GPRMC,200001.000,A,3748.6793,N,12217.6526,W,2.13,206.80,120112,,,A*71
$GPRMC,200002.000,A,3748.6784,N,12217.6529,W,2.09,197.87,120112,,,A*7C
$GPRMC,200003.000,A,3748.6776,N,12217.6529,W,2.07,198.07,120112,,,A*79
$GPRMC,200004.000,A,3748.6766,N,12217.6534,W,2.76,210.62,120112,,,A*75
$GPRMC,200005.000,A,3748.6758,N,12217.6539,W,2.79,210.02,120112,,,A*7D
$GPRMC,200006.000,A,3748.6748,N,12217.6543,W,2.64,212.46,120112,,,A*7C
$GPRMC,200007.000,A,3748.6742,N,12217.6539,W,1.60,196.41,120112,,,A*75
$GPRMC,200008.000,A,3748.6736,N,12217.6541,W,1.69,200.06,120112,,,A*70
$GPRMC,200009.000,A,3748.6731,N,12217.6543,W,1.62,193.60,120112,,,A*76
$GPRMC,200010.000,A,3748.6725,N,12217.6541,W,1.45,192.44,120112,,,A*7B
$GPRMC,200011.000,A,3748.6719,N,12217.6547,W,1.80,188.49,120112,,,A*7C
$GPRMC,200012.000,A,3748.6709,N,12217.6556,W,1.98,205.35,120112,,,A*7A
$GPRMC,200013.000,A,3748.6703,N,12217.6561,W,2.49,225.58,120112,,,A*73
$GPRMC,200014.000,A,3748.6698,N,12217.6564,W,2.61,217.67,120112,,,A*75
$GPRMC,200015.000,A,3748.6692,N,12217.6565,W,2.47,207.05,120112,,,A*7E
$GPRMC,200016.000,A,3748.6688,N,12217.6569,W,2.27,215.08,120112,,,A*72
$GPRMC,200017.000,A,3748.6682,N,12217.6575,W,2.25,208.40,120112,,,A*76
$GPRMC,200018.000,A,3748.6673,N,12217.6583,W,2.05,217.25,120112,,,A*71
$GPRMC,200019.000,A,3748.6668,N,12217.6591,W,1.91,205.94,120112,,,A*7E
$GPRMC,200020.000,A,3748.6661,N,12217.6594,W,2.02,188.59,120112,,,A*76
$GPRMC,200021.000,A,3748.6658,N,12217.6599,W,1.36,182.10,120112,,,A*73
$GPRMC,200022.000,A,3748.6653,N,12217.6602,W,1.66,195.04,120112,,,A*7C
$GPRMC,200023.000,A,3748.6646,N,12217.6612,W,1.91,197.41,120112,,,A*73
$GPRMC,200024.000,A,3748.6639,N,12217.6619,W,1.83,204.57,120112,,,A*7A
$GPRMC,200025.000,A,3748.6634,N,12217.6623,W,2.00,214.79,120112,,,A*7A
$GPRMC,200026.000,A,3748.6630,N,12217.6628,W,2.49,199.52,120112,,,A*74
$GPRMC,200027.000,A,3748.6624,N,12217.6632,W,2.49,203.33,120112,,,A*7C
$GPRMC,200028.000,A,3748.6619,N,12217.6638,W,2.85,209.81,120112,,,A*74
$GPRMC,200029.000,A,3748.6611,N,12217.6642,W,2.46,210.20,120112,,,A*7C
$GPRMC,200030.000,A,3748.6604,N,12217.6647,W,2.92,205.17,120112,,,A*7C
$GPRMC,200031.000,A,3748.6595,N,12217.6651,W,2.68,211.28,120112,,,A*7D
$GPRMC,200032.000,A,3748.6587,N,12217.6655,W,2.65,213.88,120112,,,A*7C
$GPRMC,200033.000,A,3748.6580,N,12217.6662,W,2.61,212.39,120112,,,A*71
$GPRMC,200034.000,A,3748.6574,N,12217.6668,W,2.46,213.73,120112,,,A*7D
$GPRMC,200035.000,A,3748.6571,N,12217.6675,W,2.16,219.14,120112,,,A*7B
$GPRMC,200036.000,A,3748.6566,N,12217.6681,W,2.35,208.89,120112,,,A*70
$GPRMC,200037.000,A,3748.6559,N,12217.6686,W,2.08,202.09,120112,,,A*76
$GPRMC,200038.000,A,3748.6552,N,12217.6690,W,2.18,201.04,120112,,,A*7A
$GPRMC,200039.000,A,3748.6546,N,12217.6694,W,2.17,198.93,120112,,,A*78
$GPRMC,200040.000,A,3748.6540,N,12217.6700,W,2.10,203.79,120112,,,A*7E
$GPRMC,200041.000,A,3748.6535,N,12217.6708,W,2.25,215.31,120112,,,A*78
$GPRMC,200042.000,A,3748.6531,N,12217.6711,W,1.90,228.55,120112,,,A*76
$GPRMC,200043.000,A,3748.6527,N,12217.6720,W,2.26,216.67,120112,,,A*70
$GPRMC,200044.000,A,3748.6521,N,12217.6726,W,2.08,197.82,120112,,,A*7A
$GPRMC,200045.000,A,3748.6514,N,12217.6725,W,1.51,189.78,120112,,,A*7B
$GPRMC,200046.000,A,3748.6507,N,12217.6730,W,1.81,198.23,120112,,,A*7D
$GPRMC,200047.000,A,3748.6500,N,12217.6735,W,2.48,209.93,120112,,,A*78
$GPRMC,200048.000,A,3748.6495,N,12217.6741,W,1.93,206.91,120112,,,A*71
$GPRMC,200049.000,A,3748.6492,N,12217.6747,W,1.69,198.07,120112,,,A*7F
$GPRMC,200050.000,A,3748.6487,N,12217.6754,W,2.06,202.63,120112,,,A*79
$GPRMC,200051.000,A,3748.6480,N,12217.6760,W,1.71,180.85,120112,,,A*7A
$GPRMC,200052.000,A,3748.6475,N,12217.6766,W,1.28,160.52,120112,,,A*7D
$GPRMC,200053.000,A,3748.6473,N,12217.6764,W,1.43,149.53,120112,,,A*7F
$GPRMC,200054.000,A,3748.6466,N,12217.6767,W,1.71,190.46,120112,,,A*7E
$GPRMC,200055.000,A,3748.6456,N,12217.6766,W,1.86,212.19,120112,,,A*76
$GPRMC,200056.000,A,3748.6443,N,12217.6768,W,1.97,177.60,120112,,,A*71
$GPRMC,200057.000,A,3748.6430,N,12217.6774,W,1.94,209.16,120112,,,A*71
$GPRMC,200058.000,A,3748.6422,N,12217.6778,W,2.86,205.65,120112,,,A*79
$GPRMC,200059.000,A,3748.6414,N,12217.6774,W,2.27,189.72,120112,,,A*7B
$GPRMC,200100.000,A,3748.6403,N,12217.6777,W,2.04,187.90,120112,,,A*70
$GPRMC,200101.000,A,3748.6393,N,12217.6779,W,2.11,183.27,120112,,,A*7D
$GPRMC,200102.000,A,3748.6382,N,12217.6783,W,1.86,183.72,120112,,,A*76
$GPRMC,200103.000,A,3748.6374,N,12217.6789,W,1.61,187.19,120112,,,A*74
$GPRMC,200104.000,A,3748.6366,N,12217.6799,W,2.01,204.85,120112,,,A*79
$GPRMC,200105.000,A,3748.6360,N,12217.6803,W,1.86,216.29,120112,,,A*7B
$GPRMC,200106.000,A,3748.6352,N,12217.6807,W,2.06,228.17,120112,,,A*76
$GPRMC,200107.000,A,3748.6349,N,12217.6815,W,2.01,223.31,120112,,,A*76
$GPRMC,200108.000,A,3748.6348,N,12217.6825,W,2.01,225.85,120112,,,A*72
$GPRMC,200109.000,A,3748.6347,N,12217.6835,W,1.52,210.67,120112,,,A*72
$GPRMC,200110.000,A,3748.6344,N,12217.6842,W,1.95,211.72,120112,,,A*77
$GPRMC,200111.000,A,3748.6334,N,12217.6849,W,2.24,214.49,120112,,,A*7E
$GPRMC,200112.000,A,3748.6328,N,12217.6856,W,2.42,203.03,120112,,,A*76
$GPRMC,200113.000,A,3748.6318,N,12217.6859,W,3.09,195.49,120112,,,A*77
$GPRMC,200114.000,A,3748.6311,N,12217.6862,W,2.31,177.23,120112,,,A*7B
$GPRMC,200115.000,A,3748.6298,N,12217.6869,W,2.15,161.34,120112,,,A*76
$GPRMC,200116.000,A,3748.6289,N,12217.6878,W,1.54,165.59,120112,,,A*7C
$GPRMC,200117.000,A,3748.6278,N,12217.6889,W,1.53,195.46,120112,,,A*7B
$GPRMC,200118.000,A,3748.6270,N,12217.6893,W,2.18,209.09,120112,,,A*76
$GPRMC,200119.000,A,3748.6262,N,12217.6900,W,2.98,208.81,120112,,,A*76
$GPRMC,200120.000,A,3748.6257,N,12217.6907,W,2.22,209.79,120112,,,A*7A
$GPRMC,200121.000,A,3748.6250,N,12217.6911,W,1.90,210.44,120112,,,A*77
$GPRMC,200122.000,A,3748.6243,N,12217.6911,W,1.53,204.74,120112,,,A*7F
$GPRMC,200123.000,A,3748.6240,N,12217.6915,W,2.02,195.51,120112,,,A*72
$GPRMC,200124.000,A,3748.6234,N,12217.6922,W,2.32,211.28,120112,,,A*70
$GPRMC,200125.000,A,3748.6227,N,12217.6929,W,2.54,225.52,120112,,,A*72
$GPRMC,200126.000,A,3748.6221,N,12217.6938,W,2.44,237.73,120112,,,A*76
$GPRMC,200127.000,A,3748.6215,N,12217.6946,W,1.97,227.63,120112,,,A*74
$GPRMC,200128.000,A,3748.6209,N,12217.6950,W,1.85,191.17,120112,,,A*7F
$GPRMC,200129.000,A,3748.6196,N,12217.6957,W,2.30,199.71,120112,,,A*79
$GPRMC,200130.000,A,3748.6189,N,12217.6959,W,1.82,205.53,120112,,,A*7D
$GPRMC,200131.000,A,3748.6182,N,12217.6963,W,1.47,199.93,120112,,,A*7D
$GPRMC,200132.000,A,3748.6181,N,12217.6967,W,1.57,193.71,120112,,,A*7E
$GPRMC,200133.000,A,3748.6171,N,12217.6971,W,1.77,199.88,120112,,,A*79
$GPRMC,200134.000,A,3748.6166,N,12217.6975,W,2.07,197.89,120112,,,A*77
$GPRMC,200135.000,A,3748.6156,N,12217.6977,W,2.16,199.73,120112,,,A*7C
$GPRMC,200136.000,A,3748.6142,N,12217.6985,W,2.30,207.77,120112,,,A*73
$GPRMC,200137.000,A,3748.6131,N,12217.6991,W,1.65,223.10,120112,,,A*77
$GPRMC,200138.000,A,3748.6125,N,12217.7000,W,0.87,251.35,120112,,,A*72
$GPRMC,200139.000,A,3748.6120,N,12217.7006,W,0.71,190.88,120112,,,A*71
$GPRMC,200140.000,A,3748.6108,N,12217.7005,W,2.81,137.52,120112,,,A*71
$GPRMC,200141.000,A,3748.6098,N,12217.7002,W,2.79,130.31,120112,,,A*7A
$GPRMC,200142.000,A,3748.6092,N,12217.6997,W,3.06,117.86,120112,,,A*77
$GPRMC,200143.000,A,3748.6084,N,12217.6992,W,2.93,113.41,120112,,,A*76
$GPRMC,200144.000,A,3748.6078,N,12217.6982,W,2.81,112.57,120112,,,A*76
$GPRMC,200145.000,A,3748.6072,N,12217.6974,W,1.58,131.57,120112,,,A*72
$GPRMC,200146.000,A,3748.6066,N,12217.6966,W,3.71,133.98,120112,,,A*7F
$GPRMC,200147.000,A,3748.6060,N,12217.6956,W,2.86,107.17,120112,,,A*72
$GPRMC,200148.000,A,3748.6053,N,12217.6951,W,3.11,112.69,120112,,,A*78
$GPRMC,200149.000,A,3748.6048,N,12217.6941,W,3.08,106.57,120112,,,A*72
$GPRMC,200150.000,A,3748.6042,N,12217.6930,W,3.14,101.80,120112,,,A*76
$GPRMC,200151.000,A,3748.6040,N,12217.6919,W,3.29,89.42,120112,,,A*4F
$GPRMC,200152.000,A,3748.6041,N,12217.6907,W,3.17,86.66,120112,,,A*46
$GPRMC,200153.000,A,3748.6039,N,12217.6898,W,2.64,97.98,120112,,,A*4B
$GPRMC,200154.000,A,3748.6042,N,12217.6887,W,2.47,89.77,120112,,,A*41
$GPRMC,200155.000,A,3748.6045,N,12217.6881,W,2.25,65.94,120112,,,A*4A
$GPRMC,200156.000,A,3748.6044,N,12217.6873,W,1.68,73.79,120112,,,A*4B
$GPRMC,200157.000,A,3748.6042,N,12217.6867,W,1.85,82.91,120112,,,A*42
$GPRMC,200158.000,A,3748.6037,N,12217.6864,W,2.16,92.92,120112,,,A*47
$GPRMC,200159.000,A,3748.6031,N,12217.6863,W,1.73,107.76,120112,,,A*70
$GPRMC,200200.000,A,3748.6024,N,12217.6855,W,2.38,121.83,120112,,,A*7C
$GPRMC,200201.000,A,3748.6019,N,12217.6843,W,2.54,111.37,120112,,,A*72
$GPRMC,200202.000,A,3748.6015,N,12217.6831,W,2.80,99.16,120112,,,A*43
$GPRMC,200203.000,A,3748.6009,N,12217.6817,W,2.73,91.39,120112,,,A*42
$GPRMC,200204.000,A,3748.6004,N,12217.6807,W,2.55,104.71,120112,,,A*7C
$GPRMC,200205.000,A,3748.5999,N,12217.6796,W,2.43,108.57,120112,,,A*7B
$GPRMC,200206.000,A,3748.5995,N,12217.6784,W,2.68,120.44,120112,,,A*76
$GPRMC,200207.000,A,3748.5987,N,12217.6776,W,2.50,131.50,120112,,,A*77
$GPRMC,200208.000,A,3748.5980,N,12217.6766,W,2.74,129.43,120112,,,A*73
$GPRMC,200209.000,A,3748.5972,N,12217.6753,W,3.12,105.85,120112,,,A*7C
$GPRMC,200210.000,A,3748.5966,N,12217.6738,W,2.83,108.56,120112,,,A*76
$GPRMC,200211.000,A,3748.5966,N,12217.6726,W,2.59,114.77,120112,,,A*71
$GPRMC,200212.000,A,3748.5963,N,12217.6713,W,3.10,115.07,120112,,,A*7B
$GPRMC,200213.000,A,3748.5961,N,12217.6701,W,2.74,117.82,120112,,,A*77
$GPRMC,200214.000,A,3748.5960,N,12217.6691,W,2.48,119.13,120112,,,A*70
$GPRMC,200215.000,A,3748.5960,N,12217.6684,W,2.20,121.14,120112,,,A*77
$GPRMC,200216.000,A,3748.5959,N,12217.6675,W,2.30,119.65,120112,,,A*7C
$GPRMC,200217.000,A,3748.5957,N,12217.6665,W,2.88,112.98,120112,,,A*78
$GPRMC,200218.000,A,3748.5954,N,12217.6657,W,2.52,109.15,120112,,,A*7D
$GPRMC,200219.000,A,3748.5954,N,12217.6646,W,2.34,99.00,120112,,,A*40
$GPRMC,200220.000,A,3748.5954,N,12217.6633,W,2.36,98.08,120112,,,A*43
$GPRMC,200221.000,A,3748.5955,N,12217.6623,W,2.50,91.67,120112,,,A*42
$GPRMC,200222.000,A,3748.5954,N,12217.6614,W,2.36,96.07,120112,,,A*45
$GPRMC,200223.000,A,3748.5951,N,12217.6603,W,2.70,95.75,120112,,,A*43
$GPRMC,200224.000,A,3748.5951,N,12217.6590,W,2.23,94.49,120112,,,A*45
$GPRMC,200225.000,A,3748.5949,N,12217.6582,W,1.80,100.30,120112,,,A*76
$GPRMC,200226.000,A,3748.5947,N,12217.6573,W,2.37,110.63,120112,,,A*7D
$GPRMC,200227.000,A,3748.5943,N,12217.6565,W,1.97,107.72,120112,,,A*70
$GPRMC,200228.000,A,3748.5939,N,12217.6553,W,2.49,95.89,120112,,,A*49
$GPRMC,200229.000,A,3748.5939,N,12217.6541,W,2.02,105.06,120112,,,A*7B
$GPRMC,200230.000,A,3748.5936,N,12217.6533,W,2.04,102.02,120112,,,A*7C
$GPRMC,200231.000,A,3748.5935,N,12217.6525,W,2.28,105.10,120112,,,A*73
$GPRMC,200232.000,A,3748.5930,N,12217.6516,W,2.52,105.30,120112,,,A*7A
$GPRMC,200233.000,A,3748.5931,N,12217.6504,W,2.61,98.99,120112,,,A*4F
$GPRMC,200234.000,A,3748.5931,N,12217.6491,W,2.60,104.73,120112,,,A*74
$GPRMC,200235.000,A,3748.5923,N,12217.6472,W,2.98,108.11,120112,,,A*74
