$ADVER,3080,2.3
$GPRMC,222633.624,A,3748.7977,N,12217.8641,W,0.12,238.15,010411,,,A*79
$GPGGA,222634.624,3748.7977,N,12217.8641,W,1,05,5.0,0.8,M,-25.1,M,,0000*64
$GPGSA,A,3,23,20,32,16,13,,,,,,,,5.6,5.0,2.6*37
$GPRMC,222634.624,A,3748.7977,N,12217.8641,W,0.14,184.97,010411,,,A*76
$GPVTG,184.97,T,,M,0.14,N,0.3,K,A*08
$GPGGA,222635.000,3748.7977,N,12217.8641,W,1,05,5.0,0.9,M,-25.1,M,,0000*64
$GPGSA,A,3,23,20,32,16,13,,,,,,,,5.6,5.0,2.6*37
$GPRMC,222635.000,A,3748.7977,N,12217.8641,W,0.36,213.41,010411,,,A*71
$GPVTG,213.41,T,,M,0.36,N,0.7,K,A*0A
$GPGGA,222636.000,3748.7976,N,12217.8642,W,1,05,5.0,0.9,M,-25.1,M,,0000*65
$GPGSA,A,3,23,20,32,16,13,,,,,,,,5.6,5.0,2.6*37
$GPRMC,222636.000,A,3748.7976,N,12217.8642,W,0.24,196.07,010411,,,A*7F
$GPVTG,196.07,T,,M,0.24,N,0.4,K,A*06
$GPGGA,222637.000,3748.7976,N,12217.8643,W,1,05,5.0,1.0,M,-25.1,M,,0000*6D
$GPGSA,A,3,23,20,32,16,13,,,,,,,,5.6,5.0,2.6*37
$GPGSV,3,1,12,20,79,275,37,32,69,135,38,23,55,310,41,16,35,125,27*76
$GPGSV,3,2,12,13,24,283,39,30,40,099,35,31,28,044,,24,24,207,35*76
$GPGSV,3,3,12,04,09,317,34,11,09,204,27,07,01,225,,48,00,000,40*74
$GPRMC,222637.000,A,3748.7976,N,12217.8643,W,0.21,188.83,010411,,,A*79
$GPVTG,188.83,T,,M,0.21,N,0.4,K,A*00
$GPGGA,222638.000,3748.7975,N,12217.8643,W,1,05,5.0,1.1,M,-25.1,M,,0000*60
$GPGSA,A,3,23,20,32,16,13,,,,,,,,5.6,5.0,2.6*37
$GPRMC,222638.000,A,3748.7975,N,12217.8643,W,0.19,197.16,010411,,,A*7C
$GPVTG,197.16,T,,M,0.19,N,0.3,K,A*0E
$GPGGA,222639.000,3748.7975,N,12217.8643,W,1,05,5.0,1.1,M,-25.1,M,,0000*61
$GPGSA,A,3,23,20,32,16,13,,,,,,,,5.6,5.0,2.6*37
$GPRMC,222639.000,A,3748.7975,N,12217.8643,W,0.17,189.90,010411,,,A*72
$GPVTG,189.90,T,,M,0.17,N,0.3,K,A*01
$GPGGA,222640.000,3748.7975,N,12217.8643,W,1,05,4.9,1.1,M,-25.1,M,,0000*67
$GPGSA,A,3,23,20,32,16,13,,,,,,,,5.6,4.9,2.6*3F
$GPRMC,222640.000,A,3748.7975,N,12217.8643,W,0.22,202.04,010411,,,A*77
$GPVTG,202.04,T,,M,0.22,N,0.4,K,A*0D
$GPGGA,222641.000,3748.7974,N,12217.8644,W,1,05,4.9,1.2,M,-25.1,M,,0000*63
$GPGSA,A,3,23,20,32,16,13,,,,,,,,5.6,4.9,2.6*3F
$GPRMC,222641.000,A,3748.7974,N,12217.8644,W,0.17,195.97,010411,,,A*71
$GPVTG,195.97,T,,M,0.17,N,0.3,K,A*0B
$GPGGA,222642.000,3748.7974,N,12217.8644,W,1,05,4.9,1.2,M,-25.1,M,,0000*60
$GPGSA,A,3,23,20,32,16,13,,,,,,,,5.6,4.9,2.6*3F
$GPGSV,3,1,12,20,79,275,37,32,69,135,38,23,55,310,41,16,35,125,27*76
$GPGSV,3,2,12,13,24,283,39,30,40,099,34,31,28,044,25,24,24,207,35*70
$GPGSV,3,3,12,04,09,317,34,11,09,204,27,07,01,225,,48,00,000,39*7A
$GPRMC,222642.000,A,3748.7974,N,12217.8644,W,0.22,197.68,010411,,,A*76
$GPVTG,197.68,T,,M,0.22,N,0.4,K,A*08
$GPGGA,222643.000,3748.7973,N,12217.8644,W,1,05,4.9,1.2,M,-25.1,M,,0000*66
$GPGSA,A,3,23,20,32,16,13,,,,,,,,5.6,4.9,2.6*3F
$GPRMC,222643.000,A,3748.7973,N,12217.8644,W,0.26,193.76,010411,,,A*7F
$GPVTG,193.76,T,,M,0.26,N,0.5,K,A*06
$GPGGA,222644.000,3748.7973,N,12217.8644,W,1,05,4.9,1.2,M,-25.1,M,,0000*61
$GPGSA,A,3,23,20,32,16,13,,,,,,,,5.6,4.9,2.6*3F
$GPRMC,222644.000,A,3748.7973,N,12217.8644,W,0.34,170.05,010411,,,A*72
$GPVTG,170.05,T,,M,0.34,N,0.6,K,A*0F
$GPGGA,222645.000,3748.7972,N,12217.8644,W,1,05,4.9,1.2,M,-25.1,M,,0000*61
$GPGSA,A,3,23,20,32,16,13,,,,,,,,5.6,4.9,2.6*3F
$GPRMC,222645.000,A,3748.7972,N,12217.8644,W,0.26,186.79,010411,,,A*73
$GPVTG,186.79,T,,M,0.26,N,0.5,K,A*0D
$GPGGA,222646.000,3748.7972,N,12217.8643,W,1,05,4.9,1.2,M,-25.1,M,,0000*65
$GPGSA,A,3,23,20,32,16,13,,,,,,,,5.6,4.9,2.6*3F
$GPRMC,222646.000,A,3748.7972,N,12217.8643,W,0.22,146.96,010411,,,A*7E
$GPVTG,146.96,T,,M,0.22,N,0.4,K,A*05
$GPGGA,222647.000,3748.7965,N,12217.8653,W,1,05,4.9,1.8,M,-25.1,M,,0000*69
$GPGSA,A,3,23,20,32,16,13,,,,,,,,5.6,4.9,2.6*3F
$GPGSV,3,1,12,20,79,275,23,32,69,136,26,23,55,310,25,30,40,099,27*7D
$GPGSV,3,2,12,16,35,125,24,31,28,044,27,13,24,283,23,24,24,207,35*78
$GPGSV,3,3,12,04,09,317,20,11,09,204,19,07,01,225,,48,45,194,28*7F
$GPVTG,219.25,T,,M,0.27,N,0.5,K,A*00
$GPGGA,222648.000,3748.7955,N,12217.8663,W,1,04,7.1,0.2,M,-25.1,M,,0000*67
$GPGSA,A,3,23,20,32,13,,,,,,,,,9.5,7.1,6.2*3C
$GPRMC,222648.000,A,3748.7955,N,12217.8663,W,0.31,176.00,010411,,,A*79
$GPVTG,176.00,T,,M,0.31,N,0.6,K,A*09
$GPGGA,222649.000,3748.7956,N,12217.8658,W,1,05,4.9,-0.2,M,-25.1,M,,0000*4A
$GPGSA,A,3,23,20,32,16,13,,,,,,,,5.6,4.9,2.6*3F
$GPRMC,222649.000,A,3748.7956,N,12217.8658,W,1.06,157.52,010411,,,A*72
$GPVTG,157.52,T,,M,1.06,N,2.0,K,A*0C
$GPGGA,222650.000,3748.7950,N,12217.8659,W,1,05,4.9,0.4,M,-25.1,M,,0000*6E
$GPGSA,A,3,23,20,32,16,13,,,,,,,,5.6,4.9,2.6*3F
$GPRMC,222650.000,A,3748.7950,N,12217.8659,W,1.33,193.15,010411,,,A*70
$GPVTG,193.15,T,,M,1.33,N,2.5,K,A*04
$GPGGA,222651.000,3748.7967,N,12217.8646,W,1,07,1.4,0.2,M,-25.1,M,,0000*69
$GPGSA,A,3,23,20,32,16,13,24,04,,,,,,2.0,1.4,1.5*34
$GPRMC,222651.000,A,3748.7967,N,12217.8646,W,0.58,207.73,010411,,,A*79
$GPVTG,207.73,T,,M,0.58,N,1.1,K,A*01
$GPGGA,222652.000,3748.7982,N,12217.8636,W,1,07,1.4,-0.7,M,-25.1,M,,0000*4E
$GPGSA,A,3,23,20,32,16,13,24,04,,,,,,2.0,1.4,1.5*34
$GPGSV,3,1,12,20,79,275,36,32,69,136,38,23,55,310,35,30,40,098,31*71
$GPGSV,3,2,12,16,35,125,31,31,28,044,36,13,25,283,35,24,24,207,35*7A
$GPGSV,3,3,12,04,09,317,31,11,09,204,25,07,02,225,,48,45,194,33*79
$GPRMC,222652.000,A,3748.7982,N,12217.8636,W,1.11,255.16,010411,,,A*7E
$GPVTG,255.16,T,,M,1.11,N,2.1,K,A*0A
$GPGGA,222653.000,3748.7987,N,12217.8632,W,1,06,1.8,-0.9,M,-25.1,M,,0000*4D
$GPGSA,A,3,23,20,32,16,13,24,,,,,,,3.0,1.8,2.4*3F
$GPRMC,222653.000,A,3748.7987,N,12217.8632,W,0.84,243.09,010411,,,A*7A
$GPVTG,243.09,T,,M,0.84,N,1.6,K,A*0A
$GPGGA,222654.000,3748.7993,N,12217.8629,W,1,07,1.4,-0.6,M,-25.1,M,,0000*47
$GPGSA,A,3,23,20,32,16,13,24,04,,,,,,2.0,1.4,1.5*34
$GPRMC,222654.000,A,3748.7993,N,12217.8629,W,0.12,332.79,010411,,,A*7D
$GPVTG,332.79,T,,M,0.12,N,0.2,K,A*00
$GPGGA,222655.000,3748.7990,N,12217.8626,W,1,07,1.4,-1.7,M,-25.1,M,,0000*4A
$GPGSA,A,3,23,20,32,16,13,24,04,,,,,,2.0,1.4,1.5*34
$GPRMC,222655.000,A,3748.7990,N,12217.8626,W,0.72,189.61,010411,,,A*7D
$GPVTG,189.61,T,,M,0.72,N,1.3,K,A*0D
$GPGGA,222656.000,3748.7990,N,12217.8627,W,1,07,1.4,-2.2,M,-25.1,M,,0000*4E
$GPGSA,A,3,23,20,32,16,13,24,04,,,,,,2.0,1.4,1.5*34
$GPRMC,222656.000,A,3748.7990,N,12217.8627,W,0.35,194.70,010411,,,A*70
$GPVTG,194.70,T,,M,0.35,N,0.6,K,A*06
$GPGGA,222657.000,3748.7991,N,12217.8627,W,1,07,1.4,-2.8,M,-25.1,M,,0000*44
$GPGSA,A,3,23,20,32,16,13,24,04,,,,,,2.0,1.4,1.5*34
$GPGSV,3,1,11,20,79,275,20,32,69,136,29,23,55,310,26,30,40,098,33*75
$GPGSV,3,2,11,16,35,125,25,31,28,044,40,13,25,283,28,24,24,207,25*70
$GPGSV,3,3,11,04,09,317,23,11,09,204,12,07,02,225,*4C
$GPRMC,222657.000,A,3748.7991,N,12217.8627,W,0.06,90.66,010411,,,A*42
$GPVTG,90.66,T,,M,0.06,N,0.1,K,A*33
$GPGGA,222658.000,3748.7998,N,12217.8623,W,1,06,1.4,-3.5,M,-25.1,M,,0000*4B
$GPGSA,A,3,20,32,16,13,24,04,,,,,,,2.2,1.4,1.7*35
$GPRMC,222658.000,A,3748.7998,N,12217.8623,W,0.54,23.46,010411,,,A*4D
$GPVTG,23.46,T,,M,0.54,N,1.0,K,A*3E
$GPGGA,222659.000,3748.8003,N,12217.8621,W,1,06,1.4,-3.7,M,-25.1,M,,0000*4E
$GPGSA,A,3,20,32,16,13,24,04,,,,,,,2.2,1.4,1.7*35
$GPRMC,222659.000,A,3748.8003,N,12217.8621,W,0.30,9.40,010411,,,A*76
$GPVTG,9.40,T,,M,0.30,N,0.5,K,A*06
$GPGGA,222700.000,3748.8006,N,12217.8621,W,1,07,1.4,-3.5,M,-25.1,M,,0000*45
$GPGSA,A,3,23,20,32,16,13,24,04,,,,,,2.0,1.4,1.5*34
$GPRMC,222700.000,A,3748.8006,N,12217.8621,W,0.08,111.74,010411,,,A*7A
$GPVTG,111.74,T,,M,0.08,N,0.1,K,A*06
$GPGGA,222701.000,3748.8009,N,12217.8621,W,1,07,1.4,-3.0,M,-25.1,M,,0000*4E
$GPGSA,A,3,23,20,32,16,13,24,04,,,,,,2.0,1.4,1.5*34
$GPRMC,222701.000,A,3748.8009,N,12217.8621,W,0.10,152.29,010411,,,A*72
$GPVTG,152.29,T,,M,0.10,N,0.2,K,A*03
$GPGGA,222702.000,3748.8013,N,12217.8619,W,1,07,1.4,-2.6,M,-25.1,M,,0000*4A
$GPGSA,A,3,23,20,32,16,13,24,04,,,,,,2.0,1.4,1.5*34
$GPGSV,3,1,11,20,79,275,23,32,69,136,28,23,55,310,22,30,40,098,33*73
$GPGSV,3,2,11,16,35,125,26,31,28,044,40,13,25,283,28,24,24,207,25*73
$GPGSV,3,3,11,04,09,317,23,11,09,204,,07,02,225,*4F
$GPVTG,354.76,T,,M,0.22,N,0.4,K,A*0A
$GPGGA,222703.000,3748.8023,N,12217.8613,W,1,07,1.4,-2.2,M,-25.1,M,,0000*46
$GPGSA,A,3,23,20,32,16,13,24,04,,,,,,2.0,1.4,1.5*34
$GPRMC,222703.000,A,3748.8023,N,12217.8613,W,0.46,23.20,010411,,,A*44
$GPVTG,23.20,T,,M,0.46,N,0.9,K,A*35
$GPGGA,222704.000,3748.8023,N,12217.8605,W,1,07,1.4,-2.4,M,-25.1,M,,0000*40
$GPGSA,A,3,23,20,32,16,13,24,04,,,,,,2.0,1.4,1.5*34
$GPRMC,222704.000,A,3748.8023,N,12217.8605,W,0.60,82.16,010411,,,A*4E
$GPVTG,82.16,T,,M,0.60,N,1.1,K,A*36
$GPGGA,222705.000,3748.8027,N,12217.8601,W,1,07,1.4,-1.9,M,-25.1,M,,0000*4F
$GPGSA,A,3,23,20,32,16,13,24,04,,,,,,2.0,1.4,1.5*34
$GPRMC,222705.000,A,3748.8027,N,12217.8601,W,0.19,192.60,010411,,,A*70
$GPVTG,192.60,T,,M,0.19,N,0.4,K,A*0D
$GPGGA,222706.000,3748.8029,N,12217.8596,W,1,07,1.4,-2.2,M,-25.1,M,,0000*47
$GPGSA,A,3,23,20,32,16,13,24,04,,,,,,2.0,1.4,1.5*34
$GPRMC,222706.000,A,3748.8029,N,12217.8596,W,0.43,233.27,010411,,,A*74
$GPVTG,233.27,T,,M,0.43,N,0.8,K,A*05
$GPGGA,222707.000,3748.8031,N,12217.8591,W,1,07,1.4,-2.4,M,-25.1,M,,0000*4E
$GPGSA,A,3,23,20,32,16,13,24,04,,,,,,2.0,1.4,1.5*34
$GPGSV,3,1,11,20,79,275,23,32,69,136,29,23,55,310,25,30,40,098,34*72
$GPGSV,3,2,11,16,35,125,27,31,28,044,36,13,25,283,24,24,24,207,30*7B
$GPGSV,3,3,11,04,09,317,21,11,09,204,,07,02,225,*4D
$GPRMC,222707.000,A,3748.8031,N,12217.8591,W,0.17,147.00,010411,,,A*7F
$GPVTG,147.00,T,,M,0.17,N,0.3,K,A*0A
$GPGGA,222708.000,3748.8033,N,12217.8584,W,1,06,1.4,-4.0,M,-25.1,M,,0000*44
$GPGSA,A,3,23,32,16,13,24,04,,,,,,,2.3,1.4,1.8*38
$GPRMC,222708.000,A,3748.8033,N,12217.8584,W,0.42,100.33,010411,,,A*75
$GPVTG,100.33,T,,M,0.42,N,0.8,K,A*02
$GPGGA,222709.000,3748.8030,N,12217.8580,W,1,06,1.4,-5.3,M,-25.1,M,,0000*40
$GPGSA,A,3,23,32,16,13,24,04,,,,,,,2.3,1.4,1.8*38
$GPRMC,222709.000,A,3748.8030,N,12217.8580,W,0.51,94.05,010411,,,A*48
$GPVTG,94.05,T,,M,0.51,N,0.9,K,A*38
$GPGGA,222710.000,3748.8035,N,12217.8570,W,1,07,1.4,-6.8,M,-25.1,M,,0000*4B
$GPGSA,A,3,23,20,32,16,13,24,04,,,,,,2.0,1.4,1.5*34
$GPRMC,222710.000,A,3748.8035,N,12217.8570,W,1.14,77.64,010411,,,A*40
$GPVTG,77.64,T,,M,1.14,N,2.1,K,A*38
$GPGGA,222711.000,3748.8036,N,12217.8565,W,1,07,1.4,-8.5,M,-25.1,M,,0000*4E
$GPGSA,A,3,23,20,32,16,13,24,04,,,,,,2.0,1.4,1.5*34
$GPRMC,222711.000,A,3748.8036,N,12217.8565,W,0.80,109.20,010411,,,A*72
$GPVTG,109.20,T,,M,0.80,N,1.5,K,A*0B
$GPGGA,222712.000,3748.8041,N,12217.8561,W,1,07,1.4,-9.0,M,-25.1,M,,0000*4D
$GPGSA,A,3,23,20,32,16,13,24,04,,,,,,2.0,1.4,1.5*34
$GPGSV,3,1,11,20,79,275,24,32,69,136,21,23,55,310,25,30,40,098,34*7D
$GPGSV,3,2,11,16,35,125,20,31,28,044,36,13,25,283,24,24,24,207,23*7E
$GPGSV,3,3,11,04,09,317,22,11,09,204,,07,02,225,*4E
$GPRMC,222712.000,A,3748.8041,N,12217.8561,W,0.84,67.38,010411,,,A*41
$GPVTG,67.38,T,,M,0.84,N,1.6,K,A*3C
$GPGGA,222713.000,3748.8044,N,12217.8563,W,1,07,1.4,-9.1,M,-25.1,M,,0000*4A
$GPGSA,A,3,23,20,32,16,13,24,04,,,,,,2.0,1.4,1.5*34
$GPRMC,222713.000,A,3748.8044,N,12217.8563,W,0.14,69.01,010411,,,A*4A
$GPVTG,69.01,T,,M,0.14,N,0.3,K,A*35
$GPGGA,222714.000,3748.8045,N,12217.8564,W,1,07,1.4,-9.1,M,-25.1,M,,0000*4B
$GPGSA,A,3,23,20,32,16,13,24,04,,,,,,2.0,1.4,1.5*34
$GPRMC,222714.000,A,3748.8045,N,12217.8564,W,0.37,82.10,010411,,,A*4F
$GPVTG,82.10,T,,M,0.37,N,0.7,K,A*35
$GPGGA,222715.000,3748.8043,N,12217.8557,W,1,07,1.4,-10.6,M,-25.1,M,,0000*73
$GPGSA,A,3,23,20,32,16,13,24,04,,,,,,2.0,1.4,1.5*34
$GPRMC,222715.000,A,3748.8043,N,12217.8557,W,0.24,168.38,010411,,,A*75
$GPVTG,168.38,T,,M,0.24,N,0.5,K,A*0A
$GPGGA,222716.000,3748.8036,N,12217.8565,W,1,07,1.4,-11.2,M,-25.1,M,,0000*76
$GPGSA,A,3,23,20,32,16,13,24,04,,,,,,2.0,1.4,1.5*34
$GPRMC,222716.000,A,3748.8036,N,12217.8565,W,0.85,217.31,010411,,,A*7C
$GPVTG,217.31,T,,M,0.85,N,1.6,K,A*01
$GPGGA,222717.000,3748.8032,N,12217.8569,W,1,07,1.4,-11.4,M,-25.1,M,,0000*79
$GPGSA,A,3,23,20,32,16,13,24,04,,,,,,2.1,1.4,1.5*35
$GPGSV,3,1,12,20,79,274,24,32,69,136,27,23,55,310,27,30,40,098,22*7C
$GPGSV,3,2,12,16,35,125,21,31,27,044,23,13,25,284,35,24,24,207,30*72
$GPGSV,3,3,12,04,10,317,27,11,09,204,,07,02,225,,48,45,194,31*73
$GPVTG,182.71,T,,M,0.63,N,1.2,K,A*06
$GPGGA,222718.000,3748.8030,N,12217.8570,W,1,07,1.4,-10.9,M,-25.1,M,,0000*70
$GPGSA,A,3,23,20,32,16,13,24,04,,,,,,2.1,1.4,1.5*35
$GPRMC,222718.000,A,3748.8030,N,12217.8570,W,0.29,9.91,010411,,,A*71
$GPVTG,9.91,T,,M,0.29,N,0.5,K,A*02
$GPGGA,222719.000,3748.8029,N,12217.8571,W,1,07,1.4,-11.5,M,-25.1,M,,0000*75
$GPGSA,A,3,23,20,32,16,13,24,04,,,,,,2.1,1.4,1.5*35
$GPRMC,222719.000,A,3748.8029,N,12217.8571,W,0.17,111.45,010411,,,A*75
$GPVTG,111.45,T,,M,0.17,N,0.3,K,A*08
$GPGGA,222720.000,3748.8027,N,12217.8571,W,1,07,1.4,-13.0,M,-25.1,M,,0000*76
$GPGSA,A,3,23,20,32,16,13,24,04,,,,,,2.1,1.4,1.5*35
$GPRMC,222720.000,A,3748.8027,N,12217.8571,W,0.18,104.90,010411,,,A*72
$GPVTG,104.90,T,,M,0.18,N,0.3,K,A*0B
$GPGGA,222721.000,3748.8024,N,12217.8572,W,1,05,2.2,-13.1,M,-25.1,M,,0000*71
$GPGSA,A,3,23,32,13,24,04,,,,,,,,3.3,2.2,2.4*34
$GPRMC,222721.000,A,3748.8024,N,12217.8572,W,0.24,134.75,010411,,,A*74
$GPVTG,134.75,T,,M,0.24,N,0.4,K,A*0B
$GPGGA,222722.000,3748.8022,N,12217.8575,W,1,06,2.1,-12.5,M,-25.1,M,,0000*76
$GPGSA,A,3,23,20,32,13,24,04,,,,,,,3.0,2.1,2.1*33
$GPGSV,3,1,11,20,79,274,15,32,69,136,29,23,55,310,29,30,40,098,19*75
$GPGSV,3,2,11,16,35,125,18,31,27,044,21,13,25,284,36,24,24,207,32*78
$GPGSV,3,3,11,04,10,317,33,11,09,204,,07,02,225,*46
$GPRMC,222722.000,A,3748.8022,N,12217.8575,W,0.12,201.19,010411,,,A*7C
$GPVTG,201.19,T,,M,0.12,N,0.2,K,A*07
$GPGGA,222723.000,3748.8019,N,12217.8579,W,1,07,1.4,-12.0,M,-25.1,M,,0000*71
$GPGSA,A,3,23,20,32,16,13,24,04,,,,,,2.1,1.4,1.5*35
$GPRMC,222723.000,A,3748.8019,N,12217.8579,W,0.22,100.16,010411,,,A*77
$GPVTG,100.16,T,,M,0.22,N,0.4,K,A*0F
$GPGGA,222724.000,3748.8018,N,12217.8578,W,1,07,1.4,-12.6,M,-25.1,M,,0000*70
$GPGSA,A,3,23,20,32,16,13,24,04,,,,,,2.1,1.4,1.5*35
$GPRMC,222724.000,A,3748.8018,N,12217.8578,W,0.26,122.62,010411,,,A*77
$GPVTG,122.62,T,,M,0.26,N,0.5,K,A*09
$GPGGA,222725.000,3748.8016,N,12217.8584,W,1,07,1.4,-11.3,M,-25.1,M,,0000*7A
$GPGSA,A,3,23,20,32,16,13,24,04,,,,,,2.1,1.4,1.5*35
$GPRMC,222725.000,A,3748.8016,N,12217.8584,W,1.17,74.43,010411,,,A*49
$GPVTG,74.43,T,,M,1.17,N,2.2,K,A*3E
$GPGGA,222726.000,3748.8013,N,12217.8592,W,1,07,1.4,-10.6,M,-25.1,M,,0000*7F
$GPGSA,A,3,23,20,32,16,13,24,04,,,,,,2.1,1.4,1.5*35
$GPRMC,222726.000,A,3748.8013,N,12217.8592,W,0.47,187.71,010411,,,A*70
$GPVTG,187.71,T,,M,0.47,N,0.9,K,A*0F
$GPGGA,222727.000,3748.8011,N,12217.8595,W,1,07,1.4,-10.2,M,-25.1,M,,0000*7F
$GPGSA,A,3,23,20,32,16,13,24,04,,,,,,2.1,1.4,1.5*35
$GPGSV,3,1,12,20,79,274,24,32,69,136,22,23,55,310,29,30,40,098,37*73
$GPGSV,3,2,12,16,35,125,26,31,27,044,37,13,25,284,19,24,24,207,30*7E
$GPGSV,3,3,12,04,10,317,24,11,09,204,22,07,02,225,,48,45,194,24*74
$GPRMC,222727.000,A,3748.8011,N,12217.8595,W,0.48,218.03,010411,,,A*7B
$GPVTG,218.03,T,,M,0.48,N,0.9,K,A*00
$GPGGA,222728.000,3748.8013,N,12217.8594,W,1,07,1.4,-10.0,M,-25.1,M,,0000*71
$GPGSA,A,3,23,20,32,16,13,24,04,,,,,,2.1,1.4,1.5*35
$GPRMC,222728.000,A,3748.8013,N,12217.8594,W,0.03,249.57,010411,,,A*7D
$GPVTG,249.57,T,,M,0.03,N,0.0,K,A*03
$GPGGA,222729.000,3748.8015,N,12217.8590,W,1,07,1.4,-10.4,M,-25.1,M,,0000*76
$GPGSA,A,3,23,20,32,16,13,24,04,,,,,,2.1,1.4,1.5*35
$GPRMC,222729.000,A,3748.8015,N,12217.8590,W,0.21,121.33,010411,,,A*71
$GPVTG,121.33,T,,M,0.21,N,0.4,K,A*08
$GPGGA,222730.000,3748.8015,N,12217.8592,W,1,07,1.4,-10.3,M,-25.1,M,,0000*7B
$GPGSA,A,3,23,20,32,16,13,24,04,,,,,,2.1,1.4,1.5*35
$GPRMC,222730.000,A,3748.8015,N,12217.8592,W,0.52,336.87,010411,,,A*74
$GPVTG,336.87,T,,M,0.52,N,1.0,K,A*02
$GPGGA,222731.000,3748.8016,N,12217.8595,W,1,07,1.4,-10.2,M,-25.1,M,,0000*7F
$GPGSA,A,3,23,20,32,16,13,24,04,,,,,,2.1,1.4,1.5*35
$GPRMC,222731.000,A,3748.8016,N,12217.8595,W,0.19,11.90,010411,,,A*4E
$GPVTG,11.90,T,,M,0.19,N,0.4,K,A*38
$GPGGA,222732.000,3748.8016,N,12217.8597,W,1,07,1.4,-10.7,M,-25.1,M,,0000*7B
$GPGSA,A,3,23,20,32,16,13,24,04,,,,,,2.1,1.4,1.5*35
$GPGSV,3,1,12,20,79,274,30,32,69,136,27,23,55,310,28,30,40,098,25*71
$GPGSV,3,2,12,16,35,125,25,31,27,044,26,13,25,284,36,24,24,207,38*78
$GPGSV,3,3,12,04,10,317,24,11,09,204,14,07,02,225,,48,45,194,33*77
$GPRMC,222732.000,A,3748.8016,N,12217.8597,W,0.04,76.09,010411,,,A*42
$GPVTG,76.09,T,,M,0.04,N,0.1,K,A*30
$GPGGA,222733.000,3748.8015,N,12217.8598,W,1,07,1.4,-10.1,M,-25.1,M,,0000*70
$GPGSA,A,3,23,20,32,16,13,24,04,,,,,,2.1,1.4,1.5*35
$GPRMC,222733.000,A,3748.8015,N,12217.8598,W,0.24,89.98,010411,,,A*45
$GPVTG,89.98,T,,M,0.24,N,0.4,K,A*3F
$GPGGA,222734.000,3748.8013,N,12217.8600,W,1,07,1.4,-10.2,M,-25.1,M,,0000*70
$GPGSA,A,3,23,20,32,16,13,24,04,,,,,,2.1,1.4,1.5*35
$GPRMC,222734.000,A,3748.8013,N,12217.8600,W,0.19,197.15,010411,,,A*73
$GPVTG,197.15,T,,M,0.19,N,0.3,K,A*0D
$GPGGA,222735.000,3748.8011,N,12217.8603,W,1,07,1.4,-10.0,M,-25.1,M,,0000*72
$GPGSA,A,3,23,20,32,16,13,24,04,,,,,,2.1,1.4,1.5*35
$GPRMC,222735.000,A,3748.8011,N,12217.8603,W,0.41,250.57,010411,,,A*70
$GPVTG,250.57,T,,M,0.41,N,0.8,K,A*05
$GPGGA,222736.000,3748.8010,N,12217.8604,W,1,07,1.4,-9.9,M,-25.1,M,,0000*46
$GPGSA,A,3,23,20,32,16,13,24,04,,,,,,2.1,1.4,1.5*35
$GPRMC,222736.000,A,3748.8010,N,12217.8604,W,0.62,261.84,010411,,,A*78
$GPVTG,261.84,T,,M,0.62,N,1.1,K,A*00
$GPGGA,222737.000,3748.8011,N,12217.8603,W,1,07,1.4,-9.5,M,-25.1,M,,0000*4D
$GPGSA,A,3,23,20,32,16,13,24,04,,,,,,2.1,1.4,1.5*35
$GPGSV,3,1,12,20,79,274,28,32,69,136,27,23,55,310,29,30,40,098,20*7C
$GPGSV,3,2,12,16,35,125,22,31,27,044,24,13,25,284,35,24,24,207,37*71
$GPGSV,3,3,12,04,10,317,33,11,09,204,23,07,02,225,,48,45,194,29*7E
$GPRMC,222737.000,A,3748.8011,N,12217.8603,W,0.07,145.11,010411,,,A*75
$GPGGA,222738.000,3748.8013,N,12217.8601,W,1,07,1.4,-9.7,M,-25.1,M,,0000*40
$GPGSA,A,3,23,20,32,16,13,24,04,,,,,,2.1,1.4,1.5*35
$GPRMC,222738.000,A,3748.8013,N,12217.8601,W,0.21,38.11,010411,,,A*45
$GPVTG,38.11,T,,M,0.21,N,0.4,K,A*31
$GPGGA,222739.000,3748.8014,N,12217.8603,W,1,07,1.4,-9.6,M,-25.1,M,,0000*45
$GPGSA,A,3,23,20,32,16,13,24,04,,,,,,2.1,1.4,1.5*35
$GPRMC,222739.000,A,3748.8014,N,12217.8603,W,0.34,85.98,010411,,,A*42
$GPVTG,85.98,T,,M,0.34,N,0.6,K,A*30
$GPGGA,222740.000,3748.8015,N,12217.8600,W,1,07,1.4,-9.6,M,-25.1,M,,0000*49
$GPGSA,A,3,23,20,32,16,13,24,04,,,,,,2.1,1.4,1.5*35
$GPRMC,222740.000,A,3748.8015,N,12217.8600,W,0.69,88.31,010411,,,A*48
$GPVTG,88.31,T,,M,0.69,N,1.3,K,A*32
$GPGGA,222741.000,3748.8015,N,12217.8600,W,1,07,1.4,-9.5,M,-25.1,M,,0000*4B
$GPGSA,A,3,23,20,32,16,13,24,04,,,,,,2.1,1.4,1.5*35
$GPRMC,222741.000,A,3748.8015,N,12217.8600,W,0.96,87.26,010411,,,A*40
$GPVTG,87.26,T,,M,0.96,N,1.8,K,A*30
$GPGGA,222742.000,3748.8015,N,12217.8596,W,1,07,1.4,-9.2,M,-25.1,M,,0000*43
$GPGSA,A,3,23,20,32,16,13,24,04,,,,,,2.1,1.4,1.5*35
$GPGSV,3,1,12,20,79,274,22,32,69,136,19,23,55,310,31,30,40,098,19*78
$GPGSV,3,2,12,16,35,125,21,31,27,044,25,13,25,284,35,24,24,207,35*71
$GPGSV,3,3,12,04,10,317,33,11,09,204,22,07,02,225,,48,45,194,28*7E
$GPRMC,222742.000,A,3748.8015,N,12217.8596,W,1.31,87.10,010411,,,A*46
$GPVTG,87.10,T,,M,1.31,N,2.4,K,A*36
$GPGGA,222743.000,3748.8014,N,12217.8594,W,1,07,1.4,-8.4,M,-25.1,M,,0000*46
$GPGSA,A,3,23,20,32,16,13,24,04,,,,,,2.1,1.4,1.5*35
$GPRMC,222743.000,A,3748.8014,N,12217.8594,W,1.11,83.09,010411,,,A*4A
$GPVTG,83.09,T,,M,1.11,N,2.1,K,A*3D
$GPGGA,222744.000,3748.8014,N,12217.8595,W,1,07,1.4,-8.6,M,-25.1,M,,0000*42
$GPGSA,A,3,23,20,32,16,13,24,04,,,,,,2.1,1.4,1.5*35
$GPRMC,222744.000,A,3748.8014,N,12217.8595,W,0.47,87.78,010411,,,A*4C
$GPVTG,87.78,T,,M,0.47,N,0.9,K,A*37
$GPGGA,222745.000,3748.8013,N,12217.8598,W,1,07,1.4,-8.2,M,-25.1,M,,0000*4D
$GPGSA,A,3,23,20,32,16,13,24,04,,,,,,2.1,1.4,1.5*35
$GPRMC,222745.000,A,3748.8013,N,12217.8598,W,0.11,167.52,010411,,,A*73
$GPVTG,167.52,T,,M,0.11,N,0.2,K,A*08
$GPGGA,222746.000,3748.8012,N,12217.8601,W,1,07,1.4,-8.3,M,-25.1,M,,0000*4D
$GPGSA,A,3,23,20,32,16,13,24,04,,,,,,2.1,1.4,1.5*35
$GPRMC,222746.000,A,3748.8012,N,12217.8601,W,0.11,192.67,010411,,,A*7E
$GPVTG,192.67,T,,M,0.11,N,0.2,K,A*04
$GPGGA,222747.000,3748.8011,N,12217.8606,W,1,07,1.4,-7.2,M,-25.1,M,,0000*46
$GPGSA,A,3,23,20,32,16,13,24,04,,,,,,2.1,1.4,1.5*35
$GPGSV,3,1,11,20,79,274,22,32,69,136,20,23,55,310,32,30,40,098,18*73
$GPGSV,3,2,11,16,35,125,21,31,27,044,29,13,25,284,36,24,24,207,32*7A
$GPGSV,3,3,11,04,10,317,34,11,09,204,22,07,02,225,*41
$GPRMC,222747.000,A,3748.8011,N,12217.8606,W,0.34,260.67,010411,,,A*72
$GPVTG,260.67,T,,M,0.34,N,0.6,K,A*09
$GPGGA,222748.000,3748.8011,N,12217.8615,W,1,07,1.4,-6.8,M,-25.1,M,,0000*40
$GPGSA,A,3,23,20,32,16,13,24,04,,,,,,2.1,1.4,1.5*35
$GPRMC,222748.000,A,3748.8011,N,12217.8615,W,0.91,278.70,010411,,,A*7F
$GPVTG,278.70,T,,M,0.91,N,1.7,K,A*09
$GPGGA,222749.000,3748.8010,N,12217.8623,W,1,07,1.4,-5.8,M,-25.1,M,,0000*46
$GPGSA,A,3,23,20,32,16,13,24,04,,,,,,2.1,1.4,1.5*35
$GPRMC,222749.000,A,3748.8010,N,12217.8623,W,0.95,267.81,010411,,,A*7E
$GPVTG,267.81,T,,M,0.95,N,1.8,K,A*02
$GPGGA,222750.000,3748.8007,N,12217.8625,W,1,07,1.4,-5.5,M,-25.1,M,,0000*43
$GPGSA,A,3,23,20,32,16,13,24,04,,,,,,2.1,1.4,1.5*35
$GPRMC,222750.000,A,3748.8007,N,12217.8625,W,0.19,100.39,010411,,,A*73
$GPVTG,100.39,T,,M,0.19,N,0.4,K,A*0A
$GPGGA,222751.000,3748.8003,N,12217.8648,W,1,07,1.4,-2.3,M,-25.1,M,,0000*4C
$GPGSA,A,3,23,20,32,16,13,24,04,,,,,,2.1,1.4,1.5*35
$GPRMC,222751.000,A,3748.8003,N,12217.8648,W,0.50,206.84,010411,,,A*73
$GPVTG,206.84,T,,M,0.50,N,0.9,K,A*09
$GPGGA,222752.000,3748.8003,N,12217.8646,W,1,07,1.4,-1.8,M,-25.1,M,,0000*49
$GPGSA,A,3,23,20,32,16,13,24,04,,,,,,2.1,1.4,1.5*35
$GPGSV,3,1,11,20,79,274,23,32,69,136,26,23,55,310,24,30,40,098,24*7C
$GPGSV,3,2,11,16,35,125,23,31,27,044,30,13,25,284,24,24,24,207,20*70
$GPGSV,3,3,11,04,10,317,24,11,09,204,18,07,02,225,*49
$GPVTG,138.48,T,,M,0.49,N,0.9,K,A*0F
$GPGGA,222753.000,3748.8004,N,12217.8646,W,1,07,1.4,-0.9,M,-25.1,M,,0000*4F
$GPGSA,A,3,23,20,32,16,13,24,04,,,,,,2.1,1.4,1.5*35
$GPRMC,222753.000,A,3748.8004,N,12217.8646,W,0.47,21.60,010411,,,A*43
$GPVTG,21.60,T,,M,0.47,N,0.9,K,A*32
$GPGGA,222754.000,3748.8006,N,12217.8643,W,1,07,1.4,-0.7,M,-25.1,M,,0000*41
$GPGSA,A,3,23,20,32,16,13,24,04,,,,,,2.1,1.4,1.5*35
$GPRMC,222754.000,A,3748.8006,N,12217.8643,W,0.91,42.83,010411,,,A*40
$GPVTG,42.83,T,,M,0.91,N,1.7,K,A*3E
$GPGGA,222755.000,3748.8010,N,12217.8632,W,1,07,1.4,-1.5,M,-25.1,M,,0000*42
$GPGSA,A,3,23,20,32,16,13,24,04,,,,,,2.1,1.4,1.5*35
$GPRMC,222755.000,A,3748.8010,N,12217.8632,W,0.27,70.33,010411,,,A*47
$GPVTG,70.33,T,,M,0.27,N,0.5,K,A*3A
$GPGGA,222756.000,3748.8011,N,12217.8627,W,1,07,1.4,-2.3,M,-25.1,M,,0000*41
$GPGSA,A,3,23,20,32,16,13,24,04,,,,,,2.1,1.4,1.5*35
$GPRMC,222756.000,A,3748.8011,N,12217.8627,W,0.16,93.88,010411,,,A*4E
$GPVTG,93.88,T,,M,0.16,N,0.3,K,A*33
$GPGGA,222757.000,3748.8012,N,12217.8623,W,1,07,1.4,-3.0,M,-25.1,M,,0000*45
$GPGSA,A,3,23,20,32,16,13,24,04,,,,,,2.1,1.4,1.5*35
$GPGSV,3,1,11,20,79,274,29,32,69,136,29,23,55,310,34,30,40,098,26*7A
$GPGSV,3,2,11,16,35,125,27,31,27,044,40,13,25,284,34,24,24,207,17*76
$GPGSV,3,3,11,04,10,317,34,11,09,204,,07,02,225,*41
$GPRMC,222757.000,A,3748.8012,N,12217.8623,W,0.46,248.29,010411,,,A*72
$GPVTG,248.29,T,,M,0.46,N,0.9,K,A*03
$GPGGA,222758.000,3748.8012,N,12217.8623,W,1,07,1.4,-3.2,M,-25.1,M,,0000*48
$GPGSA,A,3,23,20,32,16,13,24,04,,,,,,2.1,1.4,1.5*35
$GPRMC,222758.000,A,3748.8012,N,12217.8623,W,0.34,193.14,010411,,,A*73
$GPVTG,193.14,T,,M,0.34,N,0.6,K,A*02
$GPGGA,222759.000,3748.8010,N,12217.8623,W,1,07,1.4,-3.9,M,-25.1,M,,0000*40
$GPGSA,A,3,23,20,32,16,13,24,04,,,,,,2.1,1.4,1.5*35
$GPRMC,222759.000,A,3748.8010,N,12217.8623,W,0.52,174.03,010411,,,A*7F
$GPVTG,174.03,T,,M,0.52,N,1.0,K,A*0A
$GPGGA,222800.000,3748.8005,N,12217.8625,W,1,07,1.4,-4.5,M,-25.1,M,,0000*4A
$GPGSA,A,3,23,20,32,16,13,24,04,,,,,,2.1,1.4,1.5*35
$GPRMC,222800.000,A,3748.8005,N,12217.8625,W,0.18,197.98,010411,,,A*7F
$GPVTG,197.98,T,,M,0.18,N,0.3,K,A*09
$GPGGA,222801.000,3748.8002,N,12217.8626,W,1,07,1.4,-5.1,M,-25.1,M,,0000*4A
$GPGSA,A,3,23,20,32,16,13,24,04,,,,,,2.1,1.4,1.5*35
$GPRMC,222801.000,A,3748.8002,N,12217.8626,W,0.07,220.34,010411,,,A*7D
$GPVTG,220.34,T,,M,0.07,N,0.1,K,A*0C
$GPGGA,222802.000,3748.8000,N,12217.8626,W,1,07,1.4,-5.8,M,-25.1,M,,0000*42
$GPGSA,A,3,23,20,32,16,13,24,04,,,,,,2.1,1.4,1.5*35
$GPGSV,3,1,11,20,79,274,28,32,69,136,29,23,55,310,37,30,40,098,23*7D
$GPGSV,3,2,11,16,35,125,19,31,27,044,38,13,25,284,36,24,24,207,30*73
$GPGSV,3,3,11,04,10,317,38,11,09,204,23,07,02,225,*4C
$GPRMC,222802.000,A,3748.8000,N,12217.8626,W,0.43,96.77,010411,,,A*44
$GPVTG,96.77,T,,M,0.43,N,0.8,K,A*3D
$GPGGA,222803.000,3748.7998,N,12217.8625,W,1,07,1.4,-6.6,M,-25.1,M,,0000*4A
$GPGSA,A,3,23,20,32,16,13,24,04,,,,,,2.1,1.4,1.5*35
$GPRMC,222803.000,A,3748.7998,N,12217.8625,W,0.60,89.31,010411,,,A*4C
$GPVTG,89.31,T,,M,0.60,N,1.1,K,A*38
$GPGGA,222804.000,3748.7997,N,12217.8622,W,1,07,1.4,-7.3,M,-25.1,M,,0000*41
$GPGSA,A,3,23,20,32,16,13,24,04,,,,,,2.1,1.4,1.5*35
$GPRMC,222804.000,A,3748.7997,N,12217.8622,W,0.72,91.31,010411,,,A*49
$GPVTG,91.31,T,,M,0.72,N,1.3,K,A*30
$GPGGA,222805.000,3748.7996,N,12217.8620,W,1,07,1.4,-8.1,M,-25.1,M,,0000*4E
$GPGSA,A,3,23,20,32,16,13,24,04,,,,,,2.1,1.4,1.5*35
$GPRMC,222805.000,A,3748.7996,N,12217.8620,W,0.77,94.18,010411,,,A*40
$GPVTG,94.18,T,,M,0.77,N,1.4,K,A*3C
$GPGGA,222806.000,3748.7995,N,12217.8617,W,1,07,1.4,-8.9,M,-25.1,M,,0000*42
$GPGSA,A,3,23,20,32,16,13,24,04,,,,,,2.1,1.4,1.5*35
$GPRMC,222806.000,A,3748.7995,N,12217.8617,W,0.72,89.81,010411,,,A*4D
$GPVTG,89.81,T,,M,0.72,N,1.3,K,A*32
$GPGGA,222807.000,3748.7997,N,12217.8615,W,1,07,1.4,-9.5,M,-25.1,M,,0000*4E
$GPGSA,A,3,23,20,32,16,13,24,04,,,,,,2.1,1.4,1.5*35
$GPGSV,3,1,12,20,79,274,29,32,69,136,29,23,55,310,36,30,40,098,23*7E
$GPGSV,3,2,12,16,35,125,25,31,27,044,26,13,25,284,37,24,24,207,39*78
$GPGSV,3,3,12,04,10,317,38,11,09,204,28,07,02,225,,48,45,194,36*70
$GPVTG,46.12,T,,M,1.30,N,2.4,K,A*38
$GPGGA,222808.000,3748.7998,N,12217.8617,W,1,07,1.4,-9.4,M,-25.1,M,,0000*4D
$GPGSA,A,3,23,20,32,16,13,24,04,,,,,,2.1,1.4,1.5*35
$GPRMC,222808.000,A,3748.7998,N,12217.8617,W,0.63,12.41,010411,,,A*40
$GPVTG,12.41,T,,M,0.63,N,1.2,K,A*3D
$GPGGA,222809.000,3748.7999,N,12217.8615,W,1,07,1.4,-9.4,M,-25.1,M,,0000*4F
$GPGSA,A,3,23,20,32,16,13,24,04,,,,,,2.1,1.4,1.5*35
$GPRMC,222809.000,A,3748.7999,N,12217.8615,W,1.30,79.13,010411,,,A*4F
$GPVTG,79.13,T,,M,1.30,N,2.4,K,A*35
$GPGGA,222810.000,3748.7999,N,12217.8611,W,1,07,1.4,-9.7,M,-25.1,M,,0000*40
$GPGSA,A,3,23,20,32,16,13,24,04,,,,,,2.1,1.4,1.5*35
$GPRMC,222810.000,A,3748.7999,N,12217.8611,W,1.31,81.37,010411,,,A*43
$GPVTG,81.37,T,,M,1.31,N,2.4,K,A*35
$GPGGA,222811.000,3748.7999,N,12217.8606,W,1,07,1.4,-10.0,M,-25.1,M,,0000*78
$GPGSA,A,3,23,20,32,16,13,24,04,,,,,,2.1,1.4,1.5*35
$GPRMC,222811.000,A,3748.7999,N,12217.8606,W,1.72,79.26,010411,,,A*44
$GPVTG,79.26,T,,M,1.72,N,3.2,K,A*32
$GPGGA,222812.000,3748.8000,N,12217.8600,W,1,07,1.4,-10.2,M,-25.1,M,,0000*79
$GPGSA,A,3,23,20,32,16,13,24,04,,,,,,2.1,1.4,1.5*35
$GPGSV,3,1,12,20,79,274,24,32,69,136,34,23,55,310,21,30,40,098,35*7E
$GPGSV,3,2,12,16,35,125,37,31,27,044,25,13,25,284,31,24,24,207,35*72
$GPGSV,3,3,12,04,10,317,27,11,09,204,24,07,02,225,,48,45,194,36*72
$GPRMC,222812.000,A,3748.8000,N,12217.8600,W,1.60,89.54,010411,,,A*4E
$GPVTG,89.54,T,,M,1.60,N,3.0,K,A*39
$GPGGA,222813.000,3748.7998,N,12217.8594,W,1,07,1.4,-10.7,M,-25.1,M,,0000*74
$GPGSA,A,3,23,20,32,16,13,24,04,,,,,,2.1,1.4,1.5*35
$GPRMC,222813.000,A,3748.7998,N,12217.8594,W,1.63,110.77,010411,,,A*75
$GPVTG,110.77,T,,M,1.63,N,3.0,K,A*0A
$GPGGA,222814.000,3748.7996,N,12217.8588,W,1,07,1.4,-11.0,M,-25.1,M,,0000*76
$GPGSA,A,3,23,20,32,16,13,24,04,,,,,,2.1,1.4,1.5*35
$GPRMC,222814.000,A,3748.7996,N,12217.8588,W,1.48,110.85,010411,,,A*75
$GPVTG,110.85,T,,M,1.48,N,2.7,K,A*08
$GPGGA,222815.000,3748.7992,N,12217.8586,W,1,07,1.4,-9.7,M,-25.1,M,,0000*43
$GPGSA,A,3,23,20,32,16,13,24,04,,,,,,2.1,1.4,1.5*35
$GPRMC,222815.000,A,3748.7992,N,12217.8586,W,1.34,103.63,010411,,,A*7F
$GPVTG,103.63,T,,M,1.34,N,2.5,K,A*0B
$GPGGA,222816.000,3748.7991,N,12217.8583,W,1,07,1.4,-9.5,M,-25.1,M,,0000*44
$GPGSA,A,3,23,20,32,16,13,24,04,,,,,,2.1,1.4,1.5*35
$GPRMC,222816.000,A,3748.7991,N,12217.8583,W,0.67,101.17,010411,,,A*7C
$GPVTG,101.17,T,,M,0.67,N,1.2,K,A*09
$GPGGA,222817.000,3748.7989,N,12217.8582,W,1,07,1.4,-9.5,M,-25.1,M,,0000*4D
$GPGSA,A,3,23,20,32,16,13,24,04,,,,,,2.1,1.4,1.5*35
$GPGSV,3,1,12,20,79,271,28,32,68,136,33,23,55,311,23,30,40,098,35*72
$GPGSV,3,2,12,16,36,124,33,31,27,045,26,13,25,284,29,24,24,207,37*7D
$GPGSV,3,3,12,04,10,317,25,11,09,204,30,07,02,226,,48,45,194,40*77
$GPRMC,222817.000,A,3748.7989,N,12217.8582,W,0.67,153.64,010411,,,A*76
$GPVTG,153.64,T,,M,0.67,N,1.2,K,A*0A
$GPGGA,222818.000,3748.7989,N,12217.8582,W,1,07,1.4,-9.6,M,-25.1,M,,0000*41
$GPGSA,A,3,23,20,32,16,13,24,04,,,,,,2.1,1.4,1.5*35
$GPRMC,222818.000,A,3748.7989,N,12217.8582,W,0.23,33.03,010411,,,A*4F
$GPVTG,33.03,T,,M,0.23,N,0.4,K,A*3B
$GPGGA,222819.000,3748.7989,N,12217.8581,W,1,07,1.4,-9.7,M,-25.1,M,,0000*42
$GPGSA,A,3,23,20,32,16,13,24,04,,,,,,2.1,1.4,1.5*35
$GPRMC,222819.000,A,3748.7989,N,12217.8581,W,0.13,97.00,010411,,,A*43
$GPVTG,97.00,T,,M,0.13,N,0.2,K,A*33
$GPGGA,222820.000,3748.7989,N,12217.8581,W,1,07,1.4,-9.9,M,-25.1,M,,0000*46
$GPGSA,A,3,23,20,32,16,13,24,04,,,,,,2.1,1.4,1.5*35
$GPRMC,222820.000,A,3748.7989,N,12217.8581,W,0.09,58.57,010411,,,A*43
$GPVTG,58.57,T,,M,0.09,N,0.2,K,A*39
$GPGGA,222821.000,3748.7989,N,12217.8581,W,1,07,1.4,-10.0,M,-25.1,M,,0000*76
$GPGSA,A,3,23,20,32,16,13,24,04,,,,,,2.1,1.4,1.5*35
$GPRMC,222821.000,A,3748.7989,N,12217.8581,W,0.11,35.32,010411,,,A*43
$GPVTG,35.32,T,,M,0.11,N,0.2,K,A*38
$GPGGA,222822.000,3748.7990,N,12217.8581,W,1,07,1.4,-10.2,M,-25.1,M,,0000*7F
$GPGSA,A,3,23,20,32,16,13,24,04,,,,,,2.1,1.4,1.5*35
$GPGSV,3,1,12,20,79,271,26,32,68,136,33,23,55,311,28,30,40,098,35*77
$GPGSV,3,2,12,16,36,124,34,31,27,045,21,13,25,284,31,24,24,207,36*75
$GPRMC,222822.000,A,3748.7990,N,12217.8581,W,0.09,35.98,010411,,,A*41
$GPVTG,35.98,T,,M,0.09,N,0.2,K,A*31
$GPGGA,222823.000,3748.7991,N,12217.8581,W,1,07,1.4,-10.5,M,-25.1,M,,0000*78
$GPGSA,A,3,23,20,32,16,13,24,04,,,,,,2.1,1.4,1.5*35
$GPRMC,222823.000,A,3748.7991,N,12217.8581,W,0.17,13.44,010411,,,A*4B
$GPVTG,13.44,T,,M,0.17,N,0.3,K,A*3A
$GPGGA,222824.000,3748.7991,N,12217.8581,W,1,07,1.4,-10.6,M,-25.1,M,,0000*7C
$GPGSA,A,3,23,20,32,16,13,24,04,,,,,,2.1,1.4,1.5*35
$GPRMC,222824.000,A,3748.7991,N,12217.8581,W,0.11,18.17,010411,,,A*47
$GPVTG,18.17,T,,M,0.11,N,0.2,K,A*30
$GPGGA,222825.000,3748.7992,N,12217.8581,W,1,06,1.8,-10.9,M,-25.1,M,,0000*7C
$GPGSA,A,3,23,20,32,16,13,24,,,,,,,3.0,1.8,2.4*3F
$GPRMC,222825.000,A,3748.7992,N,12217.8581,W,0.18,151.25,010411,,,A*71
$GPVTG,151.25,T,,M,0.18,N,0.3,K,A*05
$GPGGA,222826.000,3748.7992,N,12217.8581,W,1,06,1.8,-11.1,M,-25.1,M,,0000*76
$GPGSA,A,3,23,20,32,16,13,24,,,,,,,3.0,1.8,2.4*3F
$GPRMC,222826.000,A,3748.7992,N,12217.8581,W,0.08,64.10,010411,,,A*42
$GPVTG,64.10,T,,M,0.08,N,0.2,K,A*34
$GPGGA,222827.000,3748.7992,N,12217.8581,W,1,06,1.8,-11.3,M,-25.1,M,,0000*75
$GPGSA,A,3,23,20,32,16,13,24,,,,,,,3.0,1.8,2.4*3F
$GPGSV,3,1,12,20,79,271,25,32,68,136,33,23,55,311,22,30,40,098,34*7F
$GPGSV,3,2,12,16,36,124,35,31,27,045,29,13,25,284,31,24,24,207,35*7F
$GPGSV,3,3,12,04,10,317,,11,09,204,23,07,02,226,,48,45,194,41*73
$GPRMC,222827.000,A,3748.7992,N,12217.8581,W,0.24,154.57,010411,,,A*7C
$GPVTG,154.57,T,,M,0.24,N,0.4,K,A*0D
$GPGGA,222828.000,3748.7992,N,12217.8581,W,1,06,1.8,-11.5,M,-25.1,M,,0000*7C
$GPGSA,A,3,23,20,32,16,13,24,,,,,,,3.0,1.8,2.4*3F
$GPRMC,222828.000,A,3748.7992,N,12217.8581,W,0.30,167.49,010411,,,A*79
$GPVTG,167.49,T,,M,0.30,N,0.6,K,A*05
$GPGGA,222829.000,3748.7991,N,12217.8582,W,1,06,1.8,-11.6,M,-25.1,M,,0000*7E
$GPGSA,A,3,23,20,32,16,13,24,,,,,,,3.0,1.8,2.4*3F
$GPRMC,222829.000,A,3748.7991,N,12217.8582,W,0.17,165.62,010411,,,A*76
$GPVTG,165.62,T,,M,0.17,N,0.3,K,A*0E
$GPGGA,222830.000,3748.7991,N,12217.8582,W,1,06,1.8,-11.7,M,-25.1,M,,0000*77
$GPGSA,A,3,23,20,32,16,13,24,,,,,,,3.0,1.8,2.4*3F
$GPRMC,222830.000,A,3748.7991,N,12217.8582,W,0.26,164.76,010411,,,A*78
$GPVTG,164.76,T,,M,0.26,N,0.5,K,A*0E
$GPGGA,222831.000,3748.7991,N,12217.8583,W,1,07,1.4,-11.6,M,-25.1,M,,0000*7B
$GPGSA,A,3,23,20,32,16,13,24,04,,,,,,2.1,1.4,1.5*35
$GPRMC,222831.000,A,3748.7991,N,12217.8583,W,0.23,183.25,010411,,,A*72
$GPVTG,183.25,T,,M,0.23,N,0.4,K,A*05
$GPGGA,222832.000,3748.7991,N,12217.8582,W,1,07,1.4,-11.7,M,-25.1,M,,0000*78
$GPGSA,A,3,23,20,32,16,13,24,04,,,,,,2.1,1.4,1.5*35
$GPGSV,3,1,12,20,79,271,30,32,68,136,33,23,55,311,23,30,40,098,33*7D
$GPGSV,3,2,12,16,36,124,36,31,27,045,25,13,25,284,32,24,24,207,36*70
$GPGSV,3,3,12,04,10,317,28,11,09,204,25,07,02,226,,48,45,194,39*70
$GPRMC,222832.000,A,3748.7991,N,12217.8582,W,0.33,44.25,010411,,,A*4B
$GPVTG,44.25,T,,M,0.33,N,0.6,K,A*3C
$GPGGA,222833.000,3748.7991,N,12217.8581,W,1,07,1.4,-11.6,M,-25.1,M,,0000*7B
$GPGSA,A,3,23,20,32,16,13,24,04,,,,,,2.1,1.4,1.5*35
$GPRMC,222833.000,A,3748.7991,N,12217.8581,W,1.01,122.52,010411,,,A*78
$GPVTG,122.52,T,,M,1.01,N,1.9,K,A*03
$GPGGA,222834.000,3748.7990,N,12217.8576,W,1,07,1.4,-11.5,M,-25.1,M,,0000*76
$GPGSA,A,3,23,20,32,16,13,24,04,,,,,,2.1,1.4,1.5*35
$GPRMC,222834.000,A,3748.7990,N,12217.8576,W,1.77,108.70,010411,,,A*7F
$GPVTG,108.70,T,,M,1.77,N,3.3,K,A*02
$GPGGA,222835.000,3748.7987,N,12217.8570,W,1,07,1.4,-11.3,M,-25.1,M,,0000*71
$GPGSA,A,3,23,20,32,16,13,24,04,,,,,,2.1,1.4,1.5*35
$GPRMC,222835.000,A,3748.7987,N,12217.8570,W,2.18,117.56,010411,,,A*7E
$GPVTG,117.56,T,,M,2.18,N,4.0,K,A*06
$GPGGA,222836.000,3748.7985,N,12217.8563,W,1,07,1.4,-11.3,M,-25.1,M,,0000*72
$GPGSA,A,3,23,20,32,16,13,24,04,,,,,,2.1,1.4,1.5*35
$GPRMC,222836.000,A,3748.7985,N,12217.8563,W,2.01,112.44,010411,,,A*73
$GPVTG,112.44,T,,M,2.01,N,3.7,K,A*08
$GPGGA,222837.000,3748.7983,N,12217.8556,W,1,07,1.4,-11.4,M,-25.1,M,,0000*74
$GPGSA,A,3,23,20,32,16,13,24,04,,,,,,2.1,1.4,1.5*35
$GPGSV,3,1,12,20,79,271,28,32,68,136,33,23,55,311,23,30,40,098,35*72
$GPGSV,3,2,12,16,36,124,35,31,27,045,29,13,25,284,32,24,24,207,37*7E
$GPGSV,3,3,12,04,10,317,22,11,09,204,25,07,02,226,,48,45,194,38*7B
$GPRMC,222837.000,A,3748.7983,N,12217.8556,W,2.23,113.39,010411,,,A*79
$GPVTG,113.39,T,,M,2.23,N,4.1,K,A*02
$GPGGA,222838.000,3748.7980,N,12217.8549,W,1,07,1.4,-11.4,M,-25.1,M,,0000*76
$GPGSA,A,3,23,20,32,16,13,24,04,,,,,,2.1,1.4,1.5*35
$GPRMC,222838.000,A,3748.7980,N,12217.8549,W,2.15,119.79,010411,,,A*70
$GPVTG,119.79,T,,M,2.15,N,4.0,K,A*08
$GPGGA,222839.000,3748.7977,N,12217.8542,W,1,07,1.4,-11.7,M,-25.1,M,,0000*77
$GPGSA,A,3,23,20,32,16,13,24,04,,,,,,2.1,1.4,1.5*35
$GPRMC,222839.000,A,3748.7977,N,12217.8542,W,2.11,123.86,010411,,,A*7F
$GPVTG,123.86,T,,M,2.11,N,3.9,K,A*0B
$GPGGA,222840.000,3748.7974,N,12217.8535,W,1,07,1.4,-11.7,M,-25.1,M,,0000*7A
$GPGSA,A,3,23,20,32,16,13,24,04,,,,,,2.1,1.4,1.5*35
$GPRMC,222840.000,A,3748.7974,N,12217.8535,W,2.28,122.44,010411,,,A*77
$GPVTG,122.44,T,,M,2.28,N,4.2,K,A*02
$GPGGA,222841.000,3748.7971,N,12217.8528,W,1,07,1.4,-11.7,M,-25.1,M,,0000*72
$GPGSA,A,3,23,20,32,16,13,24,04,,,,,,2.1,1.4,1.5*35
$GPRMC,222841.000,A,3748.7971,N,12217.8528,W,2.30,115.62,010411,,,A*76
$GPVTG,115.62,T,,M,2.30,N,4.3,K,A*0A
$GPGGA,222842.000,3748.7968,N,12217.8521,W,1,07,1.4,-11.8,M,-25.1,M,,0000*7F
$GPGSA,A,3,23,20,32,16,13,24,04,,,,,,2.1,1.4,1.5*35
$GPGSV,3,1,12,20,79,271,28,32,68,136,33,23,55,311,23,30,40,098,35*72
$GPGSV,3,2,12,16,36,124,36,31,27,045,27,13,25,284,32,24,24,207,37*73
$GPGSV,3,3,12,04,10,317,23,11,09,204,34,07,02,226,,48,45,194,38*7A
$GPVTG,121.85,T,,M,2.16,N,4.0,K,A*03
$GPGGA,222843.000,3748.7965,N,12217.8514,W,1,07,1.4,-11.9,M,-25.1,M,,0000*74
$GPGSA,A,3,23,20,32,16,13,24,04,,,,,,2.1,1.4,1.5*35
$GPRMC,222843.000,A,3748.7965,N,12217.8514,W,2.01,116.04,010411,,,A*7F
$GPVTG,116.04,T,,M,2.01,N,3.7,K,A*08
$GPGGA,222844.000,3748.7963,N,12217.8507,W,1,07,1.4,-12.0,M,-25.1,M,,0000*7D
$GPGSA,A,3,23,20,32,16,13,24,04,,,,,,2.1,1.4,1.5*35
$GPRMC,222844.000,A,3748.7963,N,12217.8507,W,2.01,108.36,010411,,,A*72
$GPVTG,108.36,T,,M,2.01,N,3.7,K,A*06
$GPGGA,222845.000,3748.7961,N,12217.8500,W,1,07,1.4,-12.1,M,-25.1,M,,0000*78
$GPGSA,A,3,23,20,32,16,13,24,04,,,,,,2.1,1.4,1.5*35
$GPRMC,222845.000,A,3748.7961,N,12217.8500,W,1.96,111.02,010411,,,A*74
$GPVTG,111.02,T,,M,1.96,N,3.6,K,A*05
$GPGGA,222846.000,3748.7960,N,12217.8494,W,1,07,1.4,-12.4,M,-25.1,M,,0000*73
$GPGSA,A,3,23,20,32,16,13,24,04,,,,,,2.1,1.4,1.5*35
$GPRMC,222846.000,A,3748.7960,N,12217.8494,W,1.68,98.47,010411,,,A*4A
$GPVTG,98.47,T,,M,1.68,N,3.1,K,A*32
$GPGGA,222847.000,3748.7959,N,12217.8487,W,1,07,1.4,-12.5,M,-25.1,M,,0000*7B
$GPGSA,A,3,23,20,32,16,13,24,04,,,,,,2.1,1.4,1.5*35
$GPGSV,3,1,12,20,79,270,28,32,68,137,31,23,55,311,24,30,41,097,36*7A
$GPGSV,3,2,12,16,36,124,36,31,27,045,21,13,25,284,32,24,23,206,37*73
$GPGSV,3,3,12,04,10,316,23,11,08,204,33,07,02,226,,48,44,195,39*7C
$GPRMC,222847.000,A,3748.7959,N,12217.8487,W,1.88,95.75,010411,,,A*41
$GPVTG,95.75,T,,M,1.88,N,3.5,K,A*34
$GPGGA,222848.000,3748.7958,N,12217.8480,W,1,07,1.4,-12.6,M,-25.1,M,,0000*71
$GPGSA,A,3,23,20,32,16,13,24,04,,,,,,2.1,1.4,1.5*35
$GPRMC,222848.000,A,3748.7958,N,12217.8480,W,1.91,99.32,010411,,,A*4F
$GPVTG,99.32,T,,M,1.91,N,3.5,K,A*33
$GPGGA,222849.000,3748.7956,N,12217.8473,W,1,07,1.4,-12.6,M,-25.1,M,,0000*72
$GPGSA,A,3,23,20,32,16,13,24,04,,,,,,2.1,1.4,1.5*35
$GPRMC,222849.000,A,3748.7956,N,12217.8473,W,1.97,102.95,010411,,,A*74
$GPVTG,102.95,T,,M,1.97,N,3.7,K,A*09
$GPGGA,222850.000,3748.7954,N,12217.8467,W,1,07,1.4,-12.7,M,-25.1,M,,0000*7C
$GPGSA,A,3,23,20,32,16,13,24,04,,,,,,2.1,1.4,1.5*35
$GPRMC,222850.000,A,3748.7954,N,12217.8467,W,1.80,107.44,010411,,,A*74
$GPVTG,107.44,T,,M,1.80,N,3.3,K,A*02
$GPGGA,222851.000,3748.7952,N,12217.8461,W,1,07,1.4,-12.7,M,-25.1,M,,0000*7D
$GPGSA,A,3,23,20,32,16,13,24,04,,,,,,2.1,1.4,1.5*35
$GPRMC,222851.000,A,3748.7952,N,12217.8461,W,1.89,113.05,010411,,,A*7C
$GPVTG,113.05,T,,M,1.89,N,3.5,K,A*0D
$GPGGA,222852.000,3748.7947,N,12217.8453,W,1,07,1.4,-12.3,M,-25.1,M,,0000*7F
$GPGSA,A,3,23,20,32,16,13,24,04,,,,,,2.1,1.4,1.5*35
$GPGSV,3,1,12,20,79,270,25,32,68,137,33,23,55,311,24,30,41,097,36*75
$GPGSV,3,2,12,16,36,124,31,31,27,045,19,13,25,284,27,24,23,206,32*7E
$GPGSV,3,3,12,04,10,316,22,11,08,204,27,07,02,226,,48,44,195,30*71
$GPRMC,222852.000,A,3748.7947,N,12217.8453,W,1.41,99.90,010411,,,A*41
$GPVTG,99.90,T,,M,1.41,N,2.6,K,A*34
$GPGGA,222853.000,3748.7943,N,12217.8447,W,1,07,1.4,-11.8,M,-25.1,M,,0000*77
$GPGSA,A,3,23,20,32,16,13,24,04,,,,,,2.1,1.4,1.5*35
$GPRMC,222853.000,A,3748.7943,N,12217.8447,W,1.25,78.62,010411,,,A*41
$GPVTG,78.62,T,,M,1.25,N,2.3,K,A*31
$GPGGA,222854.000,3748.7937,N,12217.8440,W,1,07,1.4,-11.4,M,-25.1,M,,0000*78
$GPGSA,A,3,23,20,32,16,13,24,04,,,,,,2.1,1.4,1.5*35
$GPRMC,222854.000,A,3748.7937,N,12217.8440,W,0.85,95.01,010411,,,A*4F
$GPVTG,95.01,T,,M,0.85,N,1.6,K,A*3A
$GPGGA,222855.000,3748.7932,N,12217.8434,W,1,07,1.4,-11.1,M,-25.1,M,,0000*7A
$GPGSA,A,3,23,20,32,16,13,24,04,,,,,,2.1,1.4,1.5*35
$GPRMC,222855.000,A,3748.7932,N,12217.8434,W,1.20,101.81,010411,,,A*72
$GPVTG,101.81,T,,M,1.20,N,2.2,K,A*07
$GPGGA,222856.000,3748.7929,N,12217.8430,W,1,07,1.4,-10.9,M,-25.1,M,,0000*7E
$GPGSA,A,3,23,20,32,16,13,24,04,,,,,,2.1,1.4,1.5*35
$GPRMC,222856.000,A,3748.7929,N,12217.8430,W,1.29,97.49,010411,,,A*4C
$GPVTG,97.49,T,,M,1.29,N,2.4,K,A*32
$GPGGA,222857.000,3748.7927,N,12217.8426,W,1,07,1.4,-11.1,M,-25.1,M,,0000*7F
$GPGSA,A,3,23,20,32,16,13,24,04,,,,,,2.1,1.4,1.5*35
$GPGSV,3,1,12,20,79,270,25,32,68,137,33,23,55,311,24,30,41,097,36*75
$GPGSV,3,2,12,16,36,124,39,31,27,045,21,13,25,284,24,24,23,206,35*79
$GPGSV,3,3,12,04,10,316,22,11,08,204,25,07,02,226,,48,44,195,37*74
$GPVTG,101.52,T,,M,1.31,N,2.4,K,A*0F
$GPGGA,222858.000,3748.7926,N,12217.8421,W,1,07,1.4,-11.5,M,-25.1,M,,0000*72
$GPGSA,A,3,23,20,32,16,13,24,04,,,,,,2.1,1.4,1.5*35
$GPRMC,222858.000,A,3748.7926,N,12217.8421,W,1.47,102.28,010411,,,A*7F
$GPVTG,102.28,T,,M,1.47,N,2.7,K,A*03
$GPGGA,222859.000,3748.7925,N,12217.8416,W,1,07,1.4,-12.0,M,-25.1,M,,0000*72
$GPGSA,A,3,23,20,32,16,13,24,04,,,,,,2.1,1.4,1.5*35
$GPRMC,222859.000,A,3748.7925,N,12217.8416,W,1.72,99.98,010411,,,A*47
$GPVTG,99.98,T,,M,1.72,N,3.2,K,A*39
$GPGGA,222900.000,3748.7924,N,12217.8411,W,1,07,1.4,-12.4,M,-25.1,M,,0000*7D
$GPGSA,A,3,23,20,32,16,13,24,04,,,,,,2.1,1.4,1.5*35
$GPRMC,222900.000,A,3748.7924,N,12217.8411,W,1.58,110.14,010411,,,A*70
$GPVTG,110.14,T,,M,1.58,N,2.9,K,A*0F
$GPGGA,222901.000,3748.7922,N,12217.8405,W,1,07,1.4,-12.6,M,-25.1,M,,0000*7D
$GPGSA,A,3,23,20,32,16,13,24,04,,,,,,2.1,1.4,1.5*35
$GPRMC,222901.000,A,3748.7922,N,12217.8405,W,1.88,108.32,010411,,,A*72
$GPVTG,108.32,T,,M,1.88,N,3.5,K,A*02
$GPGGA,222902.000,3748.7920,N,12217.8399,W,2,07,1.4,-12.9,M,-25.1,M,1.8,0000*55
$GPGSA,A,3,23,20,32,16,13,24,04,,,,,,2.1,1.4,1.5*35
$GPGSV,3,1,12,20,79,270,26,32,68,137,34,23,55,311,24,30,41,097,36*71
$GPGSV,3,2,12,16,36,124,33,31,27,045,27,13,25,284,30,24,23,206,36*73
$GPGSV,3,3,12,04,10,316,21,11,08,204,25,07,02,226,,48,44,195,36*76
$GPRMC,222902.000,A,3748.7920,N,12217.8399,W,1.85,100.99,010411,,,D*70
$GPVTG,100.99,T,,M,1.85,N,3.4,K,D*02
$GPGGA,222903.000,3748.7919,N,12217.8392,W,2,07,1.4,-13.1,M,-25.1,M,1.8,0000*5C
$GPGSA,A,3,23,20,32,16,13,24,04,,,,,,2.1,1.4,1.5*35
$GPRMC,222903.000,A,3748.7919,N,12217.8392,W,1.66,96.22,010411,,,D*43
$GPVTG,96.22,T,,M,1.66,N,3.1,K,D*34
$GPGGA,222904.000,3748.7918,N,12217.8386,W,2,07,1.4,-13.2,M,-25.1,M,1.8,0000*5C
$GPGSA,A,3,23,20,32,16,13,24,04,,,,,,2.1,1.4,1.5*35
$GPRMC,222904.000,A,3748.7918,N,12217.8386,W,1.92,94.48,010411,,,D*45
$GPVTG,94.48,T,,M,1.92,N,3.6,K,D*36
$GPGGA,222905.000,3748.7916,N,12217.8380,W,2,07,1.4,-13.5,M,-25.1,M,1.8,0000*52
$GPGSA,A,3,23,20,32,16,13,24,04,,,,,,2.1,1.4,1.5*35
$GPRMC,222905.000,A,3748.7916,N,12217.8380,W,1.69,99.48,010411,,,D*45
$GPVTG,99.48,T,,M,1.69,N,3.1,K,D*38
$GPGGA,222906.000,3748.7916,N,12217.8373,W,2,07,1.4,-13.7,M,-25.1,M,2.8,0000*5C
$GPGSA,A,3,23,20,32,16,13,24,04,,,,,,2.1,1.4,1.5*35
$GPRMC,222906.000,A,3748.7916,N,12217.8373,W,1.86,102.88,010411,,,D*74
$GPVTG,102.88,T,,M,1.86,N,3.4,K,D*03
$GPGGA,222907.000,3748.7914,N,12217.8366,W,2,07,1.4,-13.8,M,-25.1,M,1.8,0000*57
$GPGSA,A,3,23,20,32,16,13,24,04,,,,,,2.1,1.4,1.5*35
$GPGSV,3,1,12,20,79,270,27,32,68,137,34,23,55,311,24,30,41,097,37*71
$GPGSV,3,2,12,16,36,124,34,31,27,045,21,13,25,284,30,24,23,206,30*74
$GPGSV,3,3,12,04,10,316,21,11,08,204,20,07,02,226,,48,44,195,37*72
$GPRMC,222907.000,A,3748.7914,N,12217.8366,W,1.99,110.62,010411,,,D*7A
$GPVTG,110.62,T,,M,1.99,N,3.7,K,D*09
$GPGGA,222908.000,3748.7912,N,12217.8359,W,2,07,1.4,-13.9,M,-25.1,M,2.8,0000*50
$GPGSA,A,3,23,20,32,16,13,24,04,,,,,,2.1,1.4,1.5*35
$GPRMC,222908.000,A,3748.7912,N,12217.8359,W,2.00,101.41,010411,,,D*7D
$GPVTG,101.41,T,,M,2.00,N,3.7,K,D*0B
$GPGGA,222909.000,3748.7910,N,12217.8353,W,2,07,1.4,-14.0,M,-25.1,M,1.8,0000*54
$GPGSA,A,3,23,20,32,16,13,24,04,,,,,,2.1,1.4,1.5*35
$GPRMC,222909.000,A,3748.7910,N,12217.8353,W,1.82,108.72,010411,,,D*74
$GPVTG,108.72,T,,M,1.82,N,3.4,K,D*08
$GPGGA,222910.000,3748.7906,N,12217.8348,W,2,07,1.4,-13.9,M,-25.1,M,1.8,0000*5F
$GPGSA,A,3,23,20,32,16,13,24,04,,,,,,2.1,1.4,1.5*35
$GPRMC,222910.000,A,3748.7906,N,12217.8348,W,1.87,114.40,010411,,,D*78
$GPVTG,114.40,T,,M,1.87,N,3.5,K,D*00
$GPGGA,222911.000,3748.7903,N,12217.8342,W,2,07,1.4,-13.9,M,-25.1,M,1.8,0000*51
$GPGSA,A,3,23,20,32,16,13,24,04,,,,,,2.1,1.4,1.5*35
$GPRMC,222911.000,A,3748.7903,N,12217.8342,W,1.79,113.80,010411,,,D*7C
$GPVTG,113.80,T,,M,1.79,N,3.3,K,D*0C
$GPGGA,222912.000,3748.7900,N,12217.8337,W,2,07,1.4,-13.9,M,-25.1,M,2.8,0000*50
$GPGSA,A,3,23,20,32,16,13,24,04,,,,,,2.1,1.4,1.5*35
$GPGSV,3,1,12,20,79,270,27,32,68,137,30,23,55,311,23,30,41,097,36*73
$GPGSV,3,2,12,16,36,124,36,31,27,045,26,13,25,284,30,24,23,206,38*79
$GPGSV,3,3,12,04,10,316,20,11,08,204,28,07,02,226,,48,44,195,37*7B
$GPRMC,222912.000,A,3748.7900,N,12217.8337,W,1.99,116.04,010411,,,D*79
$GPVTG,116.04,T,,M,1.99,N,3.7,K,D*0F
$GPGGA,222913.000,3748.7896,N,12217.8330,W,2,07,1.4,-13.7,M,-25.1,M,1.8,0000*55
$GPGSA,A,3,23,20,32,16,13,24,04,,,,,,2.1,1.4,1.5*35
$GPRMC,222913.000,A,3748.7896,N,12217.8330,W,1.90,115.98,010411,,,D*7E
$GPVTG,115.98,T,,M,1.90,N,3.5,K,D*02
$GPGGA,222914.000,3748.7892,N,12217.8323,W,2,07,1.4,-13.7,M,-25.1,M,2.8,0000*57
$GPGSA,A,3,23,20,32,16,13,24,04,,,,,,2.1,1.4,1.5*35
$GPRMC,222914.000,A,3748.7892,N,12217.8323,W,1.93,108.06,010411,,,D*77
$GPVTG,108.06,T,,M,1.93,N,3.6,K,D*09
$GPGGA,222915.000,3748.7889,N,12217.8319,W,2,07,1.4,-13.6,M,-25.1,M,1.8,0000*57
$GPGSA,A,3,23,20,32,16,13,24,04,,,,,,2.1,1.4,1.5*35
$GPRMC,222915.000,A,3748.7889,N,12217.8319,W,1.71,121.83,010411,,,D*7F
$GPVTG,121.83,T,,M,1.71,N,3.2,K,D*07
$GPGGA,222916.000,3748.7886,N,12217.8314,W,2,07,1.4,-13.7,M,-25.1,M,1.8,0000*57
$GPGSA,A,3,23,20,32,16,13,24,04,,,,,,2.1,1.4,1.5*35
$GPRMC,222916.000,A,3748.7886,N,12217.8314,W,1.44,124.10,010411,,,D*77
$GPVTG,124.10,T,,M,1.44,N,2.7,K,D*0A
$GPGGA,222917.000,3748.7884,N,12217.8309,W,2,06,1.4,-13.7,M,-25.1,M,1.8,0000*59
$GPGSA,A,3,23,32,16,13,24,04,,,,,,,2.3,1.4,1.9*39
$GPGSV,3,1,12,20,79,269,25,32,68,137,32,23,56,312,24,30,41,097,33*79
$GPGSV,3,2,12,16,36,124,36,31,27,045,24,13,25,284,35,24,23,206,34*72
$GPGSV,3,3,12,04,10,316,20,11,08,204,27,07,02,226,,48,44,195,38*7B
$GPVTG,118.81,T,,M,1.61,N,3.0,K,D*0C
$GPGGA,222918.000,3748.7880,N,12217.8303,W,2,07,1.4,-13.5,M,-25.1,M,2.8,0000*58
$GPGSA,A,3,23,20,32,16,13,24,04,,,,,,2.1,1.4,1.5*35
$GPRMC,222918.000,A,3748.7880,N,12217.8303,W,1.48,91.18,010411,,,D*42
$GPVTG,91.18,T,,M,1.48,N,2.7,K,D*31
$GPGGA,222919.000,3748.7880,N,12217.8297,W,2,07,1.4,-13.8,M,-25.1,M,3.8,0000*59
$GPGSA,A,3,23,20,32,16,13,24,04,,,,,,2.1,1.4,1.5*35
$GPRMC,222919.000,A,3748.7880,N,12217.8297,W,1.56,77.32,010411,,,D*40
$GPVTG,77.32,T,,M,1.56,N,2.9,K,D*30
$GPGGA,222920.000,3748.7880,N,12217.8291,W,2,07,1.4,-14.1,M,-25.1,M,4.8,0000*5C
$GPGSA,A,3,23,20,32,16,13,24,04,,,,,,2.1,1.4,1.5*35
$GPRMC,222920.000,A,3748.7880,N,12217.8291,W,1.57,79.76,010411,,,D*43
$GPVTG,79.76,T,,M,1.57,N,2.9,K,D*3F
$GPGGA,222921.000,3748.7878,N,12217.8287,W,2,08,1.2,-14.0,M,-25.1,M,5.8,0000*54
$GPGSA,A,3,23,20,32,30,16,13,24,04,,,,,1.9,1.2,1.5*3B
$GPRMC,222921.000,A,3748.7878,N,12217.8287,W,1.56,99.19,010411,,,D*44
$GPVTG,99.19,T,,M,1.56,N,2.9,K,D*39
$GPGGA,222922.000,3748.7874,N,12217.8282,W,2,08,1.2,-13.7,M,-25.1,M,1.8,0000*5A
$GPGSA,A,3,23,20,32,30,16,13,24,04,,,,,1.9,1.2,1.5*3B
$GPGSV,3,1,12,20,79,269,26,32,68,137,32,23,56,312,25,30,41,097,36*7E
$GPGSV,3,2,12,16,36,124,31,31,27,045,21,13,25,284,27,24,23,206,36*71
$GPGSV,3,3,12,04,10,316,20,11,08,204,34,07,02,226,,48,44,195,33*72
$GPRMC,222922.000,A,3748.7874,N,12217.8282,W,1.86,120.46,010411,,,D*7A
$GPVTG,120.46,T,,M,1.86,N,3.4,K,D*01
$GPGGA,222923.000,3748.7870,N,12217.8278,W,2,08,1.2,-13.7,M,-25.1,M,1.8,0000*5A
$GPGSA,A,3,23,20,32,30,16,13,24,04,,,,,1.9,1.2,1.5*3B
$GPRMC,222923.000,A,3748.7870,N,12217.8278,W,1.61,113.86,010411,,,D*7F
$GPVTG,113.86,T,,M,1.61,N,3.0,K,D*00
$GPGGA,222924.000,3748.7867,N,12217.8273,W,2,08,1.2,-13.5,M,-25.1,M,2.8,0000*51
$GPGSA,A,3,23,20,32,30,16,13,24,04,,,,,1.9,1.2,1.5*3B
$GPRMC,222924.000,A,3748.7867,N,12217.8273,W,1.22,93.60,010411,,,D*43
$GPVTG,93.60,T,,M,1.22,N,2.3,K,D*34
$GPGGA,222925.000,3748.7864,N,12217.8268,W,2,08,1.2,-13.3,M,-25.1,M,3.8,0000*5E
$GPGSA,A,3,23,20,32,30,16,13,24,04,,,,,1.9,1.2,1.5*3B
$GPRMC,222925.000,A,3748.7864,N,12217.8268,W,1.63,106.51,010411,,,D*71
$GPVTG,106.51,T,,M,1.63,N,3.0,K,D*0C
$GPGGA,222926.000,3748.7861,N,12217.8262,W,2,08,1.2,-13.3,M,-25.1,M,4.8,0000*55
$GPGSA,A,3,23,20,32,30,16,13,24,04,,,,,1.9,1.2,1.5*3B
$GPRMC,222926.000,A,3748.7861,N,12217.8262,W,2.13,110.59,010411,,,D*76
$GPVTG,110.59,T,,M,2.13,N,3.9,K,D*0E
$GPGGA,222927.000,3748.7854,N,12217.8256,W,2,08,1.2,-12.9,M,-25.1,M,1.8,0000*5B
$GPGSA,A,3,23,20,32,30,16,13,24,04,,,,,1.9,1.2,1.5*3B
$GPGSV,3,1,12,20,79,269,26,32,68,137,32,23,56,312,24,30,41,097,34*7D
$GPGSV,3,2,12,16,36,124,37,31,27,045,21,13,25,284,23,24,23,206,34*71
$GPGSV,3,3,12,04,10,316,20,11,08,204,22,07,02,226,,48,44,195,38*7E
$GPRMC,222927.000,A,3748.7854,N,12217.8256,W,1.52,103.85,010411,,,D*73
$GPVTG,103.85,T,,M,1.52,N,2.8,K,D*0B
$GPGGA,222928.000,3748.7853,N,12217.8252,W,2,08,1.2,-12.6,M,-25.1,M,1.8,0000*58
$GPGSA,A,3,23,20,32,30,16,13,24,04,,,,,1.9,1.2,1.5*3B
$GPRMC,222928.000,A,3748.7853,N,12217.8252,W,1.57,100.15,010411,,,D*70
$GPVTG,100.15,T,,M,1.57,N,2.9,K,D*05
$GPGGA,222929.000,3748.7848,N,12217.8246,W,2,08,1.2,-11.4,M,-25.1,M,1.8,0000*57
$GPGSA,A,3,23,20,32,30,16,13,24,04,,,,,1.9,1.2,1.5*3B
$GPRMC,222929.000,A,3748.7848,N,12217.8246,W,1.86,113.18,010411,,,D*7D
$GPVTG,113.18,T,,M,1.86,N,3.5,K,D*0B
$GPGGA,222930.000,3748.7845,N,12217.8240,W,2,08,1.2,-11.4,M,-25.1,M,1.8,0000*54
$GPGSA,A,3,23,20,32,30,16,13,24,04,,,,,1.9,1.2,1.5*3B
$GPRMC,222930.000,A,3748.7845,N,12217.8240,W,1.70,111.25,010411,,,D*7B
$GPVTG,111.25,T,,M,1.70,N,3.2,K,D*09
$GPGGA,222931.000,3748.7843,N,12217.8235,W,2,08,1.2,-11.2,M,-25.1,M,2.8,0000*54
$GPGSA,A,3,23,20,32,30,16,13,24,04,,,,,1.9,1.2,1.5*3B
$GPRMC,222931.000,A,3748.7843,N,12217.8235,W,1.65,114.20,010411,,,D*7A
$GPVTG,114.20,T,,M,1.65,N,3.1,K,D*0E
$GPGGA,222932.000,3748.7840,N,12217.8229,W,2,08,1.2,-11.1,M,-25.1,M,1.8,0000*59
$GPGSA,A,3,23,20,32,30,16,13,24,04,,,,,1.9,1.2,1.5*3B
$GPGSV,3,1,12,20,79,269,26,32,68,137,26,23,56,312,24,30,41,097,35*79
$GPGSV,3,2,12,16,36,124,38,31,27,045,21,13,25,284,26,24,23,206,35*7A
$GPGSV,3,3,12,04,10,316,17,11,08,204,23,07,02,226,,48,44,195,38*7B
$GPRMC,222932.000,A,3748.7840,N,12217.8229,W,1.44,91.56,010411,,,D*49
$GPVTG,91.56,T,,M,1.44,N,2.7,K,D*37
$GPGGA,222933.000,3748.7838,N,12217.8225,W,2,08,1.2,-10.7,M,-25.1,M,1.8,0000*5C
$GPGSA,A,3,23,20,32,30,16,13,24,04,,,,,1.9,1.2,1.5*3B
$GPRMC,222933.000,A,3748.7838,N,12217.8225,W,1.45,91.90,010411,,,D*40
$GPVTG,91.90,T,,M,1.45,N,2.7,K,D*3C
$GPGGA,222934.000,3748.7835,N,12217.8220,W,2,08,1.2,-10.1,M,-25.1,M,1.8,0000*55
$GPGSA,A,3,23,20,32,30,16,13,24,04,,,,,1.9,1.2,1.5*3B
$GPRMC,222934.000,A,3748.7835,N,12217.8220,W,1.78,114.57,010411,,,D*76
$GPVTG,114.57,T,,M,1.78,N,3.3,K,D*00
$GPGGA,222935.000,3748.7831,N,12217.8214,W,2,08,1.2,-9.6,M,-25.1,M,1.8,0000*68
$GPGSA,A,3,23,20,32,30,16,13,24,04,,,,,1.9,1.2,1.5*3B
$GPRMC,222935.000,A,3748.7831,N,12217.8214,W,2.08,124.81,010411,,,D*78
$GPVTG,124.81,T,,M,2.08,N,3.9,K,D*06
$GPGGA,222936.000,3748.7826,N,12217.8208,W,2,08,1.2,-8.7,M,-25.1,M,2.8,0000*63
$GPGSA,A,3,23,20,32,30,16,13,24,04,,,,,1.9,1.2,1.5*3B
$GPRMC,222936.000,A,3748.7826,N,12217.8208,W,2.00,124.18,010411,,,D*78
$GPVTG,124.18,T,,M,2.00,N,3.7,K,D*00
$GPGGA,222937.000,3748.7822,N,12217.8202,W,2,08,1.2,-8.1,M,-25.1,M,3.8,0000*6B
$GPGSA,A,3,23,20,32,30,16,13,24,04,,,,,1.9,1.2,1.5*3B
$GPGSV,3,1,12,20,79,269,23,32,68,137,33,23,56,312,24,30,41,097,35*78
$GPGSV,3,2,12,16,36,124,38,31,27,045,21,13,25,284,33,24,23,206,36*7D
$GPRMC,222937.000,A,3748.7822,N,12217.8202,W,1.95,112.08,010411,,,D*7C
$GPVTG,112.08,T,,M,1.95,N,3.6,K,D*0A
$GPGGA,222938.000,3748.7816,N,12217.8196,W,2,08,1.2,-7.7,M,-25.1,M,4.8,0000*63
$GPGSA,A,3,23,20,32,30,16,13,24,04,,,,,1.9,1.2,1.5*3B
$GPRMC,222938.000,A,3748.7816,N,12217.8196,W,1.63,112.03,010411,,,D*78
$GPVTG,112.03,T,,M,1.63,N,3.0,K,D*0E
$GPGGA,222939.000,3748.7814,N,12217.8191,W,2,08,1.2,-7.6,M,-25.1,M,1.8,0000*63
$GPGSA,A,3,23,20,32,30,16,13,24,04,,,,,1.9,1.2,1.5*3B
$GPRMC,222939.000,A,3748.7814,N,12217.8191,W,1.52,119.27,010411,,,D*73
$GPVTG,119.27,T,,M,1.52,N,2.8,K,D*08
$GPGGA,222940.000,3748.7810,N,12217.8185,W,2,08,1.2,-7.0,M,-25.1,M,1.8,0000*6A
$GPGSA,A,3,23,20,32,30,16,13,24,04,,,,,1.9,1.2,1.5*3B
$GPRMC,222940.000,A,3748.7810,N,12217.8185,W,1.87,114.00,010411,,,D*7C
$GPVTG,114.00,T,,M,1.87,N,3.5,K,D*04
$GPGGA,222941.000,3748.7807,N,12217.8179,W,2,08,1.2,-6.5,M,-25.1,M,1.8,0000*6A
$GPGSA,A,3,23,20,32,30,16,13,24,04,,,,,1.9,1.2,1.5*3B
$GPRMC,222941.000,A,3748.7807,N,12217.8179,W,1.59,112.09,010411,,,D*74
$GPVTG,112.09,T,,M,1.59,N,2.9,K,D*05
$GPGGA,222942.000,3748.7804,N,12217.8172,W,2,08,1.2,-6.2,M,-25.1,M,2.8,0000*65
$GPGSA,A,3,23,20,32,30,16,13,24,04,,,,,1.9,1.2,1.5*3B
$GPGSV,3,1,12,20,79,269,25,32,68,137,33,23,56,312,24,30,41,097,31*7A
$GPGSV,3,2,12,16,36,124,37,31,27,045,22,13,25,284,29,24,23,206,37*7B
$GPGSV,3,3,12,04,10,316,19,11,08,204,36,07,02,226,,48,44,195,38*71
$GPRMC,222942.000,A,3748.7804,N,12217.8172,W,1.73,113.11,010411,,,D*7F
$GPVTG,113.11,T,,M,1.73,N,3.2,K,D*0F
$GPGGA,222943.000,3748.7802,N,12217.8164,W,2,08,1.2,-5.8,M,-25.1,M,3.8,0000*6D
$GPGSA,A,3,23,20,32,30,16,13,24,04,,,,,1.9,1.2,1.5*3B
$GPRMC,222943.000,A,3748.7802,N,12217.8164,W,2.19,109.82,010411,,,D*71
$GPVTG,109.82,T,,M,2.19,N,4.0,K,D*04
$GPGGA,222944.000,3748.7799,N,12217.8156,W,2,08,1.2,-5.3,M,-25.1,M,4.8,0000*6A
$GPGSA,A,3,23,20,32,30,16,13,24,04,,,,,1.9,1.2,1.5*3B
$GPRMC,222944.000,A,3748.7799,N,12217.8156,W,1.96,117.05,010411,,,D*7E
$GPVTG,117.05,T,,M,1.96,N,3.6,K,D*01
$GPGGA,222945.000,3748.7794,N,12217.8150,W,2,08,1.2,-4.7,M,-25.1,M,1.8,0000*60
$GPGSA,A,3,23,20,32,30,16,13,24,04,,,,,1.9,1.2,1.5*3B
$GPRMC,222945.000,A,3748.7794,N,12217.8150,W,2.19,124.68,010411,,,D*7B
$GPVTG,124.68,T,,M,2.19,N,4.0,K,D*0F
$GPGGA,222946.000,3748.7790,N,12217.8142,W,2,08,1.2,-4.4,M,-25.1,M,1.8,0000*67
$GPGSA,A,3,23,20,32,30,16,13,24,04,,,,,1.9,1.2,1.5*3B
$GPRMC,222946.000,A,3748.7790,N,12217.8142,W,2.29,124.07,010411,,,D*75
$GPVTG,124.07,T,,M,2.29,N,4.2,K,D*07
$GPGGA,222947.000,3748.7787,N,12217.8135,W,2,08,1.2,-4.2,M,-25.1,M,1.8,0000*66
$GPGSA,A,3,23,20,32,30,16,13,24,04,,,,,1.9,1.2,1.5*3B
$GPGSV,3,1,12,20,79,269,25,32,68,137,32,23,56,312,25,30,41,097,33*78
$GPGSV,3,2,12,16,36,124,37,31,27,045,21,13,25,284,34,24,23,206,36*75
$GPGSV,3,3,12,04,10,316,20,11,08,204,35,07,02,226,,48,44,195,39*79
$GPRMC,222947.000,A,3748.7787,N,12217.8135,W,2.22,121.79,010411,,,D*75
$GPVTG,121.79,T,,M,2.22,N,4.1,K,D*03
$GPGGA,222948.000,3748.7783,N,12217.8127,W,2,08,1.2,-3.8,M,-25.1,M,2.8,0000*60
$GPGSA,A,3,23,20,32,30,16,13,24,04,,,,,1.9,1.2,1.5*3B
$GPRMC,222948.000,A,3748.7783,N,12217.8127,W,2.14,122.57,010411,,,D*77
$GPVTG,122.57,T,,M,2.14,N,4.0,K,D*08
$GPGGA,222949.000,3748.7780,N,12217.8120,W,2,08,1.2,-3.6,M,-25.1,M,1.8,0000*68
$GPGSA,A,3,23,20,32,30,16,13,24,04,,,,,1.9,1.2,1.5*3B
$GPRMC,222949.000,A,3748.7780,N,12217.8120,W,2.11,115.28,010411,,,D*7B
$GPVTG,115.28,T,,M,2.11,N,3.9,K,D*0F
$GPGGA,222950.000,3748.7777,N,12217.8112,W,2,08,1.2,-3.4,M,-25.1,M,2.8,0000*68
$GPGSA,A,3,23,20,32,30,16,13,24,04,,,,,1.9,1.2,1.5*3B
$GPRMC,222950.000,A,3748.7777,N,12217.8112,W,2.10,117.62,010411,,,D*77
$GPVTG,117.62,T,,M,2.10,N,3.9,K,D*02
$GPGGA,222951.000,3748.7773,N,12217.8105,W,2,08,1.2,-3.2,M,-25.1,M,1.8,0000*6E
$GPGSA,A,3,23,20,32,30,16,13,24,04,,,,,1.9,1.2,1.5*3B
$GPRMC,222951.000,A,3748.7773,N,12217.8105,W,2.10,119.64,010411,,,D*7C
$GPVTG,119.64,T,,M,2.10,N,3.9,K,D*0A
$GPGGA,222952.000,3748.7771,N,12217.8098,W,2,08,1.2,-3.1,M,-25.1,M,0.8,0000*68
$GPGSA,A,3,23,20,32,30,16,13,24,04,,,,,1.9,1.2,1.5*3B
$GPGSV,3,1,12,20,79,269,26,32,68,137,33,23,56,312,24,30,41,097,34*7C
$GPGSV,3,2,12,16,36,124,37,31,27,045,22,13,25,284,33,24,23,206,36*71
$GPGSV,3,3,12,04,10,316,20,11,08,204,26,07,02,226,,48,44,195,38*7A
$GPRMC,222952.000,A,3748.7771,N,12217.8098,W,2.05,112.62,010411,,,D*71
$GPVTG,112.62,T,,M,2.05,N,3.8,K,D*02
$GPGGA,222953.000,3748.7768,N,12217.8090,W,2,08,1.2,-3.0,M,-25.1,M,1.8,0000*69
$GPGSA,A,3,23,20,32,30,16,13,24,04,,,,,1.9,1.2,1.5*3B
$GPRMC,222953.000,A,3748.7768,N,12217.8090,W,2.04,112.04,010411,,,D*71
$GPVTG,112.04,T,,M,2.04,N,3.8,K,D*03
$GPGGA,222954.000,3748.7765,N,12217.8083,W,2,08,1.2,-3.0,M,-25.1,M,2.8,0000*62
$GPGSA,A,3,23,20,32,30,16,13,24,04,,,,,1.9,1.2,1.5*3B
$GPRMC,222954.000,A,3748.7765,N,12217.8083,W,2.26,125.03,010411,,,D*7A
$GPVTG,125.03,T,,M,2.26,N,4.2,K,D*0D
$GPGGA,222955.000,3748.7763,N,12217.8075,W,2,08,1.2,-3.8,M,-25.1,M,3.8,0000*65
$GPGSA,A,3,23,20,32,30,16,13,24,04,,,,,1.9,1.2,1.5*3B
$GPRMC,222955.000,A,3748.7763,N,12217.8075,W,2.08,112.24,010411,,,D*79
$GPVTG,112.24,T,,M,2.08,N,3.9,K,D*0C
$GPGGA,222956.000,3748.7760,N,12217.8068,W,2,08,1.2,-3.7,M,-25.1,M,4.8,0000*61
$GPGSA,A,3,23,20,32,30,16,13,24,04,,,,,1.9,1.2,1.5*3B
$GPRMC,222956.000,A,3748.7760,N,12217.8068,W,1.78,113.13,010411,,,D*74
$GPVTG,113.13,T,,M,1.78,N,3.3,K,D*07
$GPGGA,222957.000,3748.7757,N,12217.8062,W,2,08,1.2,-3.7,M,-25.1,M,1.8,0000*6B
$GPGSA,A,3,23,20,32,30,16,13,24,04,,,,,1.9,1.2,1.5*3B
$GPGSV,3,1,12,20,79,269,26,32,68,137,33,23,56,312,24,30,41,097,34*7C
$GPGSV,3,2,12,16,36,124,36,31,27,045,27,13,25,284,28,24,23,206,36*7F
$GPGSV,3,3,12,04,10,316,20,11,08,204,25,07,02,226,,48,44,195,38*79
$GPRMC,222957.000,A,3748.7757,N,12217.8062,W,1.86,126.54,010411,,,D*7F
$GPVTG,126.54,T,,M,1.86,N,3.4,K,D*04
$GPGGA,222958.000,3748.7753,N,12217.8056,W,2,08,1.2,-3.6,M,-25.1,M,1.8,0000*66
$GPGSA,A,3,23,20,32,30,16,13,24,04,,,,,1.9,1.2,1.5*3B
$GPRMC,222958.000,A,3748.7753,N,12217.8056,W,2.23,127.08,010411,,,D*77
$GPVTG,127.08,T,,M,2.23,N,4.1,K,D*02
$GPGGA,222959.000,3748.7748,N,12217.8050,W,2,08,1.2,-3.3,M,-25.1,M,1.8,0000*6E
$GPGSA,A,3,23,20,32,30,16,13,24,04,,,,,1.9,1.2,1.5*3B
$GPRMC,222959.000,A,3748.7748,N,12217.8050,W,2.21,124.42,010411,,,D*75
$GPVTG,124.42,T,,M,2.21,N,4.1,K,D*0D
$GPGGA,223000.000,3748.7747,N,12217.8041,W,2,08,1.2,-4.0,M,-25.1,M,2.8,0000*62
$GPGSA,A,3,23,20,32,30,16,13,24,04,,,,,1.9,1.2,1.5*3B
$GPRMC,223000.000,A,3748.7747,N,12217.8041,W,1.82,107.25,010411,,,D*74
$GPVTG,107.25,T,,M,1.82,N,3.4,K,D*05
$GPGGA,223001.000,3748.7744,N,12217.8034,W,2,08,1.2,-4.0,M,-25.1,M,1.8,0000*61
$GPGSA,A,3,23,20,32,30,16,13,24,04,,,,,1.9,1.2,1.5*3B
$GPRMC,223001.000,A,3748.7744,N,12217.8034,W,1.85,128.38,010411,,,D*72
$GPVTG,128.38,T,,M,1.85,N,3.4,K,D*03
$GPGGA,223002.000,3748.7744,N,12217.8029,W,2,08,1.2,-4.3,M,-25.1,M,2.8,0000*6E
$GPGSA,A,3,23,20,32,30,16,13,24,04,,,,,1.9,1.2,1.5*3B
$GPGSV,3,1,12,20,79,269,27,32,68,137,33,23,56,312,25,30,41,097,35*7D
$GPGSV,3,2,12,16,36,124,37,31,27,045,19,13,25,284,29,24,23,206,36*72
$GPGSV,3,3,12,04,10,316,21,11,08,204,25,07,02,226,,48,44,195,36*76
$GPRMC,223002.000,A,3748.7744,N,12217.8029,W,1.77,109.05,010411,,,D*7D
$GPGGA,223003.000,3748.7741,N,12217.8023,W,2,08,1.2,-4.4,M,-25.1,M,1.8,0000*64
$GPGSA,A,3,23,20,32,30,16,13,24,04,,,,,1.9,1.2,1.5*3B
$GPRMC,223003.000,A,3748.7741,N,12217.8023,W,2.02,122.81,010411,,,D*77
$GPVTG,122.81,T,,M,2.02,N,3.7,K,D*04
$GPGGA,223004.000,3748.7738,N,12217.8016,W,2,08,1.2,-4.5,M,-25.1,M,1.8,0000*6A
$GPGSA,A,3,23,20,32,30,16,13,24,04,,,,,1.9,1.2,1.5*3B
$GPRMC,223004.000,A,3748.7738,N,12217.8016,W,2.03,119.93,010411,,,D*72
$GPVTG,119.93,T,,M,2.03,N,3.8,K,D*01
$GPGGA,223005.000,3748.7735,N,12217.8010,W,2,08,1.2,-4.6,M,-25.1,M,1.8,0000*63
$GPGSA,A,3,23,20,32,30,16,13,24,04,,,,,1.9,1.2,1.5*3B
$GPRMC,223005.000,A,3748.7735,N,12217.8010,W,1.84,125.00,010411,,,D*71
$GPVTG,125.00,T,,M,1.84,N,3.4,K,D*04
$GPGGA,223006.000,3748.7732,N,12217.8003,W,2,08,1.2,-4.7,M,-25.1,M,1.8,0000*64
$GPGSA,A,3,23,20,32,30,16,13,24,04,,,,,1.9,1.2,1.5*3B
$GPRMC,223006.000,A,3748.7732,N,12217.8003,W,2.23,112.06,010411,,,D*7B
$GPVTG,112.06,T,,M,2.23,N,4.1,K,D*0A
$GPGGA,223007.000,3748.7729,N,12217.7995,W,2,08,1.2,-4.5,M,-25.1,M,2.8,0000*67
$GPGSA,A,3,23,20,32,30,16,13,24,04,,,,,1.9,1.2,1.5*3B
$GPGSV,3,1,12,20,79,269,27,32,68,137,33,23,56,312,25,30,41,097,35*7D
$GPGSV,3,2,12,16,36,124,37,31,27,045,24,13,25,284,31,24,23,206,37*74
$GPGSV,3,3,12,04,10,316,21,11,08,204,21,07,02,226,,48,44,195,36*72
$GPRMC,223007.000,A,3748.7729,N,12217.7995,W,1.96,110.72,010411,,,D*75
$GPVTG,110.72,T,,M,1.96,N,3.6,K,D*06
$GPGGA,223008.000,3748.7726,N,12217.7989,W,2,08,1.2,-4.4,M,-25.1,M,3.8,0000*6A
$GPGSA,A,3,23,20,32,30,16,13,24,04,,,,,1.9,1.2,1.5*3B
$GPRMC,223008.000,A,3748.7726,N,12217.7989,W,1.85,112.87,010411,,,D*72
$GPVTG,112.87,T,,M,1.85,N,3.4,K,D*0E
$GPGGA,223009.000,3748.7723,N,12217.7982,W,2,08,1.2,-4.3,M,-25.1,M,1.8,0000*60
$GPGSA,A,3,23,20,32,30,16,13,24,04,,,,,1.9,1.2,1.5*3B
$GPRMC,223009.000,A,3748.7723,N,12217.7982,W,1.91,114.61,010411,,,D*76
$GPVTG,114.61,T,,M,1.91,N,3.5,K,D*04
$GPGGA,223010.000,3748.7719,N,12217.7976,W,2,08,1.2,-4.2,M,-25.1,M,1.8,0000*6B
$GPGSA,A,3,23,20,32,30,16,13,24,04,,,,,1.9,1.2,1.5*3B
$GPRMC,223010.000,A,3748.7719,N,12217.7976,W,2.08,124.68,010411,,,D*75
$GPVTG,124.68,T,,M,2.08,N,3.8,K,D*00
$GPGGA,223011.000,3748.7716,N,12217.7969,W,2,08,1.2,-4.1,M,-25.1,M,1.8,0000*68
$GPGSA,A,3,23,20,32,30,16,13,24,04,,,,,1.9,1.2,1.5*3B
$GPRMC,223011.000,A,3748.7716,N,12217.7969,W,1.91,115.68,010411,,,D*74
$GPVTG,115.68,T,,M,1.91,N,3.5,K,D*0C
$GPGGA,223012.000,3748.7713,N,12217.7963,W,2,08,1.2,-4.0,M,-25.1,M,1.8,0000*65
$GPGSA,A,3,23,20,32,30,16,13,24,04,,,,,1.9,1.2,1.5*3B
$GPGSV,3,1,12,20,79,269,27,32,68,137,33,23,56,312,25,30,41,097,34*7C
$GPGSV,3,2,12,16,36,124,36,31,27,045,24,13,25,284,31,24,23,206,37*75
$GPGSV,3,3,12,04,10,316,21,11,08,204,30,07,02,226,,48,44,195,37*73
