$ADVER,3080,2.3
$GPRMC,222734.619,A,3748.1910,N,12217.6772,W,0.06,312.61,100415,,,A*72
$GPGGA,222735.619,3748.1910,N,12217.6771,W,1,06,1.6,16.8,M,-25.1,M,,0000*57
$GPGSA,A,3,10,20,23,07,09,28,,,,,,,2.8,1.6,2.3*38
$GPRMC,222735.619,A,3748.1910,N,12217.6771,W,0.09,169.02,100415,,,A*74
$GPVTG,169.02,T,,M,0.09,N,0.2,K,A*0A
$GPGGA,222736.000,3748.1909,N,12217.6771,W,1,06,1.7,16.8,M,-25.1,M,,0000*53
$GPGSA,A,3,10,20,23,07,09,28,,,,,,,2.8,1.7,2.3*39
$GPRMC,222736.000,A,3748.1909,N,12217.6771,W,0.29,179.83,100415,,,A*7B
$GPVTG,179.83,T,,M,0.29,N,0.5,K,A*07
$GPGGA,222737.000,3748.1909,N,12217.6770,W,1,06,1.7,16.8,M,-25.1,M,,0000*53
$GPGSA,A,3,10,20,23,07,09,28,,,,,,,2.8,1.7,2.3*39
$GPRMC,222737.000,A,3748.1909,N,12217.6770,W,0.30,150.80,100415,,,A*7B
$GPVTG,150.80,T,,M,0.30,N,0.6,K,A*04
$GPGGA,222738.000,3748.1908,N,12217.6770,W,1,06,1.7,16.8,M,-25.1,M,,0000*5D
$GPGSA,A,3,10,20,23,07,09,28,,,,,,,2.8,1.7,2.3*39
$GPRMC,222738.000,A,3748.1908,N,12217.6770,W,0.06,246.19,100415,,,A*74
$GPVTG,246.19,T,,M,0.06,N,0.1,K,A*02
$GPGGA,222739.000,3748.1908,N,12217.6770,W,1,06,1.7,16.8,M,-25.1,M,,0000*5C
$GPGSA,A,3,10,20,23,07,09,28,,,,,,,2.8,1.7,2.3*39
$GPGSV,3,1,12,07,61,047,36,28,51,234,40,09,41,152,41,20,22,257,37*78
$GPGSV,3,2,12,10,21,225,35,23,11,145,36,30,63,328,37,19,29,061,37*75
$GPGSV,3,3,12,05,22,284,34,27,13,040,,13,12,316,33,26,12,316,*73
$GPRMC,222739.000,A,3748.1908,N,12217.6770,W,0.22,143.61,100415,,,A*7A
$GPVTG,143.61,T,,M,0.22,N,0.4,K,A*08
$GPGGA,222740.000,3748.1908,N,12217.6770,W,1,06,1.7,16.8,M,-25.1,M,,0000*52
$GPGSA,A,3,10,20,23,07,09,28,,,,,,,2.8,1.7,2.3*39
$GPRMC,222740.000,A,3748.1908,N,12217.6770,W,0.04,170.28,100415,,,A*7D
$GPVTG,170.28,T,,M,0.04,N,0.1,K,A*04
$GPGGA,222741.000,3748.1908,N,12217.6769,W,1,06,1.7,16.8,M,-25.1,M,,0000*5B
$GPGSA,A,3,10,20,23,07,09,28,,,,,,,2.8,1.7,2.3*39
$GPRMC,222741.000,A,3748.1908,N,12217.6769,W,0.59,86.58,100415,,,A*43
$GPVTG,86.58,T,,M,0.59,N,1.1,K,A*32
$GPGGA,222742.000,3748.1908,N,12217.6768,W,1,06,1.7,16.8,M,-25.1,M,,0000*59
$GPGSA,A,3,10,20,23,07,09,28,,,,,,,2.8,1.7,2.3*39
$GPRMC,222742.000,A,3748.1908,N,12217.6768,W,0.20,207.72,100415,,,A*7C
$GPVTG,207.72,T,,M,0.20,N,0.4,K,A*0B
$GPGGA,222743.000,3748.1908,N,12217.6768,W,1,06,1.7,16.8,M,-25.1,M,,0000*58
$GPGSA,A,3,10,20,23,07,09,28,,,,,,,2.8,1.7,2.3*39
$GPRMC,222743.000,A,3748.1908,N,12217.6768,W,0.06,152.48,100415,,,A*73
$GPVTG,152.48,T,,M,0.06,N,0.1,K,A*00
$GPGGA,222744.000,3748.1908,N,12217.6768,W,1,06,1.7,16.8,M,-25.1,M,,0000*5F
$GPGSA,A,3,10,20,23,07,09,28,,,,,,,2.8,1.7,2.3*39
$GPGSV,3,1,12,07,61,047,37,28,51,234,40,09,41,152,41,20,22,257,36*78
$GPGSV,3,2,12,10,21,225,35,23,11,145,36,30,63,328,36,19,29,061,38*7B
$GPGSV,3,3,12,05,22,284,34,27,13,040,33,13,12,316,23,26,12,316,*72
$GPRMC,222744.000,A,3748.1908,N,12217.6768,W,0.07,212.85,100415,,,A*73
$GPGGA,222745.000,3748.1907,N,12217.6768,W,1,06,1.7,16.8,M,-25.1,M,,0000*51
$GPGSA,A,3,10,20,23,07,09,28,,,,,,,2.8,1.7,2.3*39
$GPRMC,222745.000,A,3748.1907,N,12217.6768,W,0.07,162.21,100415,,,A*77
$GPVTG,162.21,T,,M,0.07,N,0.1,K,A*0D
$GPGGA,222746.000,3748.1908,N,12217.6769,W,1,06,1.7,16.8,M,-25.1,M,,0000*5C
$GPGSA,A,3,10,20,23,07,09,28,,,,,,,2.8,1.7,2.3*39
$GPRMC,222746.000,A,3748.1908,N,12217.6769,W,0.26,276.20,100415,,,A*7E
$GPVTG,276.20,T,,M,0.26,N,0.5,K,A*0D
$GPGGA,222747.000,3748.1908,N,12217.6769,W,1,05,2.0,16.8,M,-25.1,M,,0000*5A
$GPGSA,A,3,10,20,07,09,28,,,,,,,,4.2,2.0,3.7*35
$GPRMC,222747.000,A,3748.1908,N,12217.6769,W,0.11,152.34,100415,,,A*7B
$GPVTG,152.34,T,,M,0.11,N,0.2,K,A*0E
$GPGGA,222748.000,3748.1907,N,12217.6769,W,1,05,2.0,16.7,M,-25.1,M,,0000*55
$GPGSA,A,3,10,20,07,09,28,,,,,,,,4.2,2.0,3.7*35
$GPRMC,222748.000,A,3748.1907,N,12217.6769,W,0.24,121.63,100415,,,A*7B
$GPVTG,121.63,T,,M,0.24,N,0.4,K,A*08
$GPGGA,222749.000,3748.1907,N,12217.6769,W,1,05,2.0,16.6,M,-25.1,M,,0000*55
$GPGSA,A,3,10,20,07,09,28,,,,,,,,4.2,2.0,3.7*35
$GPGSV,3,1,12,30,63,329,36,07,61,047,37,28,51,234,40,09,41,152,41*74
$GPGSV,3,2,12,19,29,061,39,05,22,284,34,20,22,257,35,10,21,225,35*7C
$GPGSV,3,3,12,27,13,040,27,13,12,316,29,26,12,316,,23,11,145,*70
$GPRMC,222749.000,A,3748.1907,N,12217.6769,W,0.06,168.98,100415,,,A*73
$GPVTG,168.98,T,,M,0.06,N,0.1,K,A*04
$GPGGA,222750.000,3748.1907,N,12217.6769,W,1,05,2.0,16.6,M,-25.1,M,,0000*5D
$GPGSA,A,3,10,20,07,09,28,,,,,,,,4.2,2.0,3.7*35
$GPRMC,222750.000,A,3748.1907,N,12217.6769,W,0.07,155.72,100415,,,A*70
$GPVTG,155.72,T,,M,0.07,N,0.1,K,A*0F
$GPGGA,222751.000,3748.1907,N,12217.6769,W,1,05,2.0,16.6,M,-25.1,M,,0000*5C
$GPGSA,A,3,10,20,07,09,28,,,,,,,,4.2,2.0,3.7*35
$GPRMC,222751.000,A,3748.1907,N,12217.6769,W,0.07,136.58,100415,,,A*7C
$GPVTG,136.58,T,,M,0.07,N,0.1,K,A*02
$GPGGA,222752.000,3748.1907,N,12217.6768,W,1,05,2.0,16.6,M,-25.1,M,,0000*5E
$GPGSA,A,3,10,20,07,09,28,,,,,,,,4.2,2.0,3.7*35
$GPRMC,222752.000,A,3748.1907,N,12217.6768,W,0.09,134.74,100415,,,A*7C
$GPVTG,134.74,T,,M,0.09,N,0.2,K,A*03
$GPGGA,222753.000,3748.1906,N,12217.6768,W,1,05,2.0,16.5,M,-25.1,M,,0000*5D
$GPGSA,A,3,10,20,07,09,28,,,,,,,,4.2,2.0,3.7*35
$GPRMC,222753.000,A,3748.1906,N,12217.6768,W,0.05,106.30,100415,,,A*71
$GPVTG,106.30,T,,M,0.05,N,0.1,K,A*0D
$GPGGA,222754.000,3748.1906,N,12217.6768,W,1,05,2.0,16.5,M,-25.1,M,,0000*5A
$GPGSA,A,3,10,20,07,09,28,,,,,,,,4.2,2.0,3.7*35
$GPGSV,3,1,12,30,63,329,36,07,61,047,37,28,51,234,40,09,41,152,41*74
$GPGSV,3,2,12,19,29,061,39,05,22,284,35,20,22,257,31,10,21,225,35*79
$GPGSV,3,3,12,27,13,040,26,13,12,316,24,26,12,316,,23,11,145,*7C
$GPRMC,222754.000,A,3748.1906,N,12217.6768,W,0.07,112.30,100415,,,A*71
$GPVTG,112.30,T,,M,0.07,N,0.1,K,A*0A
$GPGGA,222755.000,3748.1906,N,12217.6768,W,1,05,2.0,16.5,M,-25.1,M,,0000*5B
$GPGSA,A,3,10,20,07,09,28,,,,,,,,4.2,2.0,3.7*35
$GPRMC,222755.000,A,3748.1906,N,12217.6768,W,0.09,130.38,100415,,,A*76
$GPVTG,130.38,T,,M,0.09,N,0.2,K,A*0F
$GPGGA,222756.000,3748.1906,N,12217.6768,W,1,05,2.0,16.4,M,-25.1,M,,0000*59
$GPGSA,A,3,10,20,07,09,28,,,,,,,,4.2,2.0,3.7*35
$GPRMC,222756.000,A,3748.1906,N,12217.6768,W,0.04,212.83,100415,,,A*7B
$GPVTG,212.83,T,,M,0.04,N,0.1,K,A*02
$GPGGA,222757.000,3748.1906,N,12217.6768,W,1,05,2.0,16.3,M,-25.1,M,,0000*5F
$GPGSA,A,3,10,20,07,09,28,,,,,,,,4.2,2.0,3.7*35
$GPRMC,222757.000,A,3748.1906,N,12217.6768,W,0.10,122.07,100415,,,A*73
$GPVTG,122.07,T,,M,0.10,N,0.2,K,A*08
$GPGGA,222758.000,3748.1906,N,12217.6768,W,1,05,2.0,16.1,M,-25.1,M,,0000*52
$GPGSA,A,3,10,20,07,09,28,,,,,,,,4.2,2.0,3.7*35
$GPRMC,222758.000,A,3748.1906,N,12217.6768,W,0.11,114.81,100415,,,A*76
$GPVTG,114.81,T,,M,0.11,N,0.2,K,A*02
$GPGGA,222759.000,3748.1907,N,12217.6768,W,1,05,2.0,15.6,M,-25.1,M,,0000*56
$GPGSA,A,3,10,20,07,09,28,,,,,,,,4.2,2.0,3.7*35
$GPGSV,3,1,12,30,63,329,26,07,61,047,25,28,51,234,31,09,41,152,37*71
$GPGSV,3,2,12,19,29,061,27,05,22,284,29,20,22,257,26,10,21,225,26*7F
$GPGSV,3,3,12,27,13,040,19,13,12,316,22,26,12,316,,23,11,145,*76
$GPRMC,222759.000,A,3748.1907,N,12217.6768,W,0.49,184.26,100415,,,A*7F
$GPGGA,222800.000,3748.1913,N,12217.6767,W,1,05,2.0,13.7,M,-25.1,M,,0000*58
$GPGSA,A,3,10,20,07,09,28,,,,,,,,4.2,2.0,3.7*35
$GPRMC,222800.000,A,3748.1913,N,12217.6767,W,0.18,46.63,100415,,,A*4C
$GPVTG,46.63,T,,M,0.18,N,0.3,K,A*30
$GPGGA,222801.000,3748.1918,N,12217.6765,W,1,05,2.0,12.6,M,-25.1,M,,0000*50
$GPGSA,A,3,10,20,07,09,28,,,,,,,,4.2,2.0,3.7*35
$GPRMC,222801.000,A,3748.1918,N,12217.6765,W,0.31,35.01,100415,,,A*4F
$GPVTG,35.01,T,,M,0.31,N,0.6,K,A*3E
$GPGGA,222802.000,3748.1920,N,12217.6766,W,1,05,2.0,12.0,M,-25.1,M,,0000*5D
$GPGSA,A,3,10,20,07,09,28,,,,,,,,4.2,2.0,3.7*35
$GPRMC,222802.000,A,3748.1920,N,12217.6766,W,0.16,42.83,100415,,,A*4B
$GPVTG,42.83,T,,M,0.16,N,0.3,K,A*34
$GPGGA,222803.000,3748.1923,N,12217.6766,W,1,05,2.0,11.4,M,-25.1,M,,0000*58
$GPGSA,A,3,10,20,07,09,28,,,,,,,,4.2,2.0,3.7*35
$GPRMC,222803.000,A,3748.1923,N,12217.6766,W,0.16,40.84,100415,,,A*4C
$GPVTG,40.84,T,,M,0.16,N,0.3,K,A*31
$GPGGA,222804.000,3748.1925,N,12217.6767,W,1,05,2.0,10.8,M,-25.1,M,,0000*55
$GPGSA,A,3,10,20,07,09,28,,,,,,,,4.2,2.0,3.7*35
$GPGSV,3,1,12,30,63,329,28,07,61,047,34,28,51,234,38,09,41,152,38*79
$GPGSV,3,2,12,19,29,061,30,05,22,284,33,20,22,257,29,10,21,225,30*7A
$GPGSV,3,3,12,27,13,040,20,13,12,316,24,26,12,316,,23,11,145,*7A
$GPRMC,222804.000,A,3748.1925,N,12217.6767,W,0.17,42.10,100415,,,A*42
$GPVTG,42.10,T,,M,0.17,N,0.3,K,A*3F
$GPGGA,222805.000,3748.1928,N,12217.6768,W,1,05,2.0,10.2,M,-25.1,M,,0000*5C
$GPGSA,A,3,10,20,07,09,28,,,,,,,,4.2,2.0,3.7*35
$GPRMC,222805.000,A,3748.1928,N,12217.6768,W,0.16,40.62,100415,,,A*47
$GPVTG,40.62,T,,M,0.16,N,0.3,K,A*39
$GPGGA,222806.000,3748.1930,N,12217.6769,W,1,05,2.0,9.6,M,-25.1,M,,0000*6B
$GPGSA,A,3,10,20,07,09,28,,,,,,,,4.2,2.0,3.7*35
$GPRMC,222806.000,A,3748.1930,N,12217.6769,W,0.17,39.70,100415,,,A*40
$GPVTG,39.70,T,,M,0.17,N,0.3,K,A*35
$GPGGA,222807.000,3748.1932,N,12217.6769,W,1,05,2.0,9.3,M,-25.1,M,,0000*6D
$GPGSA,A,3,10,20,07,09,28,,,,,,,,4.2,2.0,3.7*35
$GPRMC,222807.000,A,3748.1932,N,12217.6769,W,0.16,52.22,100415,,,A*48
$GPVTG,52.22,T,,M,0.16,N,0.3,K,A*3E
$GPGGA,222808.000,3748.1934,N,12217.6769,W,1,05,2.0,8.8,M,-25.1,M,,0000*6E
$GPGSA,A,3,10,20,07,09,28,,,,,,,,4.2,2.0,3.7*35
$GPRMC,222808.000,A,3748.1934,N,12217.6769,W,0.14,52.15,100415,,,A*47
$GPVTG,52.15,T,,M,0.14,N,0.3,K,A*38
$GPGGA,222809.000,3748.1936,N,12217.6770,W,1,05,2.0,8.2,M,-25.1,M,,0000*6F
$GPGSA,A,3,10,20,07,09,28,,,,,,,,4.2,2.0,3.7*35
$GPGSV,3,1,12,30,63,329,29,07,61,047,34,28,51,234,38,09,41,152,38*78
$GPGSV,3,2,12,19,29,061,31,05,22,284,33,20,22,257,29,10,21,225,30*7B
$GPGSV,3,3,12,27,13,040,26,13,12,316,25,26,12,316,,23,11,145,*7D
$GPRMC,222809.000,A,3748.1936,N,12217.6770,W,0.11,32.70,100415,,,A*4C
$GPVTG,32.70,T,,M,0.11,N,0.2,K,A*39
$GPGGA,222810.000,3748.1937,N,12217.6771,W,1,05,2.0,7.8,M,-25.1,M,,0000*62
$GPGSA,A,3,10,20,07,09,28,,,,,,,,4.2,2.0,3.7*35
$GPRMC,222810.000,A,3748.1937,N,12217.6771,W,0.18,36.44,100415,,,A*4E
$GPVTG,36.44,T,,M,0.18,N,0.3,K,A*32
$GPGGA,222811.000,3748.1938,N,12217.6771,W,1,05,2.0,7.5,M,-25.1,M,,0000*61
$GPGSA,A,3,10,20,07,09,28,,,,,,,,4.2,2.0,3.7*35
$GPRMC,222811.000,A,3748.1938,N,12217.6771,W,0.18,72.29,100415,,,A*4B
$GPVTG,72.29,T,,M,0.18,N,0.3,K,A*39
$GPGGA,222812.000,3748.1941,N,12217.6770,W,1,05,2.0,5.5,M,-25.1,M,,0000*6F
$GPGSA,A,3,10,20,07,09,28,,,,,,,,4.2,2.0,3.7*35
$GPRMC,222812.000,A,3748.1941,N,12217.6770,W,0.06,56.53,100415,,,A*43
$GPVTG,56.53,T,,M,0.06,N,0.1,K,A*3F
$GPGGA,222813.000,3748.1944,N,12217.6769,W,1,05,2.0,3.9,M,-25.1,M,,0000*69
$GPGSA,A,3,10,20,07,09,28,,,,,,,,4.2,2.0,3.7*35
$GPRMC,222813.000,A,3748.1944,N,12217.6769,W,0.29,109.70,100415,,,A*78
$GPVTG,109.70,T,,M,0.29,N,0.5,K,A*0C
$GPGGA,222814.000,3748.1946,N,12217.6769,W,1,05,2.0,2.5,M,-25.1,M,,0000*61
$GPGSA,A,3,10,20,07,09,28,,,,,,,,4.2,2.0,3.7*35
$GPGSV,3,1,12,30,63,329,30,07,61,047,32,28,51,234,34,09,41,152,38*7A
$GPGSV,3,2,12,19,29,061,31,05,22,284,32,20,22,257,32,10,21,225,32*72
$GPGSV,3,3,12,27,13,040,20,13,12,316,28,26,12,316,,23,11,145,*76
$GPRMC,222814.000,A,3748.1946,N,12217.6769,W,0.06,108.35,100415,,,A*70
$GPGGA,222815.000,3748.1948,N,12217.6768,W,1,05,2.0,1.2,M,-25.1,M,,0000*6B
$GPGSA,A,3,10,20,07,09,28,,,,,,,,4.2,2.0,3.7*35
$GPRMC,222815.000,A,3748.1948,N,12217.6768,W,0.29,60.04,100415,,,A*4E
$GPVTG,60.04,T,,M,0.29,N,0.5,K,A*31
$GPGGA,222816.000,3748.1950,N,12217.6768,W,1,05,2.0,0.5,M,-25.1,M,,0000*67
$GPGSA,A,3,10,20,07,09,28,,,,,,,,4.2,2.0,3.7*35
$GPRMC,222816.000,A,3748.1950,N,12217.6768,W,0.18,51.36,100415,,,A*45
$GPVTG,51.36,T,,M,0.18,N,0.3,K,A*36
$GPGGA,222817.000,3748.1951,N,12217.6768,W,1,05,2.0,-0.1,M,-25.1,M,,0000*4E
$GPGSA,A,3,10,20,07,09,28,,,,,,,,4.2,2.0,3.7*35
$GPRMC,222817.000,A,3748.1951,N,12217.6768,W,0.24,57.60,100415,,,A*4F
$GPVTG,57.60,T,,M,0.24,N,0.4,K,A*3B
$GPGGA,222818.000,3748.1952,N,12217.6767,W,1,05,2.0,-0.5,M,-25.1,M,,0000*49
$GPGSA,A,3,10,20,07,09,28,,,,,,,,4.2,2.0,3.7*35
$GPRMC,222818.000,A,3748.1952,N,12217.6767,W,0.32,68.50,100415,,,A*44
$GPVTG,68.50,T,,M,0.32,N,0.6,K,A*31
$GPGGA,222819.000,3748.1953,N,12217.6767,W,1,05,2.0,-1.0,M,-25.1,M,,0000*4D
$GPGSA,A,3,10,20,07,09,28,,,,,,,,4.2,2.0,3.7*35
$GPGSV,3,1,12,30,63,329,30,07,61,048,27,28,51,235,36,09,41,152,38*72
$GPGSV,3,2,12,19,29,060,25,05,22,284,31,20,22,257,28,10,21,225,27*7A
$GPGSV,3,3,12,27,13,040,20,13,12,316,27,26,12,317,,23,11,145,*78
$GPRMC,222819.000,A,3748.1953,N,12217.6767,W,0.26,66.72,100415,,,A*4F
$GPVTG,66.72,T,,M,0.26,N,0.5,K,A*39
$GPGGA,222820.000,3748.1954,N,12217.6767,W,1,05,2.0,-1.4,M,-25.1,M,,0000*44
$GPGSA,A,3,10,20,07,09,28,,,,,,,,4.2,2.0,3.7*35
$GPRMC,222820.000,A,3748.1954,N,12217.6767,W,0.34,38.06,100415,,,A*49
$GPVTG,38.06,T,,M,0.34,N,0.6,K,A*31
$GPGGA,222821.000,3748.1955,N,12217.6766,W,1,05,2.0,-1.8,M,-25.1,M,,0000*49
$GPGSA,A,3,10,20,07,09,28,,,,,,,,4.2,2.0,3.7*35
$GPRMC,222821.000,A,3748.1955,N,12217.6766,W,0.23,43.52,100415,,,A*43
$GPVTG,43.52,T,,M,0.23,N,0.4,K,A*38
$GPGGA,222822.000,3748.1956,N,12217.6766,W,1,05,2.0,-2.2,M,-25.1,M,,0000*40
$GPGSA,A,3,10,20,07,09,28,,,,,,,,4.2,2.0,3.7*35
$GPRMC,222822.000,A,3748.1956,N,12217.6766,W,0.16,50.75,100415,,,A*42
$GPVTG,50.75,T,,M,0.16,N,0.3,K,A*3E
$GPGGA,222823.000,3748.1957,N,12217.6766,W,1,05,2.0,-2.5,M,-25.1,M,,0000*47
$GPGSA,A,3,10,20,07,09,28,,,,,,,,4.2,2.0,3.7*35
$GPRMC,222823.000,A,3748.1957,N,12217.6766,W,0.21,63.42,100415,,,A*42
$GPVTG,63.42,T,,M,0.21,N,0.4,K,A*39
$GPGGA,222824.000,3748.1958,N,12217.6765,W,1,05,2.0,-2.8,M,-25.1,M,,0000*41
$GPGSA,A,3,10,20,07,09,28,,,,,,,,4.2,2.0,3.7*35
$GPGSV,3,1,12,30,63,329,37,07,61,048,31,28,51,235,36,09,41,152,37*7D
$GPGSV,3,2,12,19,29,060,33,05,22,284,33,20,22,257,32,10,21,225,31*73
$GPGSV,3,3,12,27,13,040,17,13,12,316,29,26,12,317,,23,11,145,*72
$GPRMC,222824.000,A,3748.1958,N,12217.6765,W,0.23,45.78,100415,,,A*46
$GPVTG,45.78,T,,M,0.23,N,0.4,K,A*36
$GPGGA,222825.000,3748.1959,N,12217.6764,W,1,05,2.0,-3.1,M,-25.1,M,,0000*48
$GPGSA,A,3,10,20,07,09,28,,,,,,,,4.2,2.0,3.7*35
$GPRMC,222825.000,A,3748.1959,N,12217.6764,W,0.18,38.62,100415,,,A*4E
$GPVTG,38.62,T,,M,0.18,N,0.3,K,A*38
$GPGGA,222826.000,3748.1959,N,12217.6764,W,1,05,2.0,-3.4,M,-25.1,M,,0000*4E
$GPGSA,A,3,10,20,07,09,28,,,,,,,,4.2,2.0,3.7*35
$GPRMC,222826.000,A,3748.1959,N,12217.6764,W,0.24,57.81,100415,,,A*46
$GPVTG,57.81,T,,M,0.24,N,0.4,K,A*34
$GPGGA,222827.000,3748.1960,N,12217.6763,W,1,05,2.0,-3.6,M,-25.1,M,,0000*40
$GPGSA,A,3,10,20,07,09,28,,,,,,,,4.2,2.0,3.7*35
$GPRMC,222827.000,A,3748.1960,N,12217.6763,W,0.30,78.42,100415,,,A*4D
$GPVTG,78.42,T,,M,0.30,N,0.6,K,A*31
$GPGGA,222828.000,3748.1960,N,12217.6762,W,1,05,2.0,-3.7,M,-25.1,M,,0000*4F
$GPGSA,A,3,10,20,07,09,28,,,,,,,,4.2,2.0,3.7*35
$GPRMC,222828.000,A,3748.1960,N,12217.6762,W,0.22,72.60,100415,,,A*4A
$GPVTG,72.60,T,,M,0.22,N,0.4,K,A*3A
$GPGGA,222829.000,3748.1960,N,12217.6762,W,1,05,2.0,-3.8,M,-25.1,M,,0000*41
$GPGSA,A,3,10,20,07,09,28,,,,,,,,4.2,2.0,3.7*35
$GPGSV,3,1,12,30,63,329,33,07,61,048,32,28,51,235,36,09,41,152,37*7A
$GPGSV,3,2,12,19,29,060,37,05,22,284,33,20,22,257,32,10,21,225,32*74
$GPGSV,3,3,12,27,13,040,24,13,12,316,29,26,12,317,,23,11,145,*72
$GPRMC,222829.000,A,3748.1960,N,12217.6762,W,0.14,96.81,100415,,,A*4B
$GPGGA,222830.000,3748.1960,N,12217.6762,W,1,05,2.0,-3.9,M,-25.1,M,,0000*48
$GPGSA,A,3,10,20,07,09,28,,,,,,,,4.2,2.0,3.7*35
$GPRMC,222830.000,A,3748.1960,N,12217.6762,W,0.05,351.44,100415,,,A*72
$GPVTG,351.44,T,,M,0.05,N,0.1,K,A*0E
$GPGGA,222831.000,3748.1960,N,12217.6762,W,1,05,2.0,-4.1,M,-25.1,M,,0000*46
$GPGSA,A,3,10,20,07,09,28,,,,,,,,4.2,2.0,3.7*35
$GPRMC,222831.000,A,3748.1960,N,12217.6762,W,0.04,318.66,100415,,,A*7F
$GPVTG,318.66,T,,M,0.04,N,0.1,K,A*02
$GPGGA,222832.000,3748.1962,N,12217.6762,W,1,05,2.0,-4.2,M,-25.1,M,,0000*44
$GPGSA,A,3,10,20,07,09,28,,,,,,,,4.2,2.0,3.7*35
$GPRMC,222832.000,A,3748.1962,N,12217.6762,W,0.15,229.02,100415,,,A*7F
$GPVTG,229.02,T,,M,0.15,N,0.3,K,A*01
$GPGGA,222833.000,3748.1952,N,12217.6757,W,1,05,2.0,-4.1,M,-25.1,M,,0000*43
$GPGSA,A,3,10,20,07,09,28,,,,,,,,4.2,2.0,3.7*35
$GPRMC,222833.000,A,3748.1952,N,12217.6757,W,1.46,172.51,100415,,,A*77
$GPVTG,172.51,T,,M,1.46,N,2.7,K,A*0B
$GPGGA,222834.000,3748.1948,N,12217.6760,W,1,07,1.6,-0.8,M,-25.1,M,,0000*41
$GPGSA,A,3,10,20,07,09,28,05,30,,,,,,3.1,1.6,2.7*33
$GPGSV,3,1,12,30,63,329,22,07,61,048,20,28,51,235,26,09,41,152,25*7B
$GPGSV,3,2,12,19,29,060,24,05,22,284,24,20,22,257,23,10,21,225,19*79
$GPGSV,3,3,12,27,13,040,10,13,12,316,10,26,12,317,,23,11,145,*7F
$GPRMC,222834.000,A,3748.1948,N,12217.6760,W,1.01,152.38,100415,,,A*71
$GPVTG,152.38,T,,M,1.01,N,1.9,K,A*08
$GPGGA,222835.000,3748.1944,N,12217.6761,W,1,07,1.6,2.6,M,-25.1,M,,0000*6C
$GPGSA,A,3,10,20,07,09,28,05,30,,,,,,3.1,1.6,2.7*33
$GPRMC,222835.000,A,3748.1944,N,12217.6761,W,0.25,44.79,100415,,,A*49
$GPVTG,44.79,T,,M,0.25,N,0.5,K,A*31
$GPGGA,222836.000,3748.1936,N,12217.6767,W,1,07,1.6,4.6,M,-25.1,M,,0000*6A
$GPGSA,A,3,10,20,07,09,28,05,30,,,,,,3.1,1.6,2.7*33
$GPRMC,222836.000,A,3748.1936,N,12217.6767,W,0.76,219.05,100415,,,A*7E
$GPVTG,219.05,T,,M,0.76,N,1.4,K,A*06
$GPGGA,222837.000,3748.1932,N,12217.6769,W,1,07,1.6,4.9,M,-25.1,M,,0000*6E
$GPGSA,A,3,10,20,07,09,28,05,30,,,,,,3.1,1.6,2.7*33
$GPRMC,222837.000,A,3748.1932,N,12217.6769,W,0.53,210.68,100415,,,A*70
$GPVTG,210.68,T,,M,0.53,N,1.0,K,A*07
$GPGGA,222838.000,3748.1928,N,12217.6770,W,1,07,1.6,6.1,M,-25.1,M,,0000*68
$GPGSA,A,3,10,20,07,09,28,05,30,,,,,,3.1,1.6,2.7*33
$GPRMC,222838.000,A,3748.1928,N,12217.6770,W,0.63,208.41,100415,,,A*7D
$GPVTG,208.41,T,,M,0.63,N,1.2,K,A*04
$GPGGA,222839.000,3748.1923,N,12217.6770,W,1,07,1.6,8.2,M,-25.1,M,,0000*6F
$GPGSA,A,3,10,20,07,09,28,05,30,,,,,,3.1,1.6,2.7*33
$GPGSV,3,1,12,30,63,329,22,07,61,048,22,28,51,235,29,09,40,152,33*70
$GPGSV,3,2,12,19,29,060,15,20,22,257,30,10,21,225,31,05,20,290,23*73
$GPGSV,3,3,12,27,13,040,,13,12,316,23,26,12,317,,23,10,145,*7F
$GPRMC,222839.000,A,3748.1923,N,12217.6770,W,0.73,168.14,100415,,,A*73
$GPVTG,168.14,T,,M,0.73,N,1.3,K,A*01
$GPGGA,222840.000,3748.1923,N,12217.6769,W,1,07,1.6,7.7,M,-25.1,M,,0000*63
$GPGSA,A,3,10,20,07,09,28,05,30,,,,,,3.1,1.6,2.7*33
$GPRMC,222840.000,A,3748.1923,N,12217.6769,W,0.20,233.87,100415,,,A*74
$GPVTG,233.87,T,,M,0.20,N,0.4,K,A*06
$GPGGA,222841.000,3748.1920,N,12217.6768,W,1,07,1.6,8.9,M,-25.1,M,,0000*61
$GPGSA,A,3,10,20,07,09,28,05,30,,,,,,3.1,1.6,2.7*33
$GPRMC,222841.000,A,3748.1920,N,12217.6768,W,0.29,218.15,100415,,,A*7C
$GPVTG,218.15,T,,M,0.29,N,0.5,K,A*0C
$GPGGA,222842.000,3748.1924,N,12217.6765,W,1,07,1.6,9.4,M,-25.1,M,,0000*67
$GPGSA,A,3,10,20,07,09,28,05,30,,,,,,3.1,1.6,2.7*33
$GPRMC,222842.000,A,3748.1924,N,12217.6765,W,0.11,110.10,100415,,,A*73
$GPVTG,110.10,T,,M,0.11,N,0.2,K,A*0E
$GPGGA,222843.000,3748.1921,N,12217.6763,W,1,07,1.6,11.3,M,-25.1,M,,0000*5B
$GPGSA,A,3,10,20,07,09,28,05,30,,,,,,3.1,1.6,2.7*33
$GPRMC,222843.000,A,3748.1921,N,12217.6763,W,0.28,199.59,100415,,,A*77
$GPVTG,199.59,T,,M,0.28,N,0.5,K,A*0F
$GPGGA,222844.000,3748.1920,N,12217.6764,W,1,06,1.6,12.1,M,-25.1,M,,0000*5A
$GPGSA,A,3,10,20,07,09,28,05,,,,,,,3.6,1.6,3.2*33
$GPGSV,3,1,12,30,63,329,10,07,61,048,22,28,51,235,21,09,40,152,33*79
$GPGSV,3,2,12,19,29,060,25,20,22,257,27,10,21,225,30,05,20,290,21*75
$GPGSV,3,3,12,27,13,040,,13,12,316,18,26,12,317,,23,10,145,*77
$GPVTG,225.18,T,,M,0.71,N,1.3,K,A*05
$GPGGA,222845.000,3748.1921,N,12217.6760,W,1,07,1.6,11.7,M,-25.1,M,,0000*5A
$GPGSA,A,3,10,20,07,09,28,05,30,,,,,,3.1,1.6,2.7*33
$GPRMC,222845.000,A,3748.1921,N,12217.6760,W,0.35,228.04,100415,,,A*7F
$GPVTG,228.04,T,,M,0.35,N,0.6,K,A*01
$GPGGA,222846.000,3748.1922,N,12217.6757,W,1,07,1.6,12.0,M,-25.1,M,,0000*5A
$GPGSA,A,3,10,20,07,09,28,05,30,,,,,,3.1,1.6,2.7*33
$GPRMC,222846.000,A,3748.1922,N,12217.6757,W,0.23,207.02,100415,,,A*77
$GPVTG,207.02,T,,M,0.23,N,0.4,K,A*0F
$GPGGA,222847.000,3748.1920,N,12217.6757,W,1,07,1.6,13.5,M,-25.1,M,,0000*5D
$GPGSA,A,3,10,20,07,09,28,05,30,,,,,,3.1,1.6,2.7*33
$GPRMC,222847.000,A,3748.1920,N,12217.6757,W,0.97,220.95,100415,,,A*70
$GPVTG,220.95,T,,M,0.97,N,1.8,K,A*06
$GPGGA,222848.000,3748.1919,N,12217.6757,W,1,07,1.6,12.8,M,-25.1,M,,0000*54
$GPGSA,A,3,10,20,07,09,28,05,30,,,,,,3.1,1.6,2.7*33
$GPRMC,222848.000,A,3748.1919,N,12217.6757,W,0.97,220.03,100415,,,A*7A
$GPVTG,220.03,T,,M,0.97,N,1.8,K,A*09
$GPGGA,222849.000,3748.1919,N,12217.6757,W,1,07,1.6,12.3,M,-25.1,M,,0000*5E
$GPGSA,A,3,10,20,07,09,28,05,30,,,,,,3.1,1.6,2.7*33
$GPGSV,3,1,12,30,63,330,24,07,61,048,22,28,51,235,24,09,40,152,32*72
$GPGSV,3,2,12,19,29,060,27,20,21,257,26,10,21,225,25,05,20,290,28*78
$GPGSV,3,3,12,27,13,039,,13,13,316,19,26,12,317,,23,10,145,*79
$GPRMC,222849.000,A,3748.1919,N,12217.6757,W,0.67,210.21,100415,,,A*77
$GPVTG,210.21,T,,M,0.67,N,1.2,K,A*0F
$GPGGA,222850.000,3748.1921,N,12217.6757,W,1,05,2.2,12.0,M,-25.1,M,,0000*5B
$GPGSA,A,3,10,20,09,28,05,,,,,,,,3.9,2.2,3.2*3C
$GPRMC,222850.000,A,3748.1921,N,12217.6757,W,0.39,209.85,100415,,,A*79
$GPVTG,209.85,T,,M,0.39,N,0.7,K,A*06
$GPGGA,222851.000,3748.1919,N,12217.6759,W,1,05,2.2,14.6,M,-25.1,M,,0000*5F
$GPGSA,A,3,10,20,09,28,05,,,,,,,,3.9,2.2,3.2*3C
$GPRMC,222851.000,A,3748.1919,N,12217.6759,W,0.07,229.73,100415,,,A*7B
$GPVTG,229.73,T,,M,0.07,N,0.1,K,A*06
$GPGGA,222852.000,3748.1922,N,12217.6757,W,1,05,2.2,15.0,M,-25.1,M,,0000*5D
$GPGSA,A,3,10,20,09,28,05,,,,,,,,3.9,2.2,3.2*3C
$GPRMC,222852.000,A,3748.1922,N,12217.6757,W,0.56,33.20,100415,,,A*45
$GPVTG,33.20,T,,M,0.56,N,1.0,K,A*3D
$GPGGA,222853.000,3748.1928,N,12217.6747,W,1,06,1.6,15.6,M,-25.1,M,,0000*55
$GPGSA,A,3,10,20,07,09,28,05,,,,,,,3.5,1.6,3.1*33
$GPRMC,222853.000,A,3748.1928,N,12217.6747,W,0.93,28.70,100415,,,A*49
$GPVTG,28.70,T,,M,0.93,N,1.7,K,A*3C
$GPGGA,222854.000,3748.1929,N,12217.6746,W,1,06,1.6,15.5,M,-25.1,M,,0000*51
$GPGSA,A,3,10,20,07,09,28,05,,,,,,,3.5,1.6,3.1*33
$GPGSV,3,1,12,30,63,330,,07,61,048,25,28,51,235,30,09,40,152,33*77
$GPGSV,3,2,12,19,29,060,22,20,21,257,25,10,21,225,27,05,20,290,19*7E
$GPGSV,3,3,12,27,13,039,,13,13,316,21,26,12,317,,23,10,145,*72
$GPRMC,222854.000,A,3748.1929,N,12217.6746,W,0.20,24.34,100415,,,A*4A
$GPVTG,24.34,T,,M,0.20,N,0.4,K,A*3A
$GPGGA,222855.000,3748.1929,N,12217.6746,W,1,07,1.6,15.8,M,-25.1,M,,0000*5C
$GPGSA,A,3,10,20,30,07,09,28,05,,,,,,3.1,1.6,2.7*33
$GPRMC,222855.000,A,3748.1929,N,12217.6746,W,0.22,333.69,100415,,,A*74
$GPVTG,333.69,T,,M,0.22,N,0.4,K,A*05
$GPGGA,222856.000,3748.1928,N,12217.6746,W,1,07,1.6,15.8,M,-25.1,M,,0000*5E
$GPGSA,A,3,10,20,30,07,09,28,05,,,,,,3.1,1.6,2.7*33
$GPRMC,222856.000,A,3748.1928,N,12217.6746,W,0.18,204.63,100415,,,A*70
$GPVTG,204.63,T,,M,0.18,N,0.3,K,A*04
$GPGGA,222857.000,3748.1925,N,12217.6748,W,1,07,1.6,15.6,M,-25.1,M,,0000*52
$GPGSA,A,3,10,20,30,07,09,28,05,,,,,,3.1,1.6,2.7*33
$GPRMC,222857.000,A,3748.1925,N,12217.6748,W,0.48,210.08,100415,,,A*7F
$GPVTG,210.08,T,,M,0.48,N,0.9,K,A*03
$GPGGA,222858.000,3748.1922,N,12217.6751,W,1,07,1.6,15.0,M,-25.1,M,,0000*54
$GPGSA,A,3,10,20,30,07,09,28,05,,,,,,3.1,1.6,2.7*33
$GPRMC,222858.000,A,3748.1922,N,12217.6751,W,0.35,199.60,100415,,,A*79
$GPVTG,199.60,T,,M,0.35,N,0.6,K,A*0A
$GPGGA,222859.000,3748.1920,N,12217.6754,W,1,07,1.6,14.8,M,-25.1,M,,0000*5B
$GPGSA,A,3,10,20,30,07,09,28,05,,,,,,3.1,1.6,2.7*33
$GPGSV,3,1,12,30,63,330,22,07,61,048,24,28,51,235,30,09,40,152,34*71
$GPGSV,3,2,12,19,29,060,27,20,21,257,25,10,21,225,28,05,20,290,22*7C
$GPGSV,3,3,12,27,13,039,,13,13,316,19,26,12,317,,23,10,145,*79
$GPVTG,190.80,T,,M,0.20,N,0.4,K,A*0B
$GPGGA,222900.000,3748.1917,N,12217.6752,W,1,07,1.6,14.6,M,-25.1,M,,0000*5A
$GPGSA,A,3,10,20,30,07,09,28,05,,,,,,3.1,1.6,2.7*33
$GPRMC,222900.000,A,3748.1917,N,12217.6752,W,0.61,187.69,100415,,,A*77
$GPVTG,187.69,T,,M,0.61,N,1.1,K,A*0B
$GPGGA,222901.000,3748.1916,N,12217.6753,W,1,07,1.6,14.5,M,-25.1,M,,0000*58
$GPGSA,A,3,10,20,30,07,09,28,05,,,,,,3.1,1.6,2.7*33
$GPRMC,222901.000,A,3748.1916,N,12217.6753,W,0.20,1.62,100415,,,A*77
$GPVTG,1.62,T,,M,0.20,N,0.4,K,A*0E
$GPGGA,222902.000,3748.1920,N,12217.6755,W,1,07,1.6,15.4,M,-25.1,M,,0000*58
$GPGSA,A,3,10,20,30,07,09,28,05,,,,,,3.1,1.6,2.7*33
$GPRMC,222902.000,A,3748.1920,N,12217.6755,W,0.25,93.32,100415,,,A*4C
$GPVTG,93.32,T,,M,0.25,N,0.5,K,A*34
$GPGGA,222903.000,3748.1916,N,12217.6759,W,1,07,1.6,15.2,M,-25.1,M,,0000*56
$GPGSA,A,3,10,20,30,07,09,28,05,,,,,,3.1,1.6,2.7*33
$GPRMC,222903.000,A,3748.1916,N,12217.6759,W,0.38,186.91,100415,,,A*74
$GPVTG,186.91,T,,M,0.38,N,0.7,K,A*06
$GPGGA,222904.000,3748.1912,N,12217.6770,W,1,06,1.6,17.2,M,-25.1,M,,0000*5D
$GPGSA,A,3,10,20,07,09,28,05,,,,,,,3.5,1.6,3.1*33
$GPGSV,3,1,12,30,63,330,18,07,61,048,17,28,51,235,24,09,40,152,24*7C
$GPGSV,3,2,12,19,29,060,23,20,21,257,24,10,21,225,28,05,20,290,29*72
$GPGSV,3,3,12,27,13,039,,13,13,316,20,26,12,317,,23,10,145,*73
$GPRMC,222904.000,A,3748.1912,N,12217.6770,W,1.02,225.26,100415,,,A*72
$GPVTG,225.26,T,,M,1.02,N,1.9,K,A*07
$GPGGA,222905.000,3748.1911,N,12217.6775,W,1,07,1.6,18.0,M,-25.1,M,,0000*56
$GPGSA,A,3,10,20,30,07,09,28,05,,,,,,3.1,1.6,2.7*33
$GPRMC,222905.000,A,3748.1911,N,12217.6775,W,0.75,241.14,100415,,,A*77
$GPVTG,241.14,T,,M,0.75,N,1.4,K,A*08
$GPGGA,222906.000,3748.1911,N,12217.6774,W,1,07,1.6,18.5,M,-25.1,M,,0000*51
$GPGSA,A,3,10,20,30,07,09,28,05,,,,,,3.1,1.6,2.7*33
$GPRMC,222906.000,A,3748.1911,N,12217.6774,W,0.12,254.97,100415,,,A*7B
$GPVTG,254.97,T,,M,0.12,N,0.2,K,A*01
$GPGGA,222907.000,3748.1911,N,12217.6781,W,1,07,1.6,19.9,M,-25.1,M,,0000*57
$GPGSA,A,3,10,20,30,07,09,28,05,,,,,,3.1,1.6,2.7*33
$GPRMC,222907.000,A,3748.1911,N,12217.6781,W,1.04,210.34,100415,,,A*7F
$GPVTG,210.34,T,,M,1.04,N,1.9,K,A*04
$GPGGA,222908.000,3748.1907,N,12217.6788,W,1,07,1.6,19.9,M,-25.1,M,,0000*56
$GPGSA,A,3,10,20,30,07,09,28,05,,,,,,3.1,1.6,2.7*33
$GPRMC,222908.000,A,3748.1907,N,12217.6788,W,1.12,213.40,100415,,,A*79
$GPVTG,213.40,T,,M,1.12,N,2.1,K,A*08
$GPGGA,222909.000,3748.1903,N,12217.6796,W,1,07,1.6,19.6,M,-25.1,M,,0000*53
$GPGSA,A,3,10,20,30,07,09,28,05,,,,,,3.1,1.6,2.7*33
$GPGSV,3,1,12,30,63,330,23,07,61,048,22,28,51,235,26,09,40,152,30*75
$GPGSV,3,2,12,19,29,060,22,20,21,257,28,10,21,225,29,05,20,290,30*76
$GPGSV,3,3,12,27,13,039,,13,13,316,20,26,12,317,,23,10,145,*73
$GPRMC,222909.000,A,3748.1903,N,12217.6796,W,0.66,210.21,100415,,,A*75
$GPVTG,210.21,T,,M,0.66,N,1.2,K,A*0E
$GPGGA,222910.000,3748.1898,N,12217.6800,W,1,07,1.6,19.3,M,-25.1,M,,0000*5D
$GPGSA,A,3,10,20,30,07,09,28,05,,,,,,3.1,1.6,2.7*33
$GPRMC,222910.000,A,3748.1898,N,12217.6800,W,0.51,201.74,100415,,,A*7A
$GPVTG,201.74,T,,M,0.51,N,0.9,K,A*00
$GPGGA,222911.000,3748.1896,N,12217.6800,W,1,07,1.6,19.4,M,-25.1,M,,0000*55
$GPGSA,A,3,10,20,30,07,09,28,05,,,,,,3.1,1.6,2.7*33
$GPRMC,222911.000,A,3748.1896,N,12217.6800,W,0.64,144.94,100415,,,A*7F
$GPVTG,144.94,T,,M,0.64,N,1.2,K,A*00
$GPGGA,222912.000,3748.1898,N,12217.6794,W,1,06,1.6,19.1,M,-25.1,M,,0000*5E
$GPGSA,A,3,10,30,07,09,28,05,,,,,,,3.2,1.6,2.7*32
$GPRMC,222912.000,A,3748.1898,N,12217.6794,W,1.01,153.56,100415,,,A*7A
$GPVTG,153.56,T,,M,1.01,N,1.9,K,A*01
$GPGGA,222913.000,3748.1894,N,12217.6794,W,1,06,1.6,20.8,M,-25.1,M,,0000*50
$GPGSA,A,3,10,30,07,09,28,05,,,,,,,3.2,1.6,2.7*32
$GPRMC,222913.000,A,3748.1894,N,12217.6794,W,1.53,139.75,100415,,,A*7D
$GPVTG,139.75,T,,M,1.53,N,2.8,K,A*09
$GPGGA,222914.000,3748.1897,N,12217.6782,W,1,07,1.6,20.0,M,-25.1,M,,0000*5A
$GPGSA,A,3,10,20,30,07,09,28,05,,,,,,3.1,1.6,2.7*33
$GPGSV,3,1,12,30,63,330,20,07,61,048,21,28,51,235,21,09,40,152,28*7B
$GPGSV,3,2,12,19,29,060,23,20,21,257,21,10,21,225,17,05,20,290,19*78
$GPRMC,222914.000,A,3748.1897,N,12217.6782,W,1.92,122.78,100415,,,A*74
$GPVTG,122.78,T,,M,1.92,N,3.6,K,A*0C
$GPGGA,222915.000,3748.1894,N,12217.6776,W,1,07,1.6,19.8,M,-25.1,M,,0000*51
$GPGSA,A,3,10,20,30,07,09,28,05,,,,,,3.1,1.6,2.7*33
$GPRMC,222915.000,A,3748.1894,N,12217.6776,W,1.61,125.63,100415,,,A*7C
$GPVTG,125.63,T,,M,1.61,N,3.0,K,A*0B
$GPGGA,222916.000,3748.1891,N,12217.6772,W,1,07,1.6,21.0,M,-25.1,M,,0000*50
$GPGSA,A,3,10,20,30,07,09,28,05,,,,,,3.1,1.6,2.7*33
$GPRMC,222916.000,A,3748.1891,N,12217.6772,W,1.60,119.54,100415,,,A*74
$GPVTG,119.54,T,,M,1.60,N,3.0,K,A*01
$GPGGA,222917.000,3748.1886,N,12217.6771,W,1,07,1.6,22.0,M,-25.1,M,,0000*57
$GPGSA,A,3,10,20,30,07,09,28,05,,,,,,3.1,1.6,2.7*33
$GPRMC,222917.000,A,3748.1886,N,12217.6771,W,1.70,122.88,100415,,,A*78
$GPVTG,122.88,T,,M,1.70,N,3.1,K,A*08
$GPGGA,222918.000,3748.1882,N,12217.6765,W,1,07,1.6,22.6,M,-25.1,M,,0000*5F
$GPGSA,A,3,10,20,30,07,09,28,05,,,,,,3.1,1.6,2.7*33
$GPRMC,222918.000,A,3748.1882,N,12217.6765,W,1.00,107.39,100415,,,A*7C
$GPVTG,107.39,T,,M,1.00,N,1.9,K,A*08
$GPGGA,222919.000,3748.1882,N,12217.6762,W,1,07,1.6,22.9,M,-25.1,M,,0000*56
$GPGSA,A,3,10,20,30,07,09,28,05,,,,,,3.1,1.6,2.7*33
$GPGSV,3,1,12,30,63,330,23,07,61,048,23,28,51,235,27,09,40,152,30*75
$GPGSV,3,2,12,19,29,060,21,20,21,257,24,10,21,225,28,05,20,290,25*7C
$GPGSV,3,3,12,27,13,039,21,13,13,316,20,26,12,317,,23,10,145,*70
$GPRMC,222919.000,A,3748.1882,N,12217.6762,W,0.55,93.45,100415,,,A*4C
$GPVTG,93.45,T,,M,0.55,N,1.0,K,A*37
$GPGGA,222920.000,3748.1879,N,12217.6759,W,1,07,1.5,22.1,M,-25.1,M,,0000*5B
$GPGSA,A,3,10,20,30,07,09,28,05,,,,,,3.1,1.5,2.7*30
$GPRMC,222920.000,A,3748.1879,N,12217.6759,W,1.04,93.24,100415,,,A*48
$GPVTG,93.24,T,,M,1.04,N,1.9,K,A*3C
$GPGGA,222921.000,3748.1879,N,12217.6754,W,1,07,1.5,22.6,M,-25.1,M,,0000*50
$GPGSA,A,3,10,20,30,07,09,28,05,,,,,,3.1,1.5,2.7*30
$GPRMC,222921.000,A,3748.1879,N,12217.6754,W,1.12,73.69,100415,,,A*44
$GPVTG,73.69,T,,M,1.12,N,2.1,K,A*37
$GPGGA,222922.000,3748.1878,N,12217.6750,W,1,07,1.5,22.1,M,-25.1,M,,0000*51
$GPGSA,A,3,10,20,30,07,09,28,05,,,,,,3.1,1.5,2.7*30
$GPRMC,222922.000,A,3748.1878,N,12217.6750,W,0.91,75.64,100415,,,A*43
$GPVTG,75.64,T,,M,0.91,N,1.7,K,A*33
$GPGGA,222923.000,3748.1879,N,12217.6745,W,1,07,1.5,22.1,M,-25.1,M,,0000*55
$GPGSA,A,3,10,20,30,07,09,28,05,,,,,,3.1,1.5,2.7*30
$GPRMC,222923.000,A,3748.1879,N,12217.6745,W,1.22,95.83,100415,,,A*49
$GPVTG,95.83,T,,M,1.22,N,2.3,K,A*3A
$GPGGA,222924.000,3748.1881,N,12217.6738,W,1,07,1.5,21.4,M,-25.1,M,,0000*59
$GPGSA,A,3,10,20,30,07,09,28,05,,,,,,3.1,1.5,2.7*30
$GPGSV,3,1,12,30,63,330,23,07,61,048,22,28,51,235,29,09,40,152,32*78
$GPGSV,3,2,12,19,29,060,24,20,21,257,28,10,21,225,28,05,20,290,25*75
$GPGSV,3,3,12,27,13,039,19,13,13,316,26,26,12,317,,23,10,145,*7D
$GPRMC,222924.000,A,3748.1881,N,12217.6738,W,1.38,66.48,100415,,,A*43
$GPVTG,66.48,T,,M,1.38,N,2.6,K,A*3F
$GPGGA,222925.000,3748.1884,N,12217.6732,W,1,07,1.5,20.6,M,-25.1,M,,0000*54
$GPGSA,A,3,10,20,30,07,09,28,05,,,,,,3.1,1.5,2.7*30
$GPRMC,222925.000,A,3748.1884,N,12217.6732,W,1.33,66.56,100415,,,A*49
$GPVTG,66.56,T,,M,1.33,N,2.5,K,A*38
$GPGGA,222926.000,3748.1889,N,12217.6726,W,1,07,1.5,20.3,M,-25.1,M,,0000*5A
$GPGSA,A,3,10,20,30,07,09,28,05,,,,,,3.1,1.5,2.7*30
$GPRMC,222926.000,A,3748.1889,N,12217.6726,W,1.26,80.48,100415,,,A*41
$GPVTG,80.48,T,,M,1.26,N,2.3,K,A*3D
$GPGGA,222927.000,3748.1889,N,12217.6719,W,1,07,1.5,19.1,M,-25.1,M,,0000*5F
$GPGSA,A,3,10,20,30,07,09,28,05,,,,,,3.1,1.5,2.7*30
$GPRMC,222927.000,A,3748.1889,N,12217.6719,W,1.55,95.63,100415,,,A*45
$GPVTG,95.63,T,,M,1.55,N,2.9,K,A*3E
$GPGGA,222928.000,3748.1885,N,12217.6713,W,1,07,1.5,17.7,M,-25.1,M,,0000*5E
$GPGSA,A,3,10,20,30,07,09,28,05,,,,,,3.1,1.5,2.7*30
$GPRMC,222928.000,A,3748.1885,N,12217.6713,W,1.47,114.46,100415,,,A*70
$GPVTG,114.46,T,,M,1.47,N,2.7,K,A*0C
$GPGGA,222929.000,3748.1883,N,12217.6706,W,1,07,1.5,16.6,M,-25.1,M,,0000*5D
$GPGSA,A,3,10,20,30,07,09,28,05,,,,,,3.1,1.5,2.7*30
$GPGSV,3,1,12,30,63,330,23,07,61,048,23,28,51,235,29,09,40,152,33*78
$GPGSV,3,2,12,19,29,060,24,20,21,257,22,10,21,225,28,05,20,290,26*7C
$GPGSV,3,3,12,27,13,039,20,13,13,316,25,26,12,317,,23,10,145,*74
$GPRMC,222929.000,A,3748.1883,N,12217.6706,W,1.81,95.99,100415,,,A*43
$GPVTG,95.99,T,,M,1.81,N,3.4,K,A*3E
$GPGGA,222930.000,3748.1882,N,12217.6699,W,1,07,1.5,16.4,M,-25.1,M,,0000*51
$GPGSA,A,3,10,20,30,07,09,28,05,,,,,,3.1,1.5,2.7*30
$GPRMC,222930.000,A,3748.1882,N,12217.6699,W,1.85,88.72,100415,,,A*40
$GPVTG,88.72,T,,M,1.85,N,3.4,K,A*33
$GPGGA,222931.000,3748.1877,N,12217.6694,W,1,07,1.5,16.9,M,-25.1,M,,0000*5A
$GPGSA,A,3,10,20,30,07,09,28,05,,,,,,3.1,1.5,2.7*30
$GPRMC,222931.000,A,3748.1877,N,12217.6694,W,1.65,102.31,100415,,,A*7C
$GPVTG,102.31,T,,M,1.65,N,3.1,K,A*0C
$GPGGA,222932.000,3748.1874,N,12217.6691,W,1,07,1.5,16.3,M,-25.1,M,,0000*55
$GPGSA,A,3,10,20,30,07,09,28,05,,,,,,3.1,1.5,2.7*30
$GPRMC,222932.000,A,3748.1874,N,12217.6691,W,1.61,134.02,100415,,,A*78
$GPVTG,134.02,T,,M,1.61,N,3.0,K,A*0C
$GPGGA,222933.000,3748.1875,N,12217.6688,W,1,07,1.5,16.1,M,-25.1,M,,0000*5F
$GPGSA,A,3,10,20,30,07,09,28,05,,,,,,3.1,1.5,2.7*30
$GPRMC,222933.000,A,3748.1875,N,12217.6688,W,1.84,166.48,100415,,,A*72
$GPVTG,166.48,T,,M,1.84,N,3.4,K,A*0A
$GPGGA,222934.000,3748.1873,N,12217.6685,W,1,07,1.5,15.6,M,-25.1,M,,0000*57
$GPGSA,A,3,10,20,30,07,09,28,05,,,,,,3.1,1.5,2.7*30
$GPGSV,3,1,12,30,63,330,22,07,61,048,18,28,51,235,30,09,40,152,28*73
$GPGSV,3,2,12,19,29,060,19,20,21,257,24,10,21,225,28,05,20,290,26*74
$GPGSV,3,3,12,27,13,039,20,13,13,316,22,26,12,317,,23,10,145,*73
$GPRMC,222934.000,A,3748.1873,N,12217.6685,W,1.58,160.81,100415,,,A*7C
$GPGGA,222935.000,3748.1872,N,12217.6682,W,1,07,1.5,14.5,M,-25.1,M,,0000*52
$GPGSA,A,3,10,20,30,07,09,28,05,,,,,,3.1,1.5,2.7*30
$GPRMC,222935.000,A,3748.1872,N,12217.6682,W,1.34,167.33,100415,,,A*7F
$GPVTG,167.33,T,,M,1.34,N,2.5,K,A*0C
$GPGGA,222936.000,3748.1869,N,12217.6681,W,1,07,1.5,12.9,M,-25.1,M,,0000*52
$GPGSA,A,3,10,20,30,07,09,28,05,,,,,,3.1,1.5,2.7*30
$GPRMC,222936.000,A,3748.1869,N,12217.6681,W,1.22,188.66,100415,,,A*73
$GPVTG,188.66,T,,M,1.22,N,2.3,K,A*0C
$GPGGA,222937.000,3748.1865,N,12217.6679,W,1,07,1.5,11.4,M,-25.1,M,,0000*56
$GPGSA,A,3,10,20,30,07,09,28,05,,,,,,3.1,1.5,2.7*30
$GPRMC,222937.000,A,3748.1865,N,12217.6679,W,1.12,170.44,100415,,,A*7D
$GPVTG,170.44,T,,M,1.12,N,2.1,K,A*0A
$GPGGA,222938.000,3748.1864,N,12217.6674,W,1,07,1.5,10.8,M,-25.1,M,,0000*58
$GPGSA,A,3,10,20,30,07,09,28,05,,,,,,3.1,1.5,2.7*30
$GPRMC,222938.000,A,3748.1864,N,12217.6674,W,1.28,158.55,100415,,,A*7D
$GPVTG,158.55,T,,M,1.28,N,2.4,K,A*0C
$GPGGA,222939.000,3748.1862,N,12217.6675,W,1,07,1.5,9.6,M,-25.1,M,,0000*68
$GPGSA,A,3,10,20,30,07,09,28,05,,,,,,3.1,1.5,2.7*30
$GPGSV,3,1,12,30,63,330,19,07,61,048,17,28,51,235,25,09,40,152,25*7D
$GPGSV,3,2,12,19,29,060,17,20,21,257,24,10,21,225,27,05,20,290,25*76
$GPGSV,3,3,12,27,13,039,20,13,13,316,18,26,12,317,,23,10,145,*7A
$GPRMC,222939.000,A,3748.1862,N,12217.6675,W,1.08,188.55,100415,,,A*74
$GPVTG,188.55,T,,M,1.08,N,2.0,K,A*07
$GPGGA,222940.000,3748.1854,N,12217.6676,W,1,06,1.6,9.8,M,-25.1,M,,0000*6C
$GPGSA,A,3,10,30,07,09,28,05,,,,,,,3.1,1.6,2.7*31
$GPRMC,222940.000,A,3748.1854,N,12217.6676,W,1.13,183.77,100415,,,A*7D
$GPVTG,183.77,T,,M,1.13,N,2.1,K,A*07
$GPGGA,222941.000,3748.1848,N,12217.6686,W,1,07,1.5,10.5,M,-25.1,M,,0000*58
$GPGSA,A,3,10,20,30,07,09,28,05,,,,,,3.1,1.5,2.7*30
$GPRMC,222941.000,A,3748.1848,N,12217.6686,W,1.97,223.68,100415,,,A*75
$GPVTG,223.68,T,,M,1.97,N,3.6,K,A*0A
$GPGGA,222942.000,3748.1849,N,12217.6697,W,1,07,1.5,10.7,M,-25.1,M,,0000*58
$GPGSA,A,3,10,20,30,07,09,28,05,,,,,,3.1,1.5,2.7*30
$GPRMC,222942.000,A,3748.1849,N,12217.6697,W,0.60,271.48,100415,,,A*7B
$GPVTG,271.48,T,,M,0.60,N,1.1,K,A*03
$GPGGA,222943.000,3748.1844,N,12217.6697,W,1,07,1.5,10.0,M,-25.1,M,,0000*53
$GPGSA,A,3,10,20,30,07,09,28,05,,,,,,3.1,1.5,2.7*30
$GPRMC,222943.000,A,3748.1844,N,12217.6697,W,1.48,211.78,100415,,,A*79
$GPVTG,211.78,T,,M,1.48,N,2.7,K,A*08
$GPGGA,222944.000,3748.1840,N,12217.6698,W,1,07,1.5,9.5,M,-25.1,M,,0000*62
$GPGSA,A,3,10,20,30,07,09,28,05,,,,,,3.1,1.5,2.7*30
$GPGSV,3,1,12,30,63,330,25,07,61,048,17,28,51,235,31,09,40,152,28*7A
$GPGSV,3,2,12,19,29,060,23,20,21,257,18,10,21,225,20,05,20,290,28*74
$GPGSV,3,3,12,27,13,039,20,13,13,316,22,26,12,317,,23,10,145,*73
$GPRMC,222944.000,A,3748.1840,N,12217.6698,W,2.13,196.11,100415,,,A*7B
$GPVTG,196.11,T,,M,2.13,N,3.9,K,A*09
$GPGGA,222945.000,3748.1834,N,12217.6698,W,1,07,1.5,8.5,M,-25.1,M,,0000*61
$GPGSA,A,3,10,20,30,07,09,28,05,,,,,,3.1,1.5,2.7*30
$GPRMC,222945.000,A,3748.1834,N,12217.6698,W,1.89,175.85,100415,,,A*79
$GPVTG,175.85,T,,M,1.89,N,3.5,K,A*05
$GPGGA,222946.000,3748.1834,N,12217.6697,W,1,07,1.5,7.5,M,-25.1,M,,0000*62
$GPGSA,A,3,10,20,30,07,09,28,05,,,,,,3.1,1.5,2.7*30
$GPRMC,222946.000,A,3748.1834,N,12217.6697,W,0.91,173.43,100415,,,A*71
$GPVTG,173.43,T,,M,0.91,N,1.7,K,A*01
$GPGGA,222947.000,3748.1833,N,12217.6698,W,1,07,1.5,7.6,M,-25.1,M,,0000*68
$GPGSA,A,3,10,20,30,07,09,28,05,,,,,,3.1,1.5,2.7*30
$GPRMC,222947.000,A,3748.1833,N,12217.6698,W,0.91,163.32,100415,,,A*7F
$GPVTG,163.32,T,,M,0.91,N,1.7,K,A*06
$GPGGA,222948.000,3748.1828,N,12217.6704,W,1,07,1.5,9.4,M,-25.1,M,,0000*65
$GPGSA,A,3,10,20,30,07,09,28,05,,,,,,3.1,1.5,2.7*30
$GPRMC,222948.000,A,3748.1828,N,12217.6704,W,1.19,163.32,100415,,,A*7F
$GPVTG,163.32,T,,M,1.19,N,2.2,K,A*01
$GPGGA,222949.000,3748.1825,N,12217.6703,W,1,07,1.5,7.6,M,-25.1,M,,0000*62
$GPGSA,A,3,10,20,30,07,09,28,05,,,,,,3.1,1.5,2.7*30
$GPGSV,3,1,12,30,63,330,22,07,61,048,16,28,51,235,25,09,40,152,29*78
$GPGSV,3,2,12,19,29,060,,20,21,257,30,10,21,225,18,05,20,290,26*7A
$GPGSV,3,3,12,27,13,039,20,13,13,316,13,26,12,317,,23,10,145,*71
$GPVTG,164.59,T,,M,0.87,N,1.6,K,A*0A
$GPGGA,222950.000,3748.1826,N,12217.6702,W,1,07,1.5,7.5,M,-25.1,M,,0000*6B
$GPGSA,A,3,10,20,30,07,09,28,05,,,,,,3.1,1.5,2.7*30
$GPRMC,222950.000,A,3748.1826,N,12217.6702,W,1.06,193.36,100415,,,A*7B
$GPVTG,193.36,T,,M,1.06,N,2.0,K,A*06
$GPGGA,222951.000,3748.1826,N,12217.6699,W,1,07,1.5,5.3,M,-25.1,M,,0000*6D
$GPGSA,A,3,10,20,30,07,09,28,05,,,,,,3.1,1.5,2.7*30
$GPRMC,222951.000,A,3748.1826,N,12217.6699,W,0.92,169.55,100415,,,A*75
$GPVTG,169.55,T,,M,0.92,N,1.7,K,A*0E
$GPGGA,222952.000,3748.1821,N,12217.6699,W,1,07,1.5,4.5,M,-25.1,M,,0000*6E
$GPGSA,A,3,10,20,30,07,09,28,05,,,,,,3.1,1.5,2.7*30
$GPRMC,222952.000,A,3748.1821,N,12217.6699,W,1.35,187.66,100415,,,A*7D
$GPVTG,187.66,T,,M,1.35,N,2.5,K,A*03
$GPGGA,222953.000,3748.1818,N,12217.6703,W,1,07,1.5,4.9,M,-25.1,M,,0000*6B
$GPGSA,A,3,10,20,30,07,09,28,05,,,,,,3.1,1.5,2.7*30
$GPRMC,222953.000,A,3748.1818,N,12217.6703,W,1.31,176.97,100415,,,A*70
$GPVTG,176.97,T,,M,1.31,N,2.4,K,A*06
$GPGGA,222954.000,3748.1810,N,12217.6701,W,1,07,1.5,4.4,M,-25.1,M,,0000*6B
$GPGSA,A,3,10,20,30,07,09,28,05,,,,,,3.1,1.5,2.7*30
$GPGSV,3,1,12,30,63,330,25,07,61,048,16,28,51,235,26,09,40,152,25*70
$GPGSV,3,2,12,19,29,060,,20,21,257,31,10,21,225,17,05,20,290,28*7A
$GPGSV,3,3,12,27,13,039,20,13,13,316,28,26,12,317,,23,10,145,*79
$GPRMC,222954.000,A,3748.1810,N,12217.6701,W,1.87,170.34,100415,,,A*7F
$GPVTG,170.34,T,,M,1.87,N,3.5,K,A*04
$GPGGA,222955.000,3748.1804,N,12217.6704,W,1,07,1.5,5.4,M,-25.1,M,,0000*6B
$GPGSA,A,3,10,20,30,07,09,28,05,,,,,,3.1,1.5,2.7*30
$GPRMC,222955.000,A,3748.1804,N,12217.6704,W,1.34,179.84,100415,,,A*74
$GPVTG,179.84,T,,M,1.34,N,2.5,K,A*0F
$GPGGA,222956.000,3748.1803,N,12217.6702,W,1,07,1.5,5.1,M,-25.1,M,,0000*6C
$GPGSA,A,3,10,20,30,07,09,28,05,,,,,,3.1,1.5,2.7*30
$GPRMC,222956.000,A,3748.1803,N,12217.6702,W,1.18,169.61,100415,,,A*72
$GPVTG,169.61,T,,M,1.18,N,2.2,K,A*0C
$GPGGA,222957.000,3748.1799,N,12217.6705,W,1,07,1.5,5.8,M,-25.1,M,,0000*6F
$GPGSA,A,3,10,20,30,07,09,28,05,,,,,,3.1,1.5,2.7*30
$GPRMC,222957.000,A,3748.1799,N,12217.6705,W,0.87,186.22,100415,,,A*79
$GPVTG,186.22,T,,M,0.87,N,1.6,K,A*0A
$GPGGA,222958.000,3748.1796,N,12217.6700,W,1,07,1.5,4.1,M,-25.1,M,,0000*62
$GPGSA,A,3,10,20,30,07,09,28,05,,,,,,3.1,1.5,2.7*30
$GPRMC,222958.000,A,3748.1796,N,12217.6700,W,0.90,156.84,100415,,,A*7B
$GPVTG,156.84,T,,M,0.90,N,1.7,K,A*0C
$GPGGA,222959.000,3748.1795,N,12217.6700,W,1,07,1.5,2.7,M,-25.1,M,,0000*60
$GPGSA,A,3,10,20,30,07,09,28,05,,,,,,3.1,1.5,2.7*30
$GPGSV,3,1,12,30,63,330,26,07,61,048,16,28,51,235,26,09,40,152,25*73
$GPGSV,3,2,12,19,29,060,,20,21,257,16,10,21,225,15,05,20,290,20*75
$GPGSV,3,3,12,27,13,039,20,13,13,316,18,26,12,317,,23,10,145,*7A
$GPRMC,222959.000,A,3748.1795,N,12217.6700,W,1.19,200.00,100415,,,A*75
$GPVTG,200.00,T,,M,1.19,N,2.2,K,A*06
$GPGGA,223000.000,3748.1787,N,12217.6704,W,1,07,1.5,2.9,M,-25.1,M,,0000*6D
$GPGSA,A,3,10,20,30,07,09,28,05,,,,,,3.1,1.5,2.7*30
$GPRMC,223000.000,A,3748.1787,N,12217.6704,W,1.37,194.64,100415,,,A*76
$GPVTG,194.64,T,,M,1.37,N,2.5,K,A*01
$GPGGA,223001.000,3748.1784,N,12217.6712,W,1,07,1.5,4.7,M,-25.1,M,,0000*60
$GPGSA,A,3,10,20,30,07,09,28,05,,,,,,3.1,1.5,2.7*30
$GPRMC,223001.000,A,3748.1784,N,12217.6712,W,0.83,208.30,100415,,,A*7A
$GPVTG,208.30,T,,M,0.83,N,1.5,K,A*0B
$GPGGA,223002.000,3748.1781,N,12217.6711,W,1,07,1.5,5.3,M,-25.1,M,,0000*60
$GPGSA,A,3,10,20,30,07,09,28,05,,,,,,3.1,1.5,2.7*30
$GPRMC,223002.000,A,3748.1781,N,12217.6711,W,0.81,144.78,100415,,,A*7A
$GPVTG,144.78,T,,M,0.81,N,1.5,K,A*0E
$GPGGA,223003.000,3748.1781,N,12217.6705,W,1,07,1.5,3.7,M,-25.1,M,,0000*66
$GPGSA,A,3,10,20,30,07,09,28,05,,,,,,3.1,1.5,2.7*30
$GPRMC,223003.000,A,3748.1781,N,12217.6705,W,1.09,109.73,100415,,,A*7D
$GPVTG,109.73,T,,M,1.09,N,2.0,K,A*0B
$GPGGA,223004.000,3748.1779,N,12217.6703,W,1,06,1.6,3.9,M,-25.1,M,,0000*6C
$GPGSA,A,3,20,30,07,09,28,05,,,,,,,3.2,1.6,2.7*31
$GPGSV,3,1,12,30,63,330,22,07,61,048,16,28,51,235,13,09,40,152,23*77
$GPGSV,3,2,12,19,29,060,,20,21,257,13,10,21,225,,05,20,290,19*7E
$GPRMC,223004.000,A,3748.1779,N,12217.6703,W,1.17,146.85,100415,,,A*76
$GPVTG,146.85,T,,M,1.17,N,2.2,K,A*04
$GPGGA,223005.000,3748.1775,N,12217.6700,W,1,06,1.6,3.3,M,-25.1,M,,0000*68
$GPGSA,A,3,20,30,07,09,28,05,,,,,,,3.2,1.6,2.7*31
$GPRMC,223005.000,A,3748.1775,N,12217.6700,W,1.44,181.85,100415,,,A*75
$GPVTG,181.85,T,,M,1.44,N,2.7,K,A*0C
$GPGGA,223006.000,3748.1769,N,12217.6710,W,1,04,3.8,3.9,M,-25.1,M,,0000*63
$GPGSA,A,3,20,30,07,09,,,,,,,,,8.8,3.8,8.0*3E
$GPRMC,223006.000,A,3748.1769,N,12217.6710,W,2.66,214.79,100415,,,A*75
$GPVTG,214.79,T,,M,2.66,N,4.9,K,A*0B
$GPGGA,223007.000,3748.1758,N,12217.6725,W,1,04,3.8,4.5,M,-25.1,M,,0000*6D
$GPGSA,A,3,20,30,07,09,,,,,,,,,8.8,3.8,8.0*3E
$GPRMC,223007.000,A,3748.1758,N,12217.6725,W,3.28,228.43,100415,,,A*7D
$GPVTG,228.43,T,,M,3.28,N,6.1,K,A*0C
$GPGGA,223008.000,3748.1754,N,12217.6729,W,1,03,2.9,4.1,M,-25.1,M,,0000*61
$GPGSA,A,2,30,07,09,,,,,,,,,,3.1,2.9,1.0*36
$GPRMC,223008.000,A,3748.1754,N,12217.6729,W,2.41,217.63,100415,,,A*72
$GPVTG,217.63,T,,M,2.41,N,4.5,K,N*05
$GPGGA,223009.000,3748.1750,N,12217.6739,W,1,03,2.9,4.9,M,-25.1,M,,0000*6D
$GPGSA,A,2,30,07,09,,,,,,,,,,3.1,2.9,1.0*36
$GPGSV,3,1,12,30,63,330,23,07,61,048,17,28,51,235,,09,40,152,26*70
$GPGSV,3,2,12,19,29,060,,20,21,257,,10,21,225,,05,20,290,*74
$GPGSV,3,3,12,27,13,039,19,13,13,316,,26,12,317,,23,10,145,*79
$GPRMC,223009.000,A,3748.1750,N,12217.6739,W,2.40,222.41,100415,,,A*71
$GPVTG,222.41,T,,M,2.40,N,4.4,K,N*03
$GPGGA,223010.000,3748.1744,N,12217.6749,W,1,03,2.9,5.6,M,-25.1,M,,0000*69
$GPGSA,A,2,30,07,09,,,,,,,,,,3.1,2.9,1.0*36
$GPRMC,223010.000,A,3748.1744,N,12217.6749,W,2.84,212.42,100415,,,A*73
$GPVTG,212.42,T,,M,2.84,N,5.3,K,N*0D
$GPGGA,223011.000,3748.1737,N,12217.6754,W,6,00,50.0,5.6,M,-25.1,M,,0000*5A
$GPGSA,A,2,,,,,,,,,,,,,50.0,50.0,50.0*06
$GPRMC,223011.000,A,3748.1737,N,12217.6754,W,2.84,212.42,100415,,,E*7E
$GPVTG,212.42,T,,M,2.84,N,5.3,K,N*0D
$GPGGA,223012.000,3748.1738,N,12217.6755,W,1,03,2.4,5.4,M,-25.1,M,,0000*62
$GPGSA,A,2,28,30,09,,,,,,,,,,2.6,2.4,1.0*30
$GPRMC,223012.000,A,3748.1738,N,12217.6755,W,1.63,224.92,100415,,,A*75
$GPVTG,224.92,T,,M,1.63,N,3.0,K,N*0A
$GPGGA,223013.000,3748.1725,N,12217.6755,W,1,03,2.4,5.9,M,-25.1,M,,0000*62
$GPGSA,A,2,28,30,09,,,,,,,,,,2.6,2.4,1.0*30
$GPRMC,223013.000,A,3748.1725,N,12217.6755,W,2.45,164.24,100415,,,A*75
$GPVTG,164.24,T,,M,2.45,N,4.5,K,A*0A
$GPGGA,223014.000,3748.1732,N,12217.6751,W,1,04,1.8,6.0,M,-25.1,M,,0000*65
$GPGSA,A,3,28,30,07,09,,,,,,,,,2.0,1.8,1.0*3F
$GPGSV,3,1,12,30,63,330,23,07,61,048,17,28,51,235,30,09,40,152,21*74
$GPGSV,3,2,12,19,29,060,,20,21,257,,10,21,225,,05,20,290,*74
$GPGSV,3,3,12,27,13,039,20,13,13,316,,26,12,317,,23,10,145,*73
$GPRMC,223014.000,A,3748.1732,N,12217.6751,W,1.09,159.39,100415,,,A*79
$GPVTG,159.39,T,,M,1.09,N,2.0,K,A*00
$GPGGA,223015.000,3748.1723,N,12217.6754,W,1,04,1.8,6.2,M,-25.1,M,,0000*63
$GPGSA,A,3,28,30,07,09,,,,,,,,,2.0,1.8,1.0*3F
$GPRMC,223015.000,A,3748.1723,N,12217.6754,W,1.31,154.50,100415,,,A*74
$GPVTG,154.50,T,,M,1.31,N,2.4,K,A*0D
$GPGGA,223016.000,3748.1715,N,12217.6758,W,1,04,1.8,6.0,M,-25.1,M,,0000*6B
$GPGSA,A,3,28,30,07,09,,,,,,,,,2.0,1.8,1.0*3F
$GPRMC,223016.000,A,3748.1715,N,12217.6758,W,1.62,202.91,100415,,,A*75
$GPVTG,202.91,T,,M,1.62,N,3.0,K,A*03
$GPGGA,223017.000,3748.1713,N,12217.6745,W,1,04,1.8,5.3,M,-25.1,M,,0000*60
$GPGSA,A,3,28,30,07,09,,,,,,,,,2.0,1.8,1.0*3F
$GPRMC,223017.000,A,3748.1713,N,12217.6745,W,2.09,188.60,100415,,,A*7F
$GPVTG,188.60,T,,M,2.09,N,3.9,K,A*0B
$GPGGA,223018.000,3748.1698,N,12217.6741,W,1,04,1.8,5.1,M,-25.1,M,,0000*6B
$GPGSA,A,3,28,30,07,09,,,,,,,,,2.0,1.8,1.0*3F
$GPRMC,223018.000,A,3748.1698,N,12217.6741,W,2.60,185.38,100415,,,A*79
$GPVTG,185.38,T,,M,2.60,N,4.8,K,A*02
$GPGGA,223019.000,3748.1692,N,12217.6747,W,1,04,1.8,5.1,M,-25.1,M,,0000*66
$GPGSA,A,3,28,30,07,09,,,,,,,,,2.0,1.8,1.0*3F
$GPGSV,3,1,12,30,63,330,27,07,61,048,18,28,51,235,29,09,40,152,24*72
$GPGSV,3,2,12,19,29,060,,20,21,257,,10,21,225,,05,20,290,*74
$GPGSV,3,3,12,27,13,039,22,13,13,316,,26,12,317,,23,10,145,*71
$GPRMC,223019.000,A,3748.1692,N,12217.6747,W,2.78,193.65,100415,,,A*72
$GPGGA,223020.000,3748.1682,N,12217.6751,W,1,04,1.8,4.9,M,-25.1,M,,0000*63
$GPGSA,A,3,28,30,07,09,,,,,,,,,2.0,1.8,1.0*3F
$GPRMC,223020.000,A,3748.1682,N,12217.6751,W,2.86,195.06,100415,,,A*7C
$GPVTG,195.06,T,,M,2.86,N,5.3,K,A*0C
$GPGGA,223021.000,3748.1673,N,12217.6753,W,1,04,1.8,4.8,M,-25.1,M,,0000*6F
$GPGSA,A,3,28,30,07,09,,,,,,,,,2.0,1.8,1.0*3F
$GPRMC,223021.000,A,3748.1673,N,12217.6753,W,2.32,179.57,100415,,,A*78
$GPVTG,179.57,T,,M,2.32,N,4.3,K,A*04
$GPGGA,223022.000,3748.1668,N,12217.6741,W,1,04,1.8,4.7,M,-25.1,M,,0000*6A
$GPGSA,A,3,28,30,07,09,,,,,,,,,2.0,1.8,1.0*3F
$GPRMC,223022.000,A,3748.1668,N,12217.6741,W,1.96,160.19,100415,,,A*7D
$GPVTG,160.19,T,,M,1.96,N,3.6,K,A*09
$GPGGA,223023.000,3748.1664,N,12217.6733,W,1,04,1.8,4.5,M,-25.1,M,,0000*60
$GPGSA,A,3,28,30,07,09,,,,,,,,,2.0,1.8,1.0*3F
$GPRMC,223023.000,A,3748.1664,N,12217.6733,W,1.54,160.26,100415,,,A*77
$GPVTG,160.26,T,,M,1.54,N,2.8,K,A*04
$GPGGA,223024.000,3748.1660,N,12217.6731,W,1,04,1.8,4.5,M,-25.1,M,,0000*61
$GPGSA,A,3,28,30,07,09,,,,,,,,,2.0,1.8,1.0*3F
$GPGSV,3,1,12,30,63,330,27,07,61,048,17,28,51,235,30,09,40,152,27*76
$GPGSV,3,2,12,19,29,060,18,20,21,257,,10,21,225,,05,20,290,*7D
$GPGSV,3,3,12,27,13,039,21,13,13,316,,26,12,317,,23,10,145,*72
$GPRMC,223024.000,A,3748.1660,N,12217.6731,W,1.49,163.77,100415,,,A*7D
$GPVTG,163.77,T,,M,1.49,N,2.8,K,A*0F
$GPGGA,223025.000,3748.1660,N,12217.6723,W,1,04,1.8,4.8,M,-25.1,M,,0000*6E
$GPGSA,A,3,28,30,07,09,,,,,,,,,2.0,1.8,1.0*3F
$GPRMC,223025.000,A,3748.1660,N,12217.6723,W,1.65,144.65,100415,,,A*77
$GPVTG,144.65,T,,M,1.65,N,3.1,K,A*0F
$GPGGA,223026.000,3748.1655,N,12217.6724,W,1,05,2.1,6.1,M,-25.1,M,,0000*6C
$GPGSA,A,3,28,30,07,10,09,,,,,,,,4.8,2.1,4.3*3C
$GPRMC,223026.000,A,3748.1655,N,12217.6724,W,1.52,161.11,100415,,,A*75
$GPVTG,161.11,T,,M,1.52,N,2.8,K,A*07
$GPGGA,223027.000,3748.1645,N,12217.6714,W,1,05,2.1,8.6,M,-25.1,M,,0000*66
$GPGSA,A,3,28,30,07,10,09,,,,,,,,4.8,2.1,4.3*3C
$GPRMC,223027.000,A,3748.1645,N,12217.6714,W,1.76,165.77,100415,,,A*74
$GPVTG,165.77,T,,M,1.76,N,3.3,K,A*0F
$GPGGA,223028.000,3748.1642,N,12217.6712,W,1,05,2.1,12.0,M,-25.1,M,,0000*55
$GPGSA,A,3,28,30,07,10,09,,,,,,,,4.8,2.1,4.3*3C
$GPRMC,223028.000,A,3748.1642,N,12217.6712,W,1.98,169.78,100415,,,A*79
$GPVTG,169.78,T,,M,1.98,N,3.7,K,A*08
$GPGGA,223029.000,3748.1635,N,12217.6710,W,1,05,2.1,13.4,M,-25.1,M,,0000*53
$GPGSA,A,3,28,30,07,10,09,,,,,,,,4.8,2.1,4.3*3C
$GPGSV,3,1,12,30,63,330,26,07,61,048,18,28,51,235,30,09,40,152,24*7B
$GPGSV,3,2,12,19,29,060,20,20,21,257,,10,21,225,21,05,20,290,*75
$GPGSV,3,3,12,27,13,039,21,13,13,316,,26,12,317,,23,10,145,*72
$GPRMC,223029.000,A,3748.1635,N,12217.6710,W,2.13,174.04,100415,,,A*7D
$GPVTG,174.04,T,,M,2.13,N,3.9,K,A*01
$GPGGA,223030.000,3748.1629,N,12217.6716,W,1,05,2.1,12.9,M,-25.1,M,,0000*5C
$GPGSA,A,3,28,30,07,10,09,,,,,,,,4.8,2.1,4.3*3C
$GPRMC,223030.000,A,3748.1629,N,12217.6716,W,1.61,166.05,100415,,,A*7A
$GPVTG,166.05,T,,M,1.61,N,3.0,K,A*0C
$GPGGA,223031.000,3748.1625,N,12217.6713,W,1,04,2.6,12.6,M,-25.1,M,,0000*5D
$GPGSA,A,3,28,30,10,09,,,,,,,,,5.4,2.6,4.7*35
$GPRMC,223031.000,A,3748.1625,N,12217.6713,W,1.46,135.11,100415,,,A*74
$GPVTG,135.11,T,,M,1.46,N,2.7,K,A*0C
$GPGGA,223032.000,3748.1624,N,12217.6712,W,1,04,2.6,12.1,M,-25.1,M,,0000*59
$GPGSA,A,3,28,30,10,09,,,,,,,,,5.4,2.6,4.7*35
$GPRMC,223032.000,A,3748.1624,N,12217.6712,W,1.22,136.32,100415,,,A*77
$GPVTG,136.32,T,,M,1.22,N,2.3,K,A*08
$GPGGA,223033.000,3748.1618,N,12217.6716,W,1,05,2.1,12.1,M,-25.1,M,,0000*55
$GPGSA,A,3,28,30,07,10,09,,,,,,,,4.8,2.1,4.3*3C
$GPRMC,223033.000,A,3748.1618,N,12217.6716,W,2.48,167.58,100415,,,A*7A
$GPVTG,167.58,T,,M,2.48,N,4.6,K,A*0C
$GPGGA,223034.000,3748.1612,N,12217.6716,W,1,05,2.1,12.6,M,-25.1,M,,0000*5F
$GPGSA,A,3,28,30,07,10,09,,,,,,,,4.8,2.1,4.3*3C
$GPGSV,3,1,12,30,63,330,21,07,61,048,18,28,51,235,29,09,40,152,28*78
$GPGSV,3,2,12,19,29,060,19,20,21,257,,10,21,225,25,05,20,290,*7B
$GPGSV,3,3,12,27,13,039,20,13,13,316,,26,12,317,,23,10,145,*73
$GPRMC,223034.000,A,3748.1612,N,12217.6716,W,2.62,176.06,100415,,,A*74
$GPGGA,223035.000,3748.1603,N,12217.6717,W,1,05,2.1,12.4,M,-25.1,M,,0000*5D
$GPGSA,A,3,28,30,07,10,09,,,,,,,,4.8,2.1,4.3*3C
$GPRMC,223035.000,A,3748.1603,N,12217.6717,W,2.12,174.90,100415,,,A*7E
$GPVTG,174.90,T,,M,2.12,N,3.9,K,A*0D
$GPGGA,223036.000,3748.1599,N,12217.6723,W,1,05,2.1,12.8,M,-25.1,M,,0000*55
$GPGSA,A,3,28,30,07,10,09,,,,,,,,4.8,2.1,4.3*3C
$GPRMC,223036.000,A,3748.1599,N,12217.6723,W,1.37,197.62,100415,,,A*7E
$GPVTG,197.62,T,,M,1.37,N,2.5,K,A*04
$GPGGA,223037.000,3748.1598,N,12217.6727,W,1,06,1.8,12.3,M,-25.1,M,,0000*53
$GPGSA,A,3,28,30,07,10,09,20,,,,,,,3.9,1.8,3.4*32
$GPRMC,223037.000,A,3748.1598,N,12217.6727,W,1.72,212.92,100415,,,A*7A
$GPVTG,212.92,T,,M,1.72,N,3.2,K,A*02
$GPGGA,223038.000,3748.1596,N,12217.6728,W,1,06,1.8,11.8,M,-25.1,M,,0000*55
$GPGSA,A,3,28,30,07,10,09,20,,,,,,,3.9,1.8,3.4*32
$GPRMC,223038.000,A,3748.1596,N,12217.6728,W,1.29,169.58,100415,,,A*73
$GPVTG,169.58,T,,M,1.29,N,2.4,K,A*02
$GPGGA,223039.000,3748.1590,N,12217.6731,W,1,06,1.8,11.2,M,-25.1,M,,0000*50
$GPGSA,A,3,28,30,07,10,09,20,,,,,,,3.9,1.8,3.4*32
$GPGSV,3,1,12,30,63,330,27,07,61,048,17,28,51,235,26,09,40,152,26*70
$GPGSV,3,2,12,19,29,060,15,20,21,257,18,10,21,225,22,05,20,290,*79
$GPGSV,3,3,12,27,13,039,21,13,13,316,,26,12,317,,23,10,145,*72
$GPRMC,223039.000,A,3748.1590,N,12217.6731,W,1.24,192.84,100415,,,A*74
$GPVTG,192.84,T,,M,1.24,N,2.3,K,A*0D
$GPGGA,223040.000,3748.1586,N,12217.6742,W,1,06,1.8,11.5,M,-25.1,M,,0000*5A
$GPGSA,A,3,28,30,07,10,09,20,,,,,,,3.9,1.8,3.4*32
$GPRMC,223040.000,A,3748.1586,N,12217.6742,W,1.93,218.26,100415,,,A*7C
$GPVTG,218.26,T,,M,1.93,N,3.6,K,A*0C
$GPGGA,223041.000,3748.1581,N,12217.6746,W,1,06,1.8,11.2,M,-25.1,M,,0000*5F
$GPGSA,A,3,28,30,07,10,09,20,,,,,,,3.9,1.8,3.4*32
$GPRMC,223041.000,A,3748.1581,N,12217.6746,W,2.63,227.74,100415,,,A*79
$GPVTG,227.74,T,,M,2.63,N,4.9,K,A*03
$GPGGA,223042.000,3748.1571,N,12217.6756,W,1,05,1.8,10.7,M,-25.1,M,,0000*55
$GPGSA,A,3,28,30,07,09,20,,,,,,,,4.0,1.8,3.6*3F
$GPRMC,223042.000,A,3748.1571,N,12217.6756,W,3.13,226.08,100415,,,A*78
$GPVTG,226.08,T,,M,3.13,N,5.8,K,A*0F
$GPGGA,223043.000,3748.1564,N,12217.6758,W,1,05,1.8,10.2,M,-25.1,M,,0000*5B
$GPGSA,A,3,28,30,07,09,20,,,,,,,,4.0,1.8,3.6*3F
$GPRMC,223043.000,A,3748.1564,N,12217.6758,W,2.47,223.63,100415,,,A*7B
$GPVTG,223.63,T,,M,2.47,N,4.6,K,A*08
$GPGGA,223044.000,3748.1557,N,12217.6768,W,1,06,1.8,10.6,M,-25.1,M,,0000*58
$GPGSA,A,3,28,30,07,10,09,20,,,,,,,3.9,1.8,3.4*32
$GPGSV,3,1,12,30,63,330,31,07,61,048,24,28,51,235,28,09,40,152,28*77
$GPGSV,3,2,12,19,29,060,15,20,21,257,16,10,21,225,12,05,20,290,*74
$GPGSV,3,3,12,27,13,039,22,13,13,316,,26,12,317,,23,10,145,*71
$GPRMC,223044.000,A,3748.1557,N,12217.6768,W,2.33,226.01,100415,,,A*7D
$GPVTG,226.01,T,,M,2.33,N,4.3,K,A*0F
$GPGGA,223045.000,3748.1551,N,12217.6769,W,1,06,1.8,9.7,M,-25.1,M,,0000*67
$GPGSA,A,3,28,30,07,10,09,20,,,,,,,3.9,1.8,3.4*32
$GPRMC,223045.000,A,3748.1551,N,12217.6769,W,2.76,213.60,100415,,,A*7B
$GPVTG,213.60,T,,M,2.76,N,5.1,K,A*0C
$GPGGA,223046.000,3748.1548,N,12217.6771,W,1,05,2.6,8.0,M,-25.1,M,,0000*6D
$GPGSA,A,3,28,30,07,10,20,,,,,,,,4.3,2.6,3.4*3B
$GPRMC,223046.000,A,3748.1548,N,12217.6771,W,1.75,212.98,100415,,,A*7F
$GPVTG,212.98,T,,M,1.75,N,3.2,K,A*0F
$GPGGA,223047.000,3748.1542,N,12217.6769,W,1,07,1.5,9.8,M,-25.1,M,,0000*64
$GPGSA,A,3,28,30,07,10,09,20,05,,,,,,3.1,1.5,2.7*30
$GPRMC,223047.000,A,3748.1542,N,12217.6769,W,1.37,184.25,100415,,,A*71
$GPVTG,184.25,T,,M,1.37,N,2.5,K,A*05
$GPGGA,223048.000,3748.1540,N,12217.6771,W,1,07,1.5,9.7,M,-25.1,M,,0000*6F
$GPGSA,A,3,28,30,07,10,09,20,05,,,,,,3.1,1.5,2.7*30
$GPRMC,223048.000,A,3748.1540,N,12217.6771,W,1.69,211.01,100415,,,A*77
$GPVTG,211.01,T,,M,1.69,N,3.1,K,A*02
$GPGGA,223049.000,3748.1540,N,12217.6780,W,1,07,1.5,9.5,M,-25.1,M,,0000*62
$GPGSA,A,3,28,30,07,10,09,20,05,,,,,,3.1,1.5,2.7*30
$GPGSV,3,1,12,30,63,330,24,07,61,048,19,28,51,235,31,09,40,152,14*7A
$GPGSV,3,2,12,19,29,060,17,20,21,257,28,10,21,225,13,05,20,290,16*7D
$GPGSV,3,3,12,27,13,039,22,13,13,316,,26,12,317,,23,10,145,*71
$GPRMC,223049.000,A,3748.1540,N,12217.6780,W,1.85,255.46,100415,,,A*79
$GPGGA,223050.000,3748.1543,N,12217.6793,W,1,07,1.5,10.4,M,-25.1,M,,0000*52
$GPGSA,A,3,28,30,07,10,09,20,05,,,,,,3.1,1.5,2.7*30
$GPRMC,223050.000,A,3748.1543,N,12217.6793,W,2.82,266.17,100415,,,A*70
$GPVTG,266.17,T,,M,2.82,N,5.2,K,A*06
$GPGGA,223051.000,3748.1542,N,12217.6797,W,1,05,2.7,11.0,M,-25.1,M,,0000*50
$GPGSA,A,3,28,30,07,20,05,,,,,,,,4.5,2.7,3.7*3B
$GPRMC,223051.000,A,3748.1542,N,12217.6797,W,1.84,257.91,100415,,,A*7D
$GPVTG,257.91,T,,M,1.84,N,3.4,K,A*0F
$GPGGA,223052.000,3748.1538,N,12217.6792,W,1,04,3.2,10.7,M,-25.1,M,,0000*58
$GPGSA,A,3,28,30,07,20,,,,,,,,,5.1,3.2,3.9*31
$GPRMC,223052.000,A,3748.1538,N,12217.6792,W,1.42,213.01,100415,,,A*75
$GPVTG,213.01,T,,M,1.42,N,2.6,K,A*0F
$GPGGA,223053.000,3748.1533,N,12217.6780,W,1,05,2.7,9.5,M,-25.1,M,,0000*6E
$GPGSA,A,3,28,30,07,05,20,,,,,,,,4.5,2.7,3.6*3A
$GPRMC,223053.000,A,3748.1533,N,12217.6780,W,0.96,172.98,100415,,,A*70
$GPVTG,172.98,T,,M,0.96,N,1.8,K,A*0E
$GPGGA,223054.000,3748.1535,N,12217.6771,W,1,05,2.7,7.6,M,-25.1,M,,0000*6C
$GPGSA,A,3,28,30,07,05,20,,,,,,,,4.5,2.7,3.6*3A
$GPGSV,3,1,12,30,63,330,25,07,61,048,18,28,51,235,21,09,40,152,*7E
$GPGSV,3,2,12,19,29,060,19,20,21,257,25,10,21,225,,05,20,290,28*71
$GPGSV,3,3,12,27,13,039,23,13,13,316,,26,12,317,,23,10,145,*70
$GPRMC,223054.000,A,3748.1535,N,12217.6771,W,0.77,194.14,100415,,,A*7C
$GPVTG,194.14,T,,M,0.77,N,1.4,K,A*01
$GPGGA,223055.000,3748.1533,N,12217.6764,W,1,05,2.7,7.6,M,-25.1,M,,0000*6F
$GPGSA,A,3,28,30,07,05,20,,,,,,,,4.5,2.7,3.6*3A
$GPRMC,223055.000,A,3748.1533,N,12217.6764,W,0.63,249.15,100415,,,A*78
$GPVTG,249.15,T,,M,0.63,N,1.2,K,A*00
$GPGGA,223056.000,3748.1539,N,12217.6764,W,1,04,3.4,7.5,M,-25.1,M,,0000*66
$GPGSA,A,3,30,07,05,20,,,,,,,,,5.8,3.4,4.7*38
$GPRMC,223056.000,A,3748.1539,N,12217.6764,W,1.60,348.50,100415,,,A*72
$GPVTG,348.50,T,,M,1.60,N,3.0,K,A*03
$GPGGA,223057.000,3748.1559,N,12217.6769,W,1,05,2.7,6.7,M,-25.1,M,,0000*6C
$GPGSA,A,3,28,30,07,05,20,,,,,,,,4.5,2.7,3.6*3A
$GPRMC,223057.000,A,3748.1559,N,12217.6769,W,3.72,1.74,100415,,,A*71
$GPVTG,1.74,T,,M,3.72,N,6.9,K,A*06
$GPGGA,223058.000,3748.1577,N,12217.6767,W,1,05,2.7,6.3,M,-25.1,M,,0000*65
$GPGSA,A,3,28,30,07,05,20,,,,,,,,4.5,2.7,3.6*3A
$GPRMC,223058.000,A,3748.1577,N,12217.6767,W,5.26,0.76,100415,,,A*78
$GPVTG,0.76,T,,M,5.26,N,9.7,K,A*03
$GPGGA,223059.000,3748.1601,N,12217.6763,W,1,05,2.7,6.1,M,-25.1,M,,0000*60
$GPGSA,A,3,28,30,07,05,20,,,,,,,,4.5,2.7,3.6*3A
$GPGSV,3,1,12,30,63,330,25,07,61,048,17,28,51,235,12,09,40,152,*71
$GPGSV,3,2,12,19,29,060,17,20,21,257,16,10,21,225,,05,20,290,25*72
$GPGSV,3,3,12,27,13,039,23,13,13,316,,26,12,317,,23,10,145,*70
$GPRMC,223059.000,A,3748.1601,N,12217.6763,W,6.50,1.58,100415,,,A*70
$GPVTG,1.58,T,,M,6.50,N,12.0,K,A*31
$GPGGA,223100.000,3748.1631,N,12217.6769,W,1,04,2.6,5.5,M,-25.1,M,,0000*63
$GPGSA,A,3,28,30,05,20,,,,,,,,,2.8,2.6,1.0*33
$GPRMC,223100.000,A,3748.1631,N,12217.6769,W,7.00,355.10,100415,,,A*7E
$GPVTG,355.10,T,,M,7.00,N,13.0,K,A*3A
$GPGGA,223101.000,3748.1655,N,12217.6773,W,1,04,2.6,5.1,M,-25.1,M,,0000*6F
$GPGSA,A,3,28,30,05,20,,,,,,,,,2.8,2.6,1.0*33
$GPRMC,223101.000,A,3748.1655,N,12217.6773,W,7.45,352.01,100415,,,A*70
$GPVTG,352.01,T,,M,7.45,N,13.8,K,A*34
$GPGGA,223102.000,3748.1684,N,12217.6775,W,1,04,2.6,4.0,M,-25.1,M,,0000*66
$GPGSA,A,3,28,30,05,20,,,,,,,,,2.8,2.6,1.0*33
$GPRMC,223102.000,A,3748.1684,N,12217.6775,W,7.97,358.58,100415,,,A*70
$GPVTG,358.58,T,,M,7.97,N,14.8,K,A*3A
$GPGGA,223103.000,3748.1707,N,12217.6773,W,1,04,2.6,4.2,M,-25.1,M,,0000*69
$GPGSA,A,3,28,30,05,20,,,,,,,,,2.8,2.6,1.0*33
$GPRMC,223103.000,A,3748.1707,N,12217.6773,W,8.77,1.82,100415,,,A*74
$GPVTG,1.82,T,,M,8.77,N,16.2,K,A*3B
$GPGGA,223104.000,3748.1732,N,12217.6772,W,6,00,50.0,3.9,M,-25.1,M,,0000*57
$GPGSA,A,2,,,,,,,,,,,,,50.0,50.0,50.0*06
$GPGSV,3,1,12,30,63,330,16,07,61,048,,28,51,235,13,09,40,152,*76
$GPGSV,3,2,12,19,29,060,16,20,21,257,,10,21,225,,05,20,290,23*72
$GPGSV,3,3,12,27,13,039,23,13,13,316,,26,12,317,,23,10,145,*70
$GPRMC,223104.000,A,3748.1732,N,12217.6772,W,8.77,1.82,100415,,,E*70
$GPGGA,223105.000,3748.1756,N,12217.6771,W,6,00,50.0,3.6,M,-25.1,M,,0000*58
$GPGSA,A,2,,,,,,,,,,,,,50.0,50.0,50.0*06
$GPRMC,223105.000,A,3748.1756,N,12217.6771,W,8.77,1.82,100415,,,E*70
$GPVTG,1.82,T,,M,8.77,N,16.2,K,N*34
$GPGGA,223106.000,3748.1781,N,12217.6770,W,6,00,50.0,3.4,M,-25.1,M,,0000*52
$GPGSA,A,2,,,,,,,,,,,,,50.0,50.0,50.0*06
$GPRMC,223106.000,A,3748.1781,N,12217.6770,W,8.77,1.82,100415,,,E*78
$GPVTG,1.82,T,,M,8.77,N,16.2,K,N*34
$GPGGA,223107.000,3748.1805,N,12217.6769,W,6,00,50.0,3.1,M,-25.1,M,,0000*5D
$GPGSA,A,2,,,,,,,,,,,,,50.0,50.0,50.0*06
$GPRMC,223107.000,A,3748.1805,N,12217.6769,W,8.77,1.82,100415,,,E*72
$GPVTG,1.82,T,,M,8.77,N,16.2,K,N*34
$GPGGA,223108.000,3748.1829,N,12217.6768,W,6,00,50.0,2.8,M,-25.1,M,,0000*55
$GPGSA,A,2,,,,,,,,,,,,,50.0,50.0,50.0*06
$GPRMC,223108.000,A,3748.1829,N,12217.6768,W,8.77,1.82,100415,,,E*72
$GPVTG,1.82,T,,M,8.77,N,16.2,K,N*34
$GPGGA,223109.000,3748.1854,N,12217.6767,W,6,00,50.0,2.5,M,-25.1,M,,0000*5C
$GPGSA,A,2,,,,,,,,,,,,,50.0,50.0,50.0*06
$GPGSV,3,1,12,30,63,330,16,07,61,048,,28,51,235,28,09,40,152,*7E
$GPGSV,3,2,12,19,29,060,,20,21,257,,10,21,225,,05,20,290,31*76
$GPGSV,3,3,12,27,13,039,27,13,13,316,39,26,12,317,,23,10,145,*7E
$GPRMC,223109.000,A,3748.1854,N,12217.6767,W,8.77,1.82,100415,,,E*76
$GPVTG,1.82,T,,M,8.77,N,16.2,K,N*34
$GPGGA,223110.000,3748.1784,N,12217.6751,W,1,03,4.8,3.1,M,-25.1,M,,0000*6B
$GPGSA,A,2,28,20,05,,,,,,,,,,4.9,4.8,1.0*3E
$GPRMC,223110.000,A,3748.1784,N,12217.6751,W,1.36,28.44,100415,,,A*40
$GPVTG,28.44,T,,M,1.36,N,2.5,K,A*34
$GPGGA,223111.000,3748.1743,N,12217.6744,W,1,03,4.8,3.6,M,-25.1,M,,0000*62
$GPGSA,A,2,28,20,05,,,,,,,,,,4.9,4.8,1.0*3E
$GPRMC,223111.000,A,3748.1743,N,12217.6744,W,0.30,299.66,100415,,,A*71
$GPVTG,299.66,T,,M,0.30,N,0.6,K,A*0A
$GPGGA,223112.000,3748.1649,N,12217.6788,W,1,04,2.6,3.9,M,-25.1,M,,0000*6A
$GPGSA,A,3,28,30,20,05,,,,,,,,,2.8,2.6,1.0*33
$GPRMC,223112.000,A,3748.1649,N,12217.6788,W,1.84,248.33,100415,,,A*7B
$GPVTG,248.33,T,,M,1.84,N,3.4,K,A*09
$GPGGA,223113.000,3748.1604,N,12217.6796,W,1,04,2.6,4.2,M,-25.1,M,,0000*61
$GPGSA,A,3,28,30,20,05,,,,,,,,,2.8,2.6,1.0*33
$GPRMC,223113.000,A,3748.1604,N,12217.6796,W,1.95,257.51,100415,,,A*76
$GPVTG,257.51,T,,M,1.95,N,3.6,K,A*01
$GPGGA,223114.000,3748.1569,N,12217.6835,W,1,04,2.6,3.6,M,-25.1,M,,0000*6B
$GPGSA,A,3,28,30,20,05,,,,,,,,,2.8,2.6,1.0*33
$GPGSV,3,1,12,30,63,330,20,07,61,048,,28,51,235,24,09,40,152,*77
$GPGSV,3,2,12,19,29,060,,20,21,257,19,10,21,225,,05,20,290,30*7F
$GPGSV,3,3,12,27,13,039,31,13,13,316,37,26,12,317,,23,10,145,*77
$GPVTG,248.05,T,,M,2.93,N,5.4,K,A*0F
$GPGGA,223115.000,3748.1551,N,12217.6840,W,1,04,2.6,4.4,M,-25.1,M,,0000*66
$GPGSA,A,3,28,30,20,05,,,,,,,,,2.8,2.6,1.0*33
$GPRMC,223115.000,A,3748.1551,N,12217.6840,W,2.35,241.89,100415,,,A*7C
$GPVTG,241.89,T,,M,2.35,N,4.4,K,A*0F
$GPGGA,223116.000,3748.1525,N,12217.6865,W,1,03,2.9,4.5,M,-25.1,M,,0000*68
$GPGSA,A,2,28,30,05,,,,,,,,,,3.0,2.9,1.0*36
$GPRMC,223116.000,A,3748.1525,N,12217.6865,W,2.25,247.55,100415,,,A*7D
$GPVTG,247.55,T,,M,2.25,N,4.2,K,N*00
$GPGGA,223117.000,3748.1482,N,12217.6897,W,1,04,3.0,3.6,M,-25.1,M,,0000*63
$GPGSA,A,3,28,30,05,07,,,,,,,,,5.2,3.0,4.3*3A
$GPRMC,223117.000,A,3748.1482,N,12217.6897,W,2.12,260.15,100415,,,A*78
$GPVTG,260.15,T,,M,2.12,N,3.9,K,A*06
