$ADVER,3080,2.3
$GPRMC,162834.174,A,3748.7969,N,12217.8567,W,0.10,53.22,290812,,,A*41
$GPGGA,162835.176,3748.7960,N,12217.8554,W,1,04,1.7,23.5,M,-25.1,M,,0000*53
$GPGSA,A,3,07,28,08,17,,,,,,,,,2.0,1.7,1.0*34
$GPRMC,162835.176,A,3748.7960,N,12217.8554,W,0.07,104.16,290812,,,A*79
$GPVTG,104.16,T,,M,0.07,N,0.1,K,A*09
$GPGGA,162836.176,3748.7965,N,12217.8560,W,1,04,1.7,25.8,M,-25.1,M,,0000*59
$GPGSA,A,3,07,28,08,17,,,,,,,,,2.0,1.7,1.0*34
$GPRMC,162836.176,A,3748.7965,N,12217.8560,W,0.15,325.57,290812,,,A*7F
$GPVTG,325.57,T,,M,0.15,N,0.3,K,A*0C
$GPGGA,162837.000,3748.7962,N,12217.8562,W,1,04,1.7,25.7,M,-25.1,M,,0000*52
$GPGSA,A,3,07,28,08,17,,,,,,,,,2.0,1.7,1.0*34
$GPRMC,162837.000,A,3748.7962,N,12217.8562,W,0.10,120.74,290812,,,A*78
$GPVTG,120.74,T,,M,0.10,N,0.2,K,A*0E
$GPGGA,162838.000,3748.7964,N,12217.8556,W,1,04,1.7,24.9,M,-25.1,M,,0000*53
$GPGSA,A,3,07,28,08,17,,,,,,,,,2.0,1.7,1.0*34
$GPGSV,3,1,12,08,66,004,44,28,64,263,42,07,47,083,41,17,20,184,39*74
$GPGSV,3,2,12,26,35,313,38,19,23,047,29,13,20,153,,05,16,265,35*70
$GPGSV,3,3,12,11,16,096,28,10,08,214,,01,03,110,,24,00,066,*72
$GPRMC,162838.000,A,3748.7964,N,12217.8556,W,0.12,125.65,290812,,,A*71
$GPVTG,125.65,T,,M,0.12,N,0.2,K,A*09
$GPGGA,162839.000,3748.7968,N,12217.8558,W,1,04,1.7,24.0,M,-25.1,M,,0000*59
$GPGSA,A,3,07,28,08,17,,,,,,,,,2.0,1.7,1.0*34
$GPRMC,162839.000,A,3748.7968,N,12217.8558,W,0.11,120.15,290812,,,A*73
$GPVTG,120.15,T,,M,0.11,N,0.2,K,A*08
$GPGGA,162840.000,3748.7966,N,12217.8557,W,1,04,1.7,24.1,M,-25.1,M,,0000*57
$GPGSA,A,3,07,28,08,17,,,,,,,,,2.0,1.7,1.0*34
$GPRMC,162840.000,A,3748.7966,N,12217.8557,W,0.12,126.73,290812,,,A*79
$GPVTG,126.73,T,,M,0.12,N,0.2,K,A*0D
$GPGGA,162841.000,3748.7962,N,12217.8556,W,1,04,1.7,25.9,M,-25.1,M,,0000*5A
$GPGSA,A,3,07,28,08,17,,,,,,,,,2.0,1.7,1.0*34
$GPRMC,162841.000,A,3748.7962,N,12217.8556,W,0.10,128.46,290812,,,A*77
$GPVTG,128.46,T,,M,0.10,N,0.2,K,A*07
$GPGGA,162842.000,3748.7959,N,12217.8555,W,1,04,1.7,26.3,M,-25.1,M,,0000*5B
$GPGSA,A,3,07,28,08,17,,,,,,,,,2.0,1.7,1.0*34
$GPRMC,162842.000,A,3748.7959,N,12217.8555,W,0.11,122.43,290812,,,A*71
$GPVTG,122.43,T,,M,0.11,N,0.2,K,A*09
$GPGGA,162843.000,3748.7958,N,12217.8555,W,1,04,1.7,26.0,M,-25.1,M,,0000*58
$GPGSA,A,3,07,28,08,17,,,,,,,,,2.0,1.7,1.0*34
$GPGSV,3,1,12,08,66,004,44,28,64,263,42,07,47,083,41,17,20,184,38*75
$GPGSV,3,2,12,26,35,313,38,19,23,047,29,13,20,153,,05,16,265,35*70
$GPGSV,3,3,12,11,16,096,28,10,08,214,,01,03,110,,24,00,066,*72
$GPRMC,162843.000,A,3748.7958,N,12217.8555,W,0.13,131.76,290812,,,A*77
$GPVTG,131.76,T,,M,0.13,N,0.2,K,A*0F
$GPGGA,162844.000,3748.7964,N,12217.8559,W,1,04,1.7,23.2,M,-25.1,M,,0000*5B
$GPGSA,A,3,07,28,08,17,,,,,,,,,2.0,1.7,1.0*34
$GPRMC,162844.000,A,3748.7964,N,12217.8559,W,0.12,131.46,290812,,,A*71
$GPVTG,131.46,T,,M,0.12,N,0.2,K,A*0D
$GPGGA,162845.000,3748.7965,N,12217.8560,W,1,04,1.7,22.9,M,-25.1,M,,0000*5B
$GPGSA,A,3,07,28,08,17,,,,,,,,,2.0,1.7,1.0*34
$GPRMC,162845.000,A,3748.7965,N,12217.8560,W,0.11,129.86,290812,,,A*7D
$GPVTG,129.86,T,,M,0.11,N,0.2,K,A*0B
$GPGGA,162846.000,3748.7967,N,12217.8562,W,1,04,1.7,22.0,M,-25.1,M,,0000*51
$GPGSA,A,3,07,28,08,17,,,,,,,,,2.0,1.7,1.0*34
$GPRMC,162846.000,A,3748.7967,N,12217.8562,W,0.12,135.79,290812,,,A*70
$GPVTG,135.79,T,,M,0.12,N,0.2,K,A*05
$GPGGA,162847.000,3748.7969,N,12217.8564,W,1,04,1.7,21.1,M,-25.1,M,,0000*5A
$GPGSA,A,3,07,28,08,17,,,,,,,,,2.0,1.7,1.0*34
$GPRMC,162847.000,A,3748.7969,N,12217.8564,W,0.10,127.94,290812,,,A*7B
$GPVTG,127.94,T,,M,0.10,N,0.2,K,A*07
$GPGGA,162848.000,3748.7971,N,12217.8565,W,1,04,1.7,20.7,M,-25.1,M,,0000*5A
$GPGSA,A,3,07,28,08,17,,,,,,,,,2.0,1.7,1.0*34
$GPGSV,3,1,12,08,66,004,44,28,64,263,42,07,47,083,41,26,35,313,39*7E
$GPGSV,3,2,12,19,23,047,29,13,20,153,,17,20,184,38,11,16,096,28*7D
$GPGSV,3,3,12,05,16,265,35,10,08,214,,01,03,110,,24,00,066,*75
$GPVTG,129.26,T,,M,0.11,N,0.2,K,A*01
$GPGGA,162849.000,3748.7971,N,12217.8565,W,1,04,1.7,20.5,M,-25.1,M,,0000*59
$GPGSA,A,3,07,28,08,17,,,,,,,,,2.0,1.7,1.0*34
$GPRMC,162849.000,A,3748.7971,N,12217.8565,W,0.09,121.69,290812,,,A*71
$GPVTG,121.69,T,,M,0.09,N,0.2,K,A*0B
$GPGGA,162850.000,3748.7972,N,12217.8566,W,1,04,1.7,20.3,M,-25.1,M,,0000*57
$GPGSA,A,3,07,28,08,17,,,,,,,,,2.0,1.7,1.0*34
$GPRMC,162850.000,A,3748.7972,N,12217.8566,W,0.11,130.68,290812,,,A*71
$GPVTG,130.68,T,,M,0.11,N,0.2,K,A*03
$GPGGA,162851.000,3748.7972,N,12217.8566,W,1,04,1.7,20.1,M,-25.1,M,,0000*54
$GPGSA,A,3,07,28,08,17,,,,,,,,,2.0,1.7,1.0*34
$GPRMC,162851.000,A,3748.7972,N,12217.8566,W,0.11,132.60,290812,,,A*7A
$GPVTG,132.60,T,,M,0.11,N,0.2,K,A*09
$GPGGA,162852.000,3748.7973,N,12217.8567,W,1,04,1.7,19.9,M,-25.1,M,,0000*55
$GPGSA,A,3,07,28,08,17,,,,,,,,,2.0,1.7,1.0*34
$GPRMC,162852.000,A,3748.7973,N,12217.8567,W,0.07,119.82,290812,,,A*7B
$GPVTG,119.82,T,,M,0.07,N,0.1,K,A*08
$GPGGA,162853.000,3748.7973,N,12217.8568,W,1,04,1.7,19.6,M,-25.1,M,,0000*54
$GPGSA,A,3,07,28,08,17,,,,,,,,,2.0,1.7,1.0*34
$GPGSV,3,1,12,08,66,004,44,28,64,263,42,07,47,083,40,26,35,313,39*7F
$GPGSV,3,2,12,19,23,047,29,13,20,153,27,17,20,184,38,11,16,096,29*79
$GPGSV,3,3,12,05,16,265,34,10,08,214,,01,03,110,,24,00,066,*74
$GPRMC,162853.000,A,3748.7973,N,12217.8568,W,0.03,151.05,290812,,,A*72
$GPVTG,151.05,T,,M,0.03,N,0.1,K,A*0F
$GPGGA,162854.000,3748.7972,N,12217.8570,W,1,04,1.7,20.1,M,-25.1,M,,0000*56
$GPGSA,A,3,07,28,08,17,,,,,,,,,2.0,1.7,1.0*34
$GPRMC,162854.000,A,3748.7972,N,12217.8570,W,0.26,6.19,290812,,,A*74
$GPVTG,6.19,T,,M,0.26,N,0.5,K,A*02
$GPGGA,162855.000,3748.7977,N,12217.8574,W,1,04,1.7,18.3,M,-25.1,M,,0000*5F
$GPGSA,A,3,07,28,08,17,,,,,,,,,2.0,1.7,1.0*34
$GPRMC,162855.000,A,3748.7977,N,12217.8574,W,1.05,53.98,290812,,,A*4D
$GPVTG,53.98,T,,M,1.05,N,2.0,K,A*3C
$GPGGA,162856.000,3748.7977,N,12217.8568,W,1,04,1.7,18.6,M,-25.1,M,,0000*54
$GPGSA,A,3,07,28,08,17,,,,,,,,,2.0,1.7,1.0*34
$GPRMC,162856.000,A,3748.7977,N,12217.8568,W,1.66,91.52,290812,,,A*4E
$GPVTG,91.52,T,,M,1.66,N,3.1,K,A*31
$GPGGA,162857.000,3748.7978,N,12217.8568,W,1,04,1.7,18.2,M,-25.1,M,,0000*5E
$GPGSA,A,3,07,28,08,17,,,,,,,,,2.0,1.7,1.0*34
$GPRMC,162857.000,A,3748.7978,N,12217.8568,W,0.13,198.68,290812,,,A*72
$GPVTG,198.68,T,,M,0.13,N,0.2,K,A*03
$GPGGA,162858.000,3748.7978,N,12217.8568,W,1,04,1.7,18.1,M,-25.1,M,,0000*52
$GPGSA,A,3,07,28,08,17,,,,,,,,,2.0,1.7,1.0*34
$GPGSV,3,1,12,08,66,004,38,28,64,263,34,07,47,083,30,26,35,313,35*7E
$GPGSV,3,2,12,19,23,047,34,13,20,153,32,17,20,184,37,11,16,096,23*74
$GPGSV,3,3,12,05,16,265,34,10,08,214,29,01,03,110,,24,00,066,*7F
$GPRMC,162858.000,A,3748.7978,N,12217.8568,W,0.05,159.75,290812,,,A*7B
$GPVTG,159.75,T,,M,0.05,N,0.1,K,A*06
$GPGGA,162859.000,3748.7978,N,12217.8567,W,1,04,1.7,18.0,M,-25.1,M,,0000*5D
$GPGSA,A,3,07,28,08,17,,,,,,,,,2.0,1.7,1.0*34
$GPRMC,162859.000,A,3748.7978,N,12217.8567,W,0.13,85.19,290812,,,A*48
$GPVTG,85.19,T,,M,0.13,N,0.2,K,A*38
$GPGGA,162900.000,3748.7979,N,12217.8566,W,1,04,1.7,17.9,M,-25.1,M,,0000*56
$GPGSA,A,3,07,28,08,17,,,,,,,,,2.0,1.7,1.0*34
$GPRMC,162900.000,A,3748.7979,N,12217.8566,W,0.10,53.59,290812,,,A*49
$GPVTG,53.59,T,,M,0.10,N,0.2,K,A*34
$GPGGA,162901.000,3748.7978,N,12217.8563,W,1,04,1.7,18.3,M,-25.1,M,,0000*56
$GPGSA,A,3,07,28,08,17,,,,,,,,,2.0,1.7,1.0*34
$GPRMC,162901.000,A,3748.7978,N,12217.8563,W,0.59,79.29,290812,,,A*4E
$GPVTG,79.29,T,,M,0.59,N,1.1,K,A*34
$GPGGA,162902.000,3748.7975,N,12217.8554,W,1,04,1.7,19.6,M,-25.1,M,,0000*58
$GPGSA,A,3,07,28,08,17,,,,,,,,,2.0,1.7,1.0*34
$GPRMC,162902.000,A,3748.7975,N,12217.8554,W,0.85,82.09,290812,,,A*43
$GPVTG,82.09,T,,M,0.85,N,1.6,K,A*34
$GPGGA,162903.000,3748.7974,N,12217.8549,W,1,04,1.7,19.7,M,-25.1,M,,0000*55
$GPGSA,A,3,07,28,08,17,,,,,,,,,2.0,1.7,1.0*34
$GPGSV,3,1,12,08,66,004,29,28,64,263,26,07,47,083,26,26,35,313,33*7C
$GPGSV,3,2,12,19,23,047,31,13,20,153,26,17,20,184,31,11,16,096,21*70
$GPGSV,3,3,12,05,16,265,29,10,08,214,29,01,03,110,,24,00,066,*73
$GPRMC,162903.000,A,3748.7974,N,12217.8549,W,0.79,124.90,290812,,,A*71
$GPGGA,162904.000,3748.7975,N,12217.8547,W,1,04,1.7,19.7,M,-25.1,M,,0000*5D
$GPGSA,A,3,07,28,08,17,,,,,,,,,2.0,1.7,1.0*34
$GPRMC,162904.000,A,3748.7975,N,12217.8547,W,0.19,344.16,290812,,,A*75
$GPVTG,344.16,T,,M,0.19,N,0.4,K,A*05
$GPGGA,162905.000,3748.7977,N,12217.8547,W,1,04,1.7,19.4,M,-25.1,M,,0000*5D
$GPGSA,A,3,07,28,08,17,,,,,,,,,2.0,1.7,1.0*34
$GPRMC,162905.000,A,3748.7977,N,12217.8547,W,0.24,135.63,290812,,,A*7E
$GPVTG,135.63,T,,M,0.24,N,0.4,K,A*0D
$GPGGA,162906.000,3748.7977,N,12217.8548,W,1,04,1.7,18.9,M,-25.1,M,,0000*5D
$GPGSA,A,3,07,28,08,17,,,,,,,,,2.0,1.7,1.0*34
$GPRMC,162906.000,A,3748.7977,N,12217.8548,W,0.22,107.33,290812,,,A*70
$GPVTG,107.33,T,,M,0.22,N,0.4,K,A*0F
$GPGGA,162907.000,3748.7980,N,12217.8559,W,1,04,1.7,17.8,M,-25.1,M,,0000*5A
$GPGSA,A,3,07,28,08,17,,,,,,,,,2.0,1.7,1.0*34
$GPRMC,162907.000,A,3748.7980,N,12217.8559,W,0.96,211.58,290812,,,A*7F
$GPVTG,211.58,T,,M,0.96,N,1.8,K,A*04
$GPGGA,162908.000,3748.7986,N,12217.8570,W,1,04,1.7,17.0,M,-25.1,M,,0000*50
$GPGSA,A,3,07,28,08,17,,,,,,,,,2.0,1.7,1.0*34
$GPGSV,3,1,12,08,66,004,33,28,64,263,32,07,47,083,27,26,35,313,34*74
$GPGSV,3,2,12,19,23,047,31,13,20,153,29,17,20,184,28,11,16,096,22*74
$GPGSV,3,3,12,05,16,265,33,10,08,214,29,01,03,110,19,24,00,066,*70
$GPRMC,162908.000,A,3748.7986,N,12217.8570,W,1.11,329.12,290812,,,A*77
$GPVTG,329.12,T,,M,1.11,N,2.1,K,A*04
$GPGGA,162909.000,3748.7987,N,12217.8570,W,1,04,1.7,17.0,M,-25.1,M,,0000*50
$GPGSA,A,3,07,28,08,17,,,,,,,,,2.0,1.7,1.0*34
$GPRMC,162909.000,A,3748.7987,N,12217.8570,W,0.51,303.06,290812,,,A*7F
$GPVTG,303.06,T,,M,0.51,N,1.0,K,A*0E
$GPGGA,162910.000,3748.7988,N,12217.8573,W,1,04,1.7,16.7,M,-25.1,M,,0000*52
$GPGSA,A,3,07,28,08,17,,,,,,,,,2.0,1.7,1.0*34
$GPRMC,162910.000,A,3748.7988,N,12217.8573,W,0.14,141.49,290812,,,A*75
$GPVTG,141.49,T,,M,0.14,N,0.3,K,A*02
$GPGGA,162911.000,3748.7991,N,12217.8581,W,1,04,1.7,15.5,M,-25.1,M,,0000*57
$GPGSA,A,3,07,28,08,17,,,,,,,,,2.0,1.7,1.0*34
$GPRMC,162911.000,A,3748.7991,N,12217.8581,W,0.31,13.40,290812,,,A*49
$GPVTG,13.40,T,,M,0.31,N,0.6,K,A*3F
$GPGGA,162912.000,3748.7996,N,12217.8582,W,1,04,1.7,14.0,M,-25.1,M,,0000*54
$GPGSA,A,3,07,28,08,17,,,,,,,,,2.0,1.7,1.0*34
$GPRMC,162912.000,A,3748.7996,N,12217.8582,W,0.39,74.66,290812,,,A*43
$GPVTG,74.66,T,,M,0.39,N,0.7,K,A*33
$GPGGA,162913.000,3748.7998,N,12217.8589,W,1,04,1.7,12.7,M,-25.1,M,,0000*51
$GPGSA,A,3,07,28,08,17,,,,,,,,,2.0,1.7,1.0*34
$GPGSV,3,1,12,08,66,004,21,28,64,263,30,07,47,083,20,26,35,313,25*72
$GPGSV,3,2,12,19,23,047,23,13,20,153,37,17,20,184,31,11,16,096,22*70
$GPGSV,3,3,12,05,16,265,30,10,08,214,28,01,03,110,18,24,00,066,*73
$GPRMC,162913.000,A,3748.7998,N,12217.8589,W,0.43,100.09,290812,,,A*71
$GPVTG,100.09,T,,M,0.43,N,0.8,K,A*0A
$GPGGA,162914.000,3748.7993,N,12217.8592,W,1,04,1.7,13.2,M,-25.1,M,,0000*53
$GPGSA,A,3,07,28,08,17,,,,,,,,,2.0,1.7,1.0*34
$GPRMC,162914.000,A,3748.7993,N,12217.8592,W,0.31,94.29,290812,,,A*4C
$GPVTG,94.29,T,,M,0.31,N,0.6,K,A*3F
$GPGGA,162915.000,3748.7990,N,12217.8593,W,1,04,1.7,13.3,M,-25.1,M,,0000*51
$GPGSA,A,3,07,28,08,17,,,,,,,,,2.0,1.7,1.0*34
$GPRMC,162915.000,A,3748.7990,N,12217.8593,W,0.70,63.68,290812,,,A*47
$GPVTG,63.68,T,,M,0.70,N,1.3,K,A*33
$GPGGA,162916.000,3748.7989,N,12217.8595,W,1,04,1.7,13.1,M,-25.1,M,,0000*5E
$GPGSA,A,3,07,28,08,17,,,,,,,,,2.0,1.7,1.0*34
$GPRMC,162916.000,A,3748.7989,N,12217.8595,W,0.17,84.81,290812,,,A*45
$GPVTG,84.81,T,,M,0.17,N,0.3,K,A*3D
$GPGGA,162917.000,3748.7988,N,12217.8608,W,1,04,1.7,12.3,M,-25.1,M,,0000*5A
$GPGSA,A,3,07,28,08,17,,,,,,,,,2.0,1.7,1.0*34
$GPRMC,162917.000,A,3748.7988,N,12217.8608,W,0.28,28.65,290812,,,A*42
$GPVTG,28.65,T,,M,0.28,N,0.5,K,A*3B
$GPGGA,162918.000,3748.7986,N,12217.8600,W,1,04,1.7,11.9,M,-25.1,M,,0000*5A
$GPGSA,A,3,07,28,08,17,,,,,,,,,2.0,1.7,1.0*34
$GPGSV,3,1,12,08,66,004,33,28,64,263,31,07,47,083,26,26,35,313,26*75
$GPGSV,3,2,12,19,23,047,27,13,20,153,35,17,20,184,29,11,16,096,23*7E
$GPGSV,3,3,12,05,16,265,31,10,08,214,26,01,03,110,18,24,00,066,*7C
$GPRMC,162918.000,A,3748.7986,N,12217.8600,W,0.90,126.77,290812,,,A*74
$GPGGA,162919.000,3748.7981,N,12217.8599,W,1,04,1.7,12.3,M,-25.1,M,,0000*56
$GPGSA,A,3,07,28,08,17,,,,,,,,,2.0,1.7,1.0*34
$GPRMC,162919.000,A,3748.7981,N,12217.8599,W,0.34,87.77,290812,,,A*45
$GPVTG,87.77,T,,M,0.34,N,0.6,K,A*33
$GPGGA,162920.000,3748.7990,N,12217.8601,W,1,04,1.7,9.7,M,-25.1,M,,0000*60
$GPGSA,A,3,07,28,08,17,,,,,,,,,2.0,1.7,1.0*34
$GPRMC,162920.000,A,3748.7990,N,12217.8601,W,0.43,17.03,290812,,,A*47
$GPVTG,17.03,T,,M,0.43,N,0.8,K,A*37
$GPGGA,162921.000,3748.7997,N,12217.8610,W,1,04,1.7,6.3,M,-25.1,M,,0000*6D
$GPGSA,A,3,07,28,08,17,,,,,,,,,2.0,1.7,1.0*34
$GPRMC,162921.000,A,3748.7997,N,12217.8610,W,0.19,229.93,290812,,,A*78
$GPVTG,229.93,T,,M,0.19,N,0.4,K,A*02
$GPGGA,162922.000,3748.8000,N,12217.8608,W,1,04,1.7,4.7,M,-25.1,M,,0000*69
$GPGSA,A,3,07,28,08,17,,,,,,,,,2.0,1.7,1.0*34
$GPRMC,162922.000,A,3748.8000,N,12217.8608,W,0.55,61.67,290812,,,A*47
$GPVTG,61.67,T,,M,0.55,N,1.0,K,A*3A
$GPGGA,162923.000,3748.7992,N,12217.8604,W,1,04,1.7,6.9,M,-25.1,M,,0000*65
$GPGSA,A,3,07,28,08,17,,,,,,,,,2.0,1.7,1.0*34
$GPGSV,3,1,12,08,66,004,26,28,64,263,29,07,47,083,36,26,35,313,27*78
$GPGSV,3,2,12,19,23,047,30,13,20,153,34,17,20,184,37,11,16,096,25*70
$GPGSV,3,3,12,05,16,265,29,10,08,214,28,01,03,110,25,24,00,066,*75
$GPRMC,162923.000,A,3748.7992,N,12217.8604,W,0.26,179.55,290812,,,A*7A
$GPVTG,179.55,T,,M,0.26,N,0.5,K,A*03
$GPGGA,162924.000,3748.7983,N,12217.8599,W,1,04,1.7,7.5,M,-25.1,M,,0000*68
$GPGSA,A,3,07,28,08,17,,,,,,,,,2.0,1.7,1.0*34
$GPRMC,162924.000,A,3748.7983,N,12217.8599,W,0.57,145.65,290812,,,A*70
$GPVTG,145.65,T,,M,0.57,N,1.1,K,A*0C
$GPGGA,162925.000,3748.7988,N,12217.8600,W,1,04,1.7,7.1,M,-25.1,M,,0000*65
$GPGSA,A,3,07,28,08,17,,,,,,,,,2.0,1.7,1.0*34
$GPRMC,162925.000,A,3748.7988,N,12217.8600,W,0.78,299.47,290812,,,A*76
$GPVTG,299.47,T,,M,0.78,N,1.4,K,A*06
$GPGGA,162926.000,3748.7986,N,12217.8597,W,1,04,1.7,7.4,M,-25.1,M,,0000*60
$GPGSA,A,3,07,28,08,17,,,,,,,,,2.0,1.7,1.0*34
$GPRMC,162926.000,A,3748.7986,N,12217.8597,W,0.30,135.89,290812,,,A*7D
$GPVTG,135.89,T,,M,0.30,N,0.6,K,A*0E
$GPGGA,162927.000,3748.7985,N,12217.8601,W,1,04,1.7,7.4,M,-25.1,M,,0000*6E
$GPGSA,A,3,07,28,08,17,,,,,,,,,2.0,1.7,1.0*34
$GPRMC,162927.000,A,3748.7985,N,12217.8601,W,0.35,206.13,290812,,,A*76
$GPVTG,206.13,T,,M,0.35,N,0.6,K,A*0B
$GPGGA,162928.000,3748.7987,N,12217.8604,W,1,04,1.7,7.5,M,-25.1,M,,0000*67
$GPGSA,A,3,07,28,08,17,,,,,,,,,2.0,1.7,1.0*34
$GPGSV,3,1,12,08,66,004,27,28,64,263,29,07,47,083,21,26,35,313,34*7D
$GPGSV,3,2,12,19,23,047,23,13,20,153,35,17,20,184,31,11,16,096,23*73
$GPGSV,3,3,12,05,16,265,25,10,08,214,19,01,03,110,27,24,00,066,*79
$GPRMC,162928.000,A,3748.7987,N,12217.8604,W,0.85,2.73,290812,,,A*75
$GPVTG,2.73,T,,M,0.85,N,1.6,K,A*01
$GPGGA,162929.000,3748.7986,N,12217.8603,W,1,04,1.7,8.5,M,-25.1,M,,0000*6F
$GPGSA,A,3,07,28,08,17,,,,,,,,,2.0,1.7,1.0*34
$GPRMC,162929.000,A,3748.7986,N,12217.8603,W,0.40,66.71,290812,,,A*4B
$GPVTG,66.71,T,,M,0.40,N,0.7,K,A*38
$GPGGA,162930.000,3748.7986,N,12217.8602,W,1,04,1.7,8.6,M,-25.1,M,,0000*65
$GPGSA,A,3,07,28,08,17,,,,,,,,,2.0,1.7,1.0*34
$GPRMC,162930.000,A,3748.7986,N,12217.8602,W,0.14,45.91,290812,,,A*4C
$GPVTG,45.91,T,,M,0.14,N,0.3,K,A*32
$GPGGA,162931.000,3748.7996,N,12217.8603,W,1,04,1.7,5.9,M,-25.1,M,,0000*66
$GPGSA,A,3,07,28,08,17,,,,,,,,,2.0,1.7,1.0*34
$GPRMC,162931.000,A,3748.7996,N,12217.8603,W,0.41,124.70,290812,,,A*74
$GPVTG,124.70,T,,M,0.41,N,0.8,K,A*00
$GPGGA,162932.000,3748.7989,N,12217.8591,W,1,04,1.7,6.5,M,-25.1,M,,0000*6C
$GPGSA,A,3,07,28,08,17,,,,,,,,,2.0,1.7,1.0*34
$GPRMC,162932.000,A,3748.7989,N,12217.8591,W,0.53,87.01,290812,,,A*4C
$GPVTG,87.01,T,,M,0.53,N,1.0,K,A*34
$GPGGA,162933.000,3748.7984,N,12217.8584,W,1,04,1.7,8.0,M,-25.1,M,,0000*6F
$GPGSA,A,3,07,28,08,17,,,,,,,,,2.0,1.7,1.0*34
$GPGSV,3,1,12,08,66,004,26,28,64,263,29,07,47,083,37,26,35,313,23*7D
$GPGSV,3,2,12,19,23,047,31,13,20,153,39,17,20,184,33,11,16,096,30*7C
$GPGSV,3,3,12,05,16,265,25,10,08,214,21,01,03,110,21,24,00,066,*74
$GPRMC,162933.000,A,3748.7984,N,12217.8584,W,1.24,82.41,290812,,,A*44
$GPVTG,82.41,T,,M,1.24,N,2.3,K,A*34
$GPGGA,162934.000,3748.7975,N,12217.8575,W,1,04,1.7,10.0,M,-25.1,M,,0000*51
$GPGSA,A,3,07,28,08,17,,,,,,,,,2.0,1.7,1.0*34
$GPRMC,162934.000,A,3748.7975,N,12217.8575,W,2.00,113.52,290812,,,A*7D
$GPVTG,113.52,T,,M,2.00,N,3.7,K,A*0F
$GPGGA,162935.000,3748.7970,N,12217.8565,W,1,04,1.7,10.3,M,-25.1,M,,0000*57
$GPGSA,A,3,07,28,08,17,,,,,,,,,2.0,1.7,1.0*34
$GPRMC,162935.000,A,3748.7970,N,12217.8565,W,1.50,113.83,290812,,,A*72
$GPVTG,113.83,T,,M,1.50,N,2.8,K,A*0B
$GPGGA,162936.000,3748.7957,N,12217.8554,W,1,04,1.7,12.5,M,-25.1,M,,0000*57
$GPGSA,A,3,07,28,08,17,,,,,,,,,2.0,1.7,1.0*34
$GPRMC,162936.000,A,3748.7957,N,12217.8554,W,1.60,120.21,290812,,,A*7D
$GPVTG,120.21,T,,M,1.60,N,3.0,K,A*09
$GPGGA,162937.000,3748.7947,N,12217.8546,W,1,04,1.7,14.5,M,-25.1,M,,0000*52
$GPGSA,A,3,07,28,08,17,,,,,,,,,2.0,1.7,1.0*34
$GPRMC,162937.000,A,3748.7947,N,12217.8546,W,1.63,119.86,290812,,,A*7A
$GPVTG,119.86,T,,M,1.63,N,3.0,K,A*0D
$GPGGA,162938.000,3748.7938,N,12217.8538,W,1,04,1.7,16.2,M,-25.1,M,,0000*59
$GPGSA,A,3,07,28,08,17,,,,,,,,,2.0,1.7,1.0*34
$GPGSV,3,1,12,08,66,004,25,28,64,263,23,07,47,083,35,26,35,313,21*74
$GPGSV,3,2,12,19,23,047,30,13,20,153,42,17,20,184,39,11,16,096,29*73
$GPGSV,3,3,12,05,16,265,26,10,08,214,22,01,03,110,28,24,00,066,*7D
$GPRMC,162938.000,A,3748.7938,N,12217.8538,W,1.90,118.69,290812,,,A*78
$GPVTG,118.69,T,,M,1.90,N,3.5,K,A*04
$GPGGA,162939.000,3748.7935,N,12217.8533,W,1,04,1.7,16.4,M,-25.1,M,,0000*58
$GPGSA,A,3,07,28,08,17,,,,,,,,,2.0,1.7,1.0*34
$GPRMC,162939.000,A,3748.7935,N,12217.8533,W,1.79,127.63,290812,,,A*7E
$GPVTG,127.63,T,,M,1.79,N,3.3,K,A*03
$GPGGA,162940.000,3748.7930,N,12217.8526,W,1,04,1.7,17.2,M,-25.1,M,,0000*50
$GPGSA,A,3,07,28,08,17,,,,,,,,,2.0,1.7,1.0*34
$GPRMC,162940.000,A,3748.7930,N,12217.8526,W,1.75,116.24,290812,,,A*7C
$GPVTG,116.24,T,,M,1.75,N,3.2,K,A*0F
$GPGGA,162941.000,3748.7919,N,12217.8521,W,1,04,1.7,20.4,M,-25.1,M,,0000*5F
$GPGSA,A,3,07,28,08,17,,,,,,,,,2.0,1.7,1.0*34
$GPRMC,162941.000,A,3748.7919,N,12217.8521,W,1.78,105.98,290812,,,A*79
$GPVTG,105.98,T,,M,1.78,N,3.3,K,A*06
$GPGGA,162942.000,3748.7913,N,12217.8511,W,1,04,1.7,21.4,M,-25.1,M,,0000*54
$GPGSA,A,3,07,28,08,17,,,,,,,,,2.0,1.7,1.0*34
$GPRMC,162942.000,A,3748.7913,N,12217.8511,W,1.80,114.98,290812,,,A*74
$GPVTG,114.98,T,,M,1.80,N,3.3,K,A*01
$GPGGA,162943.000,3748.7912,N,12217.8505,W,1,04,1.7,21.0,M,-25.1,M,,0000*55
$GPGSA,A,3,07,28,08,17,,,,,,,,,2.0,1.7,1.0*34
$GPGSV,3,1,12,08,66,004,24,28,64,263,27,07,47,083,36,26,35,313,21*72
$GPGSV,3,2,12,19,23,047,31,13,20,153,42,17,20,184,39,11,16,096,29*72
$GPGSV,3,3,12,05,16,265,26,10,08,214,22,01,03,110,21,24,00,066,*74
$GPRMC,162943.000,A,3748.7912,N,12217.8505,W,1.49,133.55,290812,,,A*70
$GPVTG,133.55,T,,M,1.49,N,2.8,K,A*0A
$GPGGA,162944.000,3748.7917,N,12217.8501,W,1,04,1.7,18.2,M,-25.1,M,,0000*5B
$GPGSA,A,3,07,28,08,17,,,,,,,,,2.0,1.7,1.0*34
$GPRMC,162944.000,A,3748.7917,N,12217.8501,W,2.20,130.21,290812,,,A*7A
$GPVTG,130.21,T,,M,2.20,N,4.1,K,A*09
$GPGGA,162945.000,3748.7916,N,12217.8495,W,1,04,1.7,17.2,M,-25.1,M,,0000*58
$GPGSA,A,3,07,28,08,17,,,,,,,,,2.0,1.7,1.0*34
$GPRMC,162945.000,A,3748.7916,N,12217.8495,W,1.98,138.47,290812,,,A*7E
$GPVTG,138.47,T,,M,1.98,N,3.7,K,A*00
$GPGGA,162946.000,3748.7922,N,12217.8496,W,1,04,1.7,14.3,M,-25.1,M,,0000*5D
$GPGSA,A,3,07,28,08,17,,,,,,,,,2.0,1.7,1.0*34
$GPRMC,162946.000,A,3748.7922,N,12217.8496,W,2.15,122.88,290812,,,A*77
$GPVTG,122.88,T,,M,2.15,N,4.0,K,A*0E
$GPGGA,162947.000,3748.7924,N,12217.8493,W,1,04,1.7,12.7,M,-25.1,M,,0000*5D
$GPGSA,A,3,07,28,08,17,,,,,,,,,2.0,1.7,1.0*34
$GPRMC,162947.000,A,3748.7924,N,12217.8493,W,2.00,118.08,290812,,,A*70
$GPVTG,118.08,T,,M,2.00,N,3.7,K,A*0B
$GPGGA,162948.000,3748.7921,N,12217.8485,W,1,04,1.7,12.4,M,-25.1,M,,0000*53
$GPGSA,A,3,07,28,08,17,,,,,,,,,2.0,1.7,1.0*34
$GPGSV,3,1,12,08,66,005,24,28,64,264,29,07,47,084,30,26,36,313,22*7B
$GPGSV,3,2,12,19,23,047,23,17,21,184,40,13,20,153,37,11,16,095,26*70
$GPGSV,3,3,12,05,16,264,28,10,07,213,37,01,03,109,19,24,00,065,*77
$GPRMC,162948.000,A,3748.7921,N,12217.8485,W,2.23,108.35,290812,,,A*73
$GPGGA,162949.000,3748.7920,N,12217.8479,W,1,04,1.7,11.7,M,-25.1,M,,0000*50
$GPGSA,A,3,07,28,08,17,,,,,,,,,2.0,1.7,1.0*34
$GPRMC,162949.000,A,3748.7920,N,12217.8479,W,2.83,107.37,290812,,,A*77
$GPVTG,107.37,T,,M,2.83,N,5.2,K,A*01
$GPGGA,162950.000,3748.7923,N,12217.8477,W,1,04,1.7,9.8,M,-25.1,M,,0000*63
$GPGSA,A,3,07,28,08,17,,,,,,,,,2.0,1.7,1.0*34
$GPRMC,162950.000,A,3748.7923,N,12217.8477,W,2.33,112.21,290812,,,A*7A
$GPVTG,112.21,T,,M,2.33,N,4.3,K,A*09
$GPGGA,162951.000,3748.7922,N,12217.8469,W,1,04,1.7,9.3,M,-25.1,M,,0000*67
$GPGSA,A,3,07,28,08,17,,,,,,,,,2.0,1.7,1.0*34
$GPRMC,162951.000,A,3748.7922,N,12217.8469,W,2.45,106.96,290812,,,A*7D
$GPVTG,106.96,T,,M,2.45,N,4.5,K,A*07
$GPGGA,162952.000,3748.7919,N,12217.8460,W,1,04,1.7,9.6,M,-25.1,M,,0000*60
$GPGSA,A,3,07,28,08,17,,,,,,,,,2.0,1.7,1.0*34
$GPRMC,162952.000,A,3748.7919,N,12217.8460,W,2.05,102.66,290812,,,A*70
$GPVTG,102.66,T,,M,2.05,N,3.8,K,A*02
$GPGGA,162953.000,3748.7920,N,12217.8454,W,1,04,1.7,8.3,M,-25.1,M,,0000*68
$GPGSA,A,3,07,28,08,17,,,,,,,,,2.0,1.7,1.0*34
$GPGSV,3,1,12,08,66,005,24,28,64,264,25,07,47,084,27,26,36,313,23*70
$GPGSV,3,2,12,19,23,047,22,17,21,184,35,13,20,153,32,11,16,095,28*78
$GPGSV,3,3,12,05,16,264,27,10,07,213,33,01,03,109,11,24,00,065,*74
$GPRMC,162953.000,A,3748.7920,N,12217.8454,W,1.69,102.96,290812,,,A*7A
$GPVTG,102.96,T,,M,1.69,N,3.1,K,A*0D
$GPGGA,162954.000,3748.7912,N,12217.8439,W,1,04,1.7,9.2,M,-25.1,M,,0000*65
$GPGSA,A,3,07,28,08,17,,,,,,,,,2.0,1.7,1.0*34
$GPRMC,162954.000,A,3748.7912,N,12217.8439,W,2.09,125.58,290812,,,A*75
$GPVTG,125.58,T,,M,2.09,N,3.9,K,A*07
$GPGGA,162955.000,3748.7906,N,12217.8430,W,1,04,1.7,9.7,M,-25.1,M,,0000*6D
$GPGSA,A,3,07,28,08,17,,,,,,,,,2.0,1.7,1.0*34
$GPRMC,162955.000,A,3748.7906,N,12217.8430,W,1.42,120.90,290812,,,A*75
$GPVTG,120.90,T,,M,1.42,N,2.6,K,A*04
$GPGGA,162956.000,3748.7904,N,12217.8423,W,1,04,1.7,10.0,M,-25.1,M,,0000*51
$GPGSA,A,3,07,28,08,17,,,,,,,,,2.0,1.7,1.0*34
$GPRMC,162956.000,A,3748.7904,N,12217.8423,W,1.04,90.06,290812,,,A*41
$GPVTG,90.06,T,,M,1.04,N,1.9,K,A*3F
$GPGGA,162957.000,3748.7894,N,12217.8410,W,1,04,1.7,11.7,M,-25.1,M,,0000*5E
$GPGSA,A,3,07,28,08,17,,,,,,,,,2.0,1.7,1.0*34
$GPRMC,162957.000,A,3748.7894,N,12217.8410,W,1.90,107.89,290812,,,A*7D
$GPVTG,107.89,T,,M,1.90,N,3.5,K,A*04
$GPGGA,162958.000,3748.7889,N,12217.8402,W,1,04,1.7,12.3,M,-25.1,M,,0000*59
$GPGSA,A,3,07,28,08,17,,,,,,,,,2.0,1.7,1.0*34
$GPGSV,3,1,12,08,66,005,24,28,64,264,25,07,47,084,31,26,36,313,*76
$GPGSV,3,2,12,19,23,047,24,17,21,184,37,13,20,153,42,11,16,095,29*7A
$GPGSV,3,3,12,05,16,264,27,10,07,213,24,01,03,109,15,24,00,065,*76
$GPRMC,162958.000,A,3748.7889,N,12217.8402,W,2.31,116.86,290812,,,A*7A
$GPVTG,116.86,T,,M,2.31,N,4.3,K,A*02
$GPGGA,162959.000,3748.7883,N,12217.8399,W,1,04,1.7,12.6,M,-25.1,M,,0000*52
$GPGSA,A,3,07,28,08,17,,,,,,,,,2.0,1.7,1.0*34
$GPRMC,162959.000,A,3748.7883,N,12217.8399,W,2.49,125.77,290812,,,A*75
$GPVTG,125.77,T,,M,2.49,N,4.6,K,A*06
$GPGGA,163000.000,3748.7871,N,12217.8395,W,1,04,1.7,14.1,M,-25.1,M,,0000*56
$GPGSA,A,3,07,28,08,17,,,,,,,,,2.0,1.7,1.0*34
$GPRMC,163000.000,A,3748.7871,N,12217.8395,W,2.54,146.45,290812,,,A*78
$GPVTG,146.45,T,,M,2.54,N,4.7,K,A*0F
$GPGGA,163001.000,3748.7862,N,12217.8387,W,1,04,1.7,15.1,M,-25.1,M,,0000*57
$GPGSA,A,3,07,28,08,17,,,,,,,,,2.0,1.7,1.0*34
$GPRMC,163001.000,A,3748.7862,N,12217.8387,W,1.74,124.64,290812,,,A*7E
$GPVTG,124.64,T,,M,1.74,N,3.2,K,A*0B
$GPGGA,163002.000,3748.7857,N,12217.8378,W,1,04,1.7,15.6,M,-25.1,M,,0000*55
$GPGSA,A,3,07,28,08,17,,,,,,,,,2.0,1.7,1.0*34
$GPRMC,163002.000,A,3748.7857,N,12217.8378,W,1.74,115.65,290812,,,A*78
$GPVTG,115.65,T,,M,1.74,N,3.2,K,A*08
$GPGGA,163003.000,3748.7854,N,12217.8363,W,1,04,1.7,14.6,M,-25.1,M,,0000*5C
$GPGSA,A,3,07,28,08,17,,,,,,,,,2.0,1.7,1.0*34
$GPGSV,3,1,12,08,66,005,24,28,64,264,25,07,47,084,28,26,36,313,20*7C
$GPGSV,3,2,12,19,23,047,23,17,21,184,28,13,20,153,34,11,16,095,25*7E
$GPGSV,3,3,12,05,16,264,28,10,07,213,21,01,03,109,16,24,00,065,*7F
$GPRMC,163003.000,A,3748.7854,N,12217.8363,W,2.02,101.52,290812,,,A*73
$GPGGA,163004.000,3748.7855,N,12217.8355,W,1,04,1.7,14.2,M,-25.1,M,,0000*5B
$GPGSA,A,3,07,28,08,17,,,,,,,,,2.0,1.7,1.0*34
$GPRMC,163004.000,A,3748.7855,N,12217.8355,W,1.42,101.86,290812,,,A*7E
$GPVTG,101.86,T,,M,1.42,N,2.6,K,A*00
$GPGGA,163005.000,3748.7849,N,12217.8344,W,1,04,1.7,14.7,M,-25.1,M,,0000*52
$GPGSA,A,3,07,28,08,17,,,,,,,,,2.0,1.7,1.0*34
$GPRMC,163005.000,A,3748.7849,N,12217.8344,W,1.84,116.94,290812,,,A*7D
$GPVTG,116.94,T,,M,1.84,N,3.4,K,A*0C
$GPGGA,163006.000,3748.7844,N,12217.8334,W,1,04,1.7,14.8,M,-25.1,M,,0000*54
$GPGSA,A,3,07,28,08,17,,,,,,,,,2.0,1.7,1.0*34
$GPRMC,163006.000,A,3748.7844,N,12217.8334,W,2.36,126.67,290812,,,A*71
$GPVTG,126.67,T,,M,2.36,N,4.4,K,A*0E
$GPGGA,163007.000,3748.7840,N,12217.8322,W,1,04,1.7,14.3,M,-25.1,M,,0000*5D
$GPGSA,A,3,07,28,08,17,,,,,,,,,2.0,1.7,1.0*34
$GPRMC,163007.000,A,3748.7840,N,12217.8322,W,2.25,114.68,290812,,,A*7F
$GPVTG,114.68,T,,M,2.25,N,4.2,K,A*04
$GPGGA,163008.000,3748.7840,N,12217.8317,W,1,04,1.7,13.3,M,-25.1,M,,0000*53
$GPGSA,A,3,07,28,08,17,,,,,,,,,2.0,1.7,1.0*34
$GPGSV,3,1,12,08,66,005,24,28,64,264,26,07,47,084,29,26,36,313,21*7F
$GPGSV,3,2,12,19,23,047,22,17,21,184,40,13,20,153,38,11,16,095,24*7C
$GPGSV,3,3,12,05,16,264,28,10,07,213,21,01,03,109,16,24,00,065,*7F
$GPRMC,163008.000,A,3748.7840,N,12217.8317,W,1.93,112.73,290812,,,A*74
$GPVTG,112.73,T,,M,1.93,N,3.6,K,A*05
$GPGGA,163009.000,3748.7834,N,12217.8306,W,1,04,1.7,13.5,M,-25.1,M,,0000*57
$GPGSA,A,3,07,28,08,17,,,,,,,,,2.0,1.7,1.0*34
$GPRMC,163009.000,A,3748.7834,N,12217.8306,W,2.41,115.62,290812,,,A*7D
$GPVTG,115.62,T,,M,2.41,N,4.5,K,A*0A
$GPGGA,163010.000,3748.7832,N,12217.8304,W,1,04,1.7,13.5,M,-25.1,M,,0000*5B
$GPGSA,A,3,07,28,08,17,,,,,,,,,2.0,1.7,1.0*34
$GPRMC,163010.000,A,3748.7832,N,12217.8304,W,2.16,119.05,290812,,,A*7E
$GPVTG,119.05,T,,M,2.16,N,4.0,K,A*00
$GPGGA,163011.000,3748.7834,N,12217.8309,W,1,04,1.7,13.8,M,-25.1,M,,0000*5C
$GPGSA,A,3,07,28,08,17,,,,,,,,,2.0,1.7,1.0*34
$GPRMC,163011.000,A,3748.7834,N,12217.8309,W,1.51,108.51,290812,,,A*75
$GPVTG,108.51,T,,M,1.51,N,2.8,K,A*0F
$GPGGA,163012.000,3748.7836,N,12217.8310,W,1,04,1.7,13.7,M,-25.1,M,,0000*5A
$GPGSA,A,3,07,28,08,17,,,,,,,,,2.0,1.7,1.0*34
$GPRMC,163012.000,A,3748.7836,N,12217.8310,W,1.28,121.98,290812,,,A*7C
$GPVTG,121.98,T,,M,1.28,N,2.4,K,A*03
$GPGGA,163013.000,3748.7838,N,12217.8309,W,1,04,1.7,13.2,M,-25.1,M,,0000*58
$GPGSA,A,3,07,28,08,17,,,,,,,,,2.0,1.7,1.0*34
$GPGSV,3,1,12,08,66,005,24,28,64,264,21,07,47,084,29,26,36,313,21*78
$GPGSV,3,2,12,19,23,047,22,17,21,184,32,13,20,153,34,11,16,095,24*75
$GPGSV,3,3,12,05,16,264,24,10,07,213,20,01,03,109,16,24,00,065,*72
$GPRMC,163013.000,A,3748.7838,N,12217.8309,W,1.58,121.68,290812,,,A*73
$GPVTG,121.68,T,,M,1.58,N,2.9,K,A*06
$GPGGA,163014.000,3748.7837,N,12217.8302,W,1,04,1.7,12.9,M,-25.1,M,,0000*51
$GPGSA,A,3,07,28,08,17,,,,,,,,,2.0,1.7,1.0*34
$GPRMC,163014.000,A,3748.7837,N,12217.8302,W,1.63,121.20,290812,,,A*74
$GPVTG,121.20,T,,M,1.63,N,3.0,K,A*0A
$GPGGA,163015.000,3748.7839,N,12217.8293,W,1,04,1.7,11.7,M,-25.1,M,,0000*5A
$GPGSA,A,3,07,28,08,17,,,,,,,,,2.0,1.7,1.0*34
$GPRMC,163015.000,A,3748.7839,N,12217.8293,W,1.76,105.08,290812,,,A*7A
$GPVTG,105.08,T,,M,1.76,N,3.3,K,A*01
$GPGGA,163016.000,3748.7837,N,12217.8285,W,1,04,1.7,11.9,M,-25.1,M,,0000*5E
$GPGSA,A,3,07,28,08,17,,,,,,,,,2.0,1.7,1.0*34
$GPRMC,163016.000,A,3748.7837,N,12217.8285,W,1.79,112.83,290812,,,A*7A
$GPVTG,112.83,T,,M,1.79,N,3.3,K,A*0B
$GPGGA,163017.000,3748.7835,N,12217.8275,W,1,04,1.7,11.4,M,-25.1,M,,0000*5F
$GPGSA,A,3,07,28,08,17,,,,,,,,,2.0,1.7,1.0*34
$GPRMC,163017.000,A,3748.7835,N,12217.8275,W,2.11,112.77,290812,,,A*70
$GPVTG,112.77,T,,M,2.11,N,3.9,K,A*07
$GPGGA,163018.000,3748.7827,N,12217.8264,W,1,04,1.7,12.3,M,-25.1,M,,0000*57
$GPGSA,A,3,07,28,08,17,,,,,,,,,2.0,1.7,1.0*34
$GPGSV,3,1,12,08,66,005,25,28,64,264,25,07,47,084,25,26,36,313,23*73
$GPGSV,3,2,12,19,23,047,21,17,21,184,32,13,20,153,40,11,16,095,24*75
$GPGSV,3,3,12,05,16,264,30,10,07,213,29,01,03,109,17,24,00,065,*7F
$GPRMC,163018.000,A,3748.7827,N,12217.8264,W,2.53,125.85,290812,,,A*73
$GPGGA,163019.000,3748.7820,N,12217.8250,W,1,04,1.7,11.5,M,-25.1,M,,0000*53
$GPGSA,A,3,07,28,08,17,,,,,,,,,2.0,1.7,1.0*34
$GPRMC,163019.000,A,3748.7820,N,12217.8250,W,2.56,127.75,290812,,,A*7A
$GPVTG,127.75,T,,M,2.56,N,4.7,K,A*09
$GPGGA,163020.000,3748.7808,N,12217.8243,W,1,04,1.7,12.6,M,-25.1,M,,0000*51
$GPGSA,A,3,07,28,08,17,,,,,,,,,2.0,1.7,1.0*34
$GPRMC,163020.000,A,3748.7808,N,12217.8243,W,2.70,129.55,290812,,,A*70
$GPVTG,129.55,T,,M,2.70,N,5.0,K,A*07
$GPGGA,163021.000,3748.7792,N,12217.8227,W,1,04,1.7,15.0,M,-25.1,M,,0000*5F
$GPGSA,A,3,07,28,08,17,,,,,,,,,2.0,1.7,1.0*34
$GPRMC,163021.000,A,3748.7792,N,12217.8227,W,2.68,135.81,290812,,,A*72
$GPVTG,135.81,T,,M,2.68,N,5.0,K,A*0A
$GPGGA,163022.000,3748.7790,N,12217.8220,W,1,04,1.7,14.6,M,-25.1,M,,0000*5E
$GPGSA,A,3,07,28,08,17,,,,,,,,,2.0,1.7,1.0*34
$GPRMC,163022.000,A,3748.7790,N,12217.8220,W,2.56,117.65,290812,,,A*73
$GPVTG,117.65,T,,M,2.56,N,4.7,K,A*0B
$GPGGA,163023.000,3748.7787,N,12217.8211,W,1,04,1.7,14.6,M,-25.1,M,,0000*5B
$GPGSA,A,3,07,28,08,17,,,,,,,,,2.0,1.7,1.0*34
$GPGSV,3,1,12,08,66,005,24,28,64,264,27,07,47,084,27,26,36,313,23*72
$GPGSV,3,2,12,19,23,047,21,17,21,184,38,13,20,153,39,11,16,095,24*71
$GPGSV,3,3,12,05,16,264,29,10,07,213,24,01,03,109,22,24,00,065,*7C
$GPRMC,163023.000,A,3748.7787,N,12217.8211,W,2.51,111.09,290812,,,A*7D
$GPVTG,111.09,T,,M,2.51,N,4.6,K,A*01
$GPGGA,163024.000,3748.7784,N,12217.8204,W,1,04,1.7,14.4,M,-25.1,M,,0000*59
$GPGSA,A,3,07,28,08,17,,,,,,,,,2.0,1.7,1.0*34
$GPRMC,163024.000,A,3748.7784,N,12217.8204,W,2.12,113.33,290812,,,A*71
$GPVTG,113.33,T,,M,2.12,N,3.9,K,A*05
$GPGGA,163025.000,3748.7778,N,12217.8192,W,1,04,1.7,14.0,M,-25.1,M,,0000*53
$GPGSA,A,3,07,28,08,17,,,,,,,,,2.0,1.7,1.0*34
$GPRMC,163025.000,A,3748.7778,N,12217.8192,W,2.48,119.22,290812,,,A*7A
$GPVTG,119.22,T,,M,2.48,N,4.6,K,A*08
$GPGGA,163026.000,3748.7773,N,12217.8184,W,1,04,1.7,13.8,M,-25.1,M,,0000*53
$GPGSA,A,3,07,28,08,17,,,,,,,,,2.0,1.7,1.0*34
$GPRMC,163026.000,A,3748.7773,N,12217.8184,W,3.10,124.03,290812,,,A*74
$GPVTG,124.03,T,,M,3.10,N,5.7,K,A*09
$GPGGA,163027.000,3748.7762,N,12217.8177,W,1,04,1.7,14.9,M,-25.1,M,,0000*58
$GPGSA,A,3,07,28,08,17,,,,,,,,,2.0,1.7,1.0*34
$GPRMC,163027.000,A,3748.7762,N,12217.8177,W,2.47,124.55,290812,,,A*79
$GPVTG,124.55,T,,M,2.47,N,4.6,K,A*09
$GPGGA,163028.000,3748.7754,N,12217.8169,W,1,04,1.7,15.7,M,-25.1,M,,0000*52
$GPGSA,A,3,07,28,08,17,,,,,,,,,2.0,1.7,1.0*34
$GPGSV,3,1,12,08,66,005,24,28,64,264,27,07,47,084,27,26,36,313,24*75
$GPGSV,3,2,12,19,23,047,21,17,21,184,37,13,20,153,36,11,16,095,24*71
$GPGSV,3,3,12,05,16,264,24,10,07,213,24,01,03,109,21,24,00,065,*72
$GPRMC,163028.000,A,3748.7754,N,12217.8169,W,2.55,117.96,290812,,,A*70
$GPVTG,117.96,T,,M,2.55,N,4.7,K,A*04
$GPGGA,163029.000,3748.7745,N,12217.8158,W,1,04,1.7,16.3,M,-25.1,M,,0000*56
$GPGSA,A,3,07,28,08,17,,,,,,,,,2.0,1.7,1.0*34
$GPRMC,163029.000,A,3748.7745,N,12217.8158,W,2.56,115.75,290812,,,A*7F
$GPVTG,115.75,T,,M,2.56,N,4.7,K,A*08
$GPGGA,163030.000,3748.7739,N,12217.8149,W,1,04,1.7,16.7,M,-25.1,M,,0000*51
$GPGSA,A,3,07,28,08,17,,,,,,,,,2.0,1.7,1.0*34
$GPRMC,163030.000,A,3748.7739,N,12217.8149,W,2.85,118.27,290812,,,A*78
$GPVTG,118.27,T,,M,2.85,N,5.3,K,A*09
$GPGGA,163031.000,3748.7733,N,12217.8140,W,1,04,1.7,17.0,M,-25.1,M,,0000*55
$GPGSA,A,3,07,28,08,17,,,,,,,,,2.0,1.7,1.0*34
$GPRMC,163031.000,A,3748.7733,N,12217.8140,W,2.60,114.35,290812,,,A*7E
$GPVTG,114.35,T,,M,2.60,N,4.8,K,A*07
$GPGGA,163032.000,3748.7726,N,12217.8131,W,1,04,1.7,17.6,M,-25.1,M,,0000*52
$GPGSA,A,3,07,28,08,17,,,,,,,,,2.0,1.7,1.0*34
$GPRMC,163032.000,A,3748.7726,N,12217.8131,W,2.46,116.72,290812,,,A*7A
$GPVTG,116.72,T,,M,2.46,N,4.5,K,A*0F
$GPGGA,163033.000,3748.7722,N,12217.8130,W,1,04,1.7,18.4,M,-25.1,M,,0000*5B
$GPGSA,A,3,07,28,08,17,,,,,,,,,2.0,1.7,1.0*34
$GPGSV,3,1,12,08,66,005,25,28,64,264,28,07,47,084,28,26,36,313,23*73
$GPGSV,3,2,12,19,23,047,22,17,21,184,38,13,20,153,37,11,16,095,32*7B
$GPGSV,3,3,12,05,16,264,29,10,07,213,33,01,03,109,17,24,00,065,*7C
$GPRMC,163033.000,A,3748.7722,N,12217.8130,W,1.90,120.56,290812,,,A*75
$GPGGA,163034.000,3748.7713,N,12217.8123,W,1,05,1.5,19.5,M,-25.1,M,,0000*5F
$GPGSA,A,3,07,28,08,17,13,,,,,,,,1.8,1.5,1.0*3F
$GPRMC,163034.000,A,3748.7713,N,12217.8123,W,2.60,129.55,290812,,,A*74
$GPVTG,129.55,T,,M,2.60,N,4.8,K,A*0F
$GPGGA,163035.000,3748.7703,N,12217.8118,W,1,05,1.5,20.3,M,-25.1,M,,0000*5B
$GPGSA,A,3,07,28,08,17,13,,,,,,,,1.8,1.5,1.0*3F
$GPRMC,163035.000,A,3748.7703,N,12217.8118,W,2.68,132.41,290812,,,A*7B
$GPVTG,132.41,T,,M,2.68,N,5.0,K,A*01
$GPGGA,163036.000,3748.7693,N,12217.8111,W,1,05,1.5,21.3,M,-25.1,M,,0000*58
$GPGSA,A,3,07,28,08,17,13,,,,,,,,1.8,1.5,1.0*3F
$GPRMC,163036.000,A,3748.7693,N,12217.8111,W,2.69,126.18,290812,,,A*71
$GPVTG,126.18,T,,M,2.69,N,5.0,K,A*09
$GPGGA,163037.000,3748.7684,N,12217.8103,W,1,05,1.5,22.8,M,-25.1,M,,0000*54
$GPGSA,A,3,07,28,08,17,13,,,,,,,,1.8,1.5,1.0*3F
$GPRMC,163037.000,A,3748.7684,N,12217.8103,W,2.08,120.40,290812,,,A*79
$GPVTG,120.40,T,,M,2.08,N,3.8,K,A*0B
$GPGGA,163038.000,3748.7680,N,12217.8096,W,1,05,1.5,23.0,M,-25.1,M,,0000*5B
$GPGSA,A,3,07,28,08,17,13,,,,,,,,1.8,1.5,1.0*3F
$GPGSV,3,1,12,08,66,006,25,28,64,265,29,07,46,084,28,26,36,312,24*77
$GPGSV,3,2,12,19,22,046,22,17,21,184,38,13,19,153,37,11,16,095,24*76
$GPGSV,3,3,12,05,16,264,28,10,07,213,31,01,03,109,25,24,00,065,*7E
$GPRMC,163038.000,A,3748.7680,N,12217.8096,W,2.87,120.41,290812,,,A*79
$GPVTG,120.41,T,,M,2.87,N,5.3,K,A*00
$GPGGA,163039.000,3748.7671,N,12217.8087,W,1,05,1.5,24.4,M,-25.1,M,,0000*57
$GPGSA,A,3,07,28,08,17,13,,,,,,,,1.8,1.5,1.0*3F
$GPRMC,163039.000,A,3748.7671,N,12217.8087,W,2.97,117.30,290812,,,A*75
$GPVTG,117.30,T,,M,2.97,N,5.5,K,A*05
$GPGGA,163040.000,3748.7664,N,12217.8075,W,1,05,1.5,25.1,M,-25.1,M,,0000*54
$GPGSA,A,3,07,28,08,17,13,,,,,,,,1.8,1.5,1.0*3F
$GPRMC,163040.000,A,3748.7664,N,12217.8075,W,3.45,115.13,290812,,,A*7F
$GPVTG,115.13,T,,M,3.45,N,6.4,K,A*0A
$GPGGA,163041.000,3748.7661,N,12217.8066,W,1,05,1.5,25.1,M,-25.1,M,,0000*52
$GPGSA,A,3,07,28,08,17,13,,,,,,,,1.8,1.5,1.0*3F
$GPRMC,163041.000,A,3748.7661,N,12217.8066,W,2.52,112.67,290812,,,A*7A
$GPVTG,112.67,T,,M,2.52,N,4.7,K,A*08
$GPGGA,163042.000,3748.7658,N,12217.8055,W,1,05,1.5,25.2,M,-25.1,M,,0000*58
$GPGSA,A,3,07,28,08,17,13,,,,,,,,1.8,1.5,1.0*3F
$GPRMC,163042.000,A,3748.7658,N,12217.8055,W,2.89,116.75,290812,,,A*72
$GPVTG,116.75,T,,M,2.89,N,5.4,K,A*0B
$GPGGA,163043.000,3748.7657,N,12217.8045,W,1,05,1.5,24.6,M,-25.1,M,,0000*52
$GPGSA,A,3,07,28,08,17,13,,,,,,,,1.8,1.5,1.0*3F
$GPGSV,3,1,12,08,66,006,24,28,64,265,24,07,46,084,29,26,36,312,23*7D
$GPGSV,3,2,12,19,22,046,22,17,21,184,37,13,19,153,35,11,16,095,22*7D
$GPGSV,3,3,12,05,16,264,28,10,07,213,33,01,03,109,20,24,00,065,*79
$GPRMC,163043.000,A,3748.7657,N,12217.8045,W,1.77,96.18,290812,,,A*4D
$GPVTG,96.18,T,,M,1.77,N,3.3,K,A*3A
$GPGGA,163044.000,3748.7656,N,12217.8037,W,1,05,1.5,24.7,M,-25.1,M,,0000*50
$GPGSA,A,3,07,28,08,17,13,,,,,,,,1.8,1.5,1.0*3F
$GPRMC,163044.000,A,3748.7656,N,12217.8037,W,0.85,81.37,290812,,,A*49
$GPVTG,81.37,T,,M,0.85,N,1.6,K,A*3A
$GPGGA,163045.000,3748.7647,N,12217.8027,W,1,05,1.5,27.3,M,-25.1,M,,0000*57
$GPGSA,A,3,07,28,08,17,13,,,,,,,,1.8,1.5,1.0*3F
$GPRMC,163045.000,A,3748.7647,N,12217.8027,W,1.17,136.67,290812,,,A*7B
$GPVTG,136.67,T,,M,1.17,N,2.2,K,A*0F
$GPGGA,163046.000,3748.7642,N,12217.8023,W,1,05,1.5,28.9,M,-25.1,M,,0000*50
$GPGSA,A,3,07,28,08,17,13,,,,,,,,1.8,1.5,1.0*3F
$GPRMC,163046.000,A,3748.7642,N,12217.8023,W,1.62,125.43,290812,,,A*7F
$GPVTG,125.43,T,,M,1.62,N,3.0,K,A*0A
$GPGGA,163047.000,3748.7640,N,12217.8014,W,1,05,1.5,29.4,M,-25.1,M,,0000*5B
$GPGSA,A,3,07,28,08,17,13,,,,,,,,1.8,1.5,1.0*3F
$GPRMC,163047.000,A,3748.7640,N,12217.8014,W,2.40,112.08,290812,,,A*70
$GPVTG,112.08,T,,M,2.40,N,4.4,K,A*01
$GPGGA,163048.000,3748.7635,N,12217.8002,W,1,05,1.5,30.2,M,-25.1,M,,0000*5F
$GPGSA,A,3,07,28,08,17,13,,,,,,,,1.8,1.5,1.0*3F
$GPGSV,3,1,12,08,66,006,24,28,64,265,25,07,46,084,28,26,36,312,23*7D
$GPGSV,3,2,12,19,22,046,22,17,21,184,38,13,19,153,36,11,16,095,23*70
$GPGSV,3,3,12,05,16,264,28,10,07,213,29,01,03,109,20,24,00,065,*72
$GPRMC,163048.000,A,3748.7635,N,12217.8002,W,2.37,125.88,290812,,,A*76
$GPGGA,163049.000,3748.7633,N,12217.7994,W,1,05,1.5,30.6,M,-25.1,M,,0000*55
$GPGSA,A,3,07,28,08,17,13,,,,,,,,1.8,1.5,1.0*3F
$GPRMC,163049.000,A,3748.7633,N,12217.7994,W,2.53,119.96,290812,,,A*7A
$GPVTG,119.96,T,,M,2.53,N,4.7,K,A*0C
$GPGGA,163050.000,3748.7626,N,12217.7981,W,1,05,1.5,31.6,M,-25.1,M,,0000*5C
$GPGSA,A,3,07,28,08,17,13,,,,,,,,1.8,1.5,1.0*3F
$GPRMC,163050.000,A,3748.7626,N,12217.7981,W,2.66,122.63,290812,,,A*76
$GPVTG,122.63,T,,M,2.66,N,4.9,K,A*06
$GPGGA,163051.000,3748.7624,N,12217.7972,W,1,05,1.5,30.9,M,-25.1,M,,0000*5D
$GPGSA,A,3,07,28,08,17,13,,,,,,,,1.8,1.5,1.0*3F
$GPRMC,163051.000,A,3748.7624,N,12217.7972,W,2.91,117.54,290812,,,A*73
$GPVTG,117.54,T,,M,2.91,N,5.4,K,A*00
$GPGGA,163052.000,3748.7624,N,12217.7968,W,2,05,1.5,29.4,M,-25.1,M,,0000*53
$GPGSA,A,3,07,28,08,17,13,,,,,,,,1.8,1.5,1.0*3F
$GPRMC,163052.000,A,3748.7624,N,12217.7968,W,2.91,121.53,290812,,,D*7C
$GPVTG,121.53,T,,M,2.91,N,5.4,K,D*07
$GPGGA,163053.000,3748.7625,N,12217.7963,W,2,05,1.5,27.8,M,-25.1,M,,0000*5A
$GPGSA,A,3,07,28,08,17,13,,,,,,,,1.8,1.5,1.0*3F
$GPGSV,3,1,12,08,66,006,23,28,64,265,26,07,46,084,28,26,36,312,23*79
$GPGSV,3,2,12,19,22,046,21,17,21,184,38,13,19,153,35,11,16,095,29*7A
$GPGSV,3,3,12,05,16,264,27,10,07,213,27,01,03,109,19,24,00,065,*79
$GPRMC,163053.000,A,3748.7625,N,12217.7963,W,2.85,120.17,290812,,,D*73
$GPVTG,120.17,T,,M,2.85,N,5.3,K,D*04
$GPGGA,163054.000,3748.7618,N,12217.7964,W,2,05,1.5,29.3,M,-25.1,M,2.8,0000*75
$GPGSA,A,3,07,28,08,17,13,,,,,,,,1.8,1.5,1.0*3F
$GPRMC,163054.000,A,3748.7618,N,12217.7964,W,2.63,122.01,290812,,,D*70
$GPVTG,122.01,T,,M,2.63,N,4.9,K,D*02
$GPGGA,163055.000,3748.7615,N,12217.7961,W,2,05,1.5,29.7,M,-25.1,M,,0000*5C
$GPGSA,A,3,07,28,08,17,13,,,,,,,,1.8,1.5,1.0*3F
$GPRMC,163055.000,A,3748.7615,N,12217.7961,W,2.79,119.43,290812,,,D*7C
$GPVTG,119.43,T,,M,2.79,N,5.2,K,D*0D
$GPGGA,163056.000,3748.7615,N,12217.7955,W,2,05,1.5,28.5,M,-25.1,M,,0000*5B
$GPGSA,A,3,07,28,08,17,13,,,,,,,,1.8,1.5,1.0*3F
$GPRMC,163056.000,A,3748.7615,N,12217.7955,W,2.64,119.64,290812,,,D*71
$GPVTG,119.64,T,,M,2.64,N,4.9,K,D*0E
$GPGGA,163057.000,3748.7616,N,12217.7948,W,2,05,1.5,27.3,M,-25.1,M,,0000*5C
$GPGSA,A,3,07,28,08,17,13,,,,,,,,1.8,1.5,1.0*3F
$GPRMC,163057.000,A,3748.7616,N,12217.7948,W,2.64,115.03,290812,,,D*72
$GPVTG,115.03,T,,M,2.64,N,4.9,K,D*03
$GPGGA,163058.000,3748.7616,N,12217.7939,W,2,05,1.5,26.3,M,-25.1,M,2.8,0000*70
$GPGSA,A,3,07,28,08,17,13,,,,,,,,1.8,1.5,1.0*3F
$GPGSV,3,1,12,08,66,006,23,28,64,265,26,07,46,084,29,26,36,312,22*79
$GPGSV,3,2,12,19,22,046,22,17,21,184,37,13,19,153,35,11,16,095,25*7A
$GPGSV,3,3,12,05,16,264,27,10,07,213,21,01,03,109,14,24,00,065,*72
$GPRMC,163058.000,A,3748.7616,N,12217.7939,W,2.95,116.71,290812,,,D*73
$GPVTG,116.71,T,,M,2.95,N,5.5,K,D*06
$GPGGA,163059.000,3748.7611,N,12217.7932,W,2,05,1.5,26.5,M,-25.1,M,3.8,0000*7A
$GPGSA,A,3,07,28,08,17,13,,,,,,,,1.8,1.5,1.0*3F
$GPRMC,163059.000,A,3748.7611,N,12217.7932,W,2.75,115.84,290812,,,D*79
$GPVTG,115.84,T,,M,2.75,N,5.1,K,D*05
$GPGGA,163100.000,3748.7606,N,12217.7928,W,2,05,1.5,26.6,M,-25.1,M,,0000*5C
$GPGSA,A,3,07,28,08,17,13,,,,,,,,1.8,1.5,1.0*3F
$GPRMC,163100.000,A,3748.7606,N,12217.7928,W,2.09,126.16,290812,,,D*79
$GPVTG,126.16,T,,M,2.09,N,3.9,K,D*0B
$GPGGA,163101.000,3748.7600,N,12217.7922,W,2,05,1.5,26.9,M,-25.1,M,,0000*5E
$GPGSA,A,3,07,28,08,17,13,,,,,,,,1.8,1.5,1.0*3F
$GPRMC,163101.000,A,3748.7600,N,12217.7922,W,2.55,134.48,290812,,,D*75
$GPVTG,134.48,T,,M,2.55,N,4.7,K,D*03
$GPGGA,163102.000,3748.7598,N,12217.7918,W,2,05,1.5,26.2,M,-25.1,M,2.8,0000*79
$GPGSA,A,3,07,28,08,17,13,,,,,,,,1.8,1.5,1.0*3F
$GPRMC,163102.000,A,3748.7598,N,12217.7918,W,2.71,125.68,290812,,,D*79
$GPVTG,125.68,T,,M,2.71,N,5.0,K,D*01
$GPGGA,163103.000,3748.7595,N,12217.7912,W,2,05,1.5,25.9,M,-25.1,M,,0000*53
$GPGSA,A,3,07,28,08,17,13,,,,,,,,1.8,1.5,1.0*3F
$GPGSV,3,1,12,08,66,006,24,28,64,265,27,07,46,084,27,26,36,312,22*71
$GPGSV,3,2,12,19,22,046,21,17,21,184,37,13,19,153,28,11,16,095,26*76
$GPGSV,3,3,12,05,16,264,30,10,07,213,32,01,03,109,15,24,00,065,*77
$GPVTG,116.42,T,,M,2.69,N,5.0,K,D*00
$GPGGA,163104.000,3748.7596,N,12217.7906,W,2,05,1.5,25.0,M,-25.1,M,2.8,0000*7F
$GPGSA,A,3,07,28,08,17,13,,,,,,,,1.8,1.5,1.0*3F
$GPRMC,163104.000,A,3748.7596,N,12217.7906,W,2.54,108.14,290812,,,D*7D
$GPVTG,108.14,T,,M,2.54,N,4.7,K,D*04
$GPGGA,163105.000,3748.7592,N,12217.7900,W,2,05,1.5,25.9,M,-25.1,M,3.8,0000*74
$GPGSA,A,3,07,28,08,17,13,,,,,,,,1.8,1.5,1.0*3F
$GPRMC,163105.000,A,3748.7592,N,12217.7900,W,2.55,107.55,290812,,,D*75
$GPVTG,107.55,T,,M,2.55,N,4.7,K,D*0F
$GPGGA,163106.000,3748.7593,N,12217.7891,W,2,05,1.5,24.6,M,-25.1,M,,0000*54
$GPGSA,A,3,07,28,08,17,13,,,,,,,,1.8,1.5,1.0*3F
$GPRMC,163106.000,A,3748.7593,N,12217.7891,W,2.58,114.51,290812,,,D*75
$GPVTG,114.51,T,,M,2.58,N,4.8,K,D*0B
$GPGGA,163107.000,3748.7595,N,12217.7884,W,2,05,1.5,23.3,M,-25.1,M,,0000*55
$GPGSA,A,3,07,28,08,17,13,,,,,,,,1.8,1.5,1.0*3F
$GPRMC,163107.000,A,3748.7595,N,12217.7884,W,2.42,113.82,290812,,,D*74
$GPVTG,113.82,T,,M,2.42,N,4.5,K,D*04
$GPGGA,163108.000,3748.7596,N,12217.7876,W,2,05,1.5,21.8,M,-25.1,M,,0000*5D
$GPGSA,A,3,07,28,08,17,13,,,,,,,,1.8,1.5,1.0*3F
$GPGSV,3,1,12,08,66,006,24,28,64,265,27,07,46,084,28,26,36,312,22*7E
$GPGSV,3,2,12,19,22,046,,17,21,184,36,13,19,153,32,11,16,095,25*7C
$GPGSV,3,3,12,05,16,264,30,10,07,213,38,01,03,109,19,24,00,065,*71
$GPRMC,163108.000,A,3748.7596,N,12217.7876,W,2.50,114.48,290812,,,D*77
$GPVTG,114.48,T,,M,2.50,N,4.6,K,D*05
$GPGGA,163109.000,3748.7592,N,12217.7858,W,2,05,1.5,21.7,M,-25.1,M,1.8,0000*7C
$GPGSA,A,3,07,28,08,17,13,,,,,,,,1.8,1.5,1.0*3F
$GPRMC,163109.000,A,3748.7592,N,12217.7858,W,3.06,112.09,290812,,,D*7F
$GPVTG,112.09,T,,M,3.06,N,5.7,K,D*04
$GPGGA,163110.000,3748.7588,N,12217.7840,W,2,05,1.5,21.8,M,-25.1,M,,0000*5E
$GPGSA,A,3,07,28,08,17,13,,,,,,,,1.8,1.5,1.0*3F
$GPRMC,163110.000,A,3748.7588,N,12217.7840,W,3.07,113.15,290812,,,D*78
$GPVTG,113.15,T,,M,3.07,N,5.7,K,D*09
$GPGGA,163111.000,3748.7581,N,12217.7828,W,2,05,1.5,22.4,M,-25.1,M,2.8,0000*73
$GPGSA,A,3,07,28,08,17,13,,,,,,,,1.8,1.5,1.0*3F
$GPRMC,163111.000,A,3748.7581,N,12217.7828,W,2.98,114.21,290812,,,D*79
$GPVTG,114.21,T,,M,2.98,N,5.5,K,D*0C
$GPGGA,163112.000,3748.7572,N,12217.7823,W,2,05,1.5,22.9,M,-25.1,M,3.8,0000*7B
$GPGSA,A,3,07,28,08,17,13,,,,,,,,1.8,1.5,1.0*3F
$GPRMC,163112.000,A,3748.7572,N,12217.7823,W,2.87,115.35,290812,,,D*77
$GPVTG,115.35,T,,M,2.87,N,5.3,K,D*00
$GPGGA,163113.000,3748.7561,N,12217.7818,W,2,05,1.5,23.4,M,-25.1,M,,0000*59
$GPGSA,A,3,07,28,08,17,13,,,,,,,,1.8,1.5,1.0*3F
$GPGSV,3,1,12,08,66,006,24,28,64,265,27,07,46,084,23,26,36,312,22*75
$GPGSV,3,2,12,19,22,046,20,17,21,184,30,13,19,153,38,11,16,095,19*7D
$GPGSV,3,3,12,05,16,264,31,10,07,213,28,01,03,109,21,24,00,065,*7A
$GPRMC,163113.000,A,3748.7561,N,12217.7818,W,3.04,121.07,290812,,,D*70
$GPVTG,121.07,T,,M,3.04,N,5.6,K,D*09
$GPGGA,163114.000,3748.7555,N,12217.7811,W,2,05,1.5,23.0,M,-25.1,M,,0000*54
$GPGSA,A,3,07,28,08,17,13,,,,,,,,1.8,1.5,1.0*3F
$GPRMC,163114.000,A,3748.7555,N,12217.7811,W,2.66,111.39,290812,,,D*72
$GPVTG,111.39,T,,M,2.66,N,4.9,K,D*0C
$GPGGA,163115.000,3748.7553,N,12217.7805,W,2,05,1.5,22.3,M,-25.1,M,,0000*54
$GPGSA,A,3,07,28,08,17,13,,,,,,,,1.8,1.5,1.0*3F
$GPRMC,163115.000,A,3748.7553,N,12217.7805,W,2.41,114.91,290812,,,D*72
$GPVTG,114.91,T,,M,2.41,N,4.5,K,D*02
$GPGGA,163116.000,3748.7544,N,12217.7798,W,2,05,1.5,23.3,M,-25.1,M,2.8,0000*7F
$GPGSA,A,3,07,28,08,17,13,,,,,,,,1.8,1.5,1.0*3F
$GPRMC,163116.000,A,3748.7544,N,12217.7798,W,1.87,130.30,290812,,,D*78
$GPVTG,130.30,T,,M,1.87,N,3.5,K,D*01
$GPGGA,163117.000,3748.7535,N,12217.7792,W,2,05,1.5,24.7,M,-25.1,M,3.8,0000*70
$GPGSA,A,3,07,28,08,17,13,,,,,,,,1.8,1.5,1.0*3F
$GPRMC,163117.000,A,3748.7535,N,12217.7792,W,1.95,130.44,290812,,,D*75
$GPVTG,130.44,T,,M,1.95,N,3.6,K,D*02
$GPGGA,163118.000,3748.7525,N,12217.7794,W,2,05,1.5,26.4,M,-25.1,M,4.8,0000*7E
$GPGSA,A,3,07,28,08,17,13,,,,,,,,1.8,1.5,1.0*3F
$GPGSV,3,1,12,08,66,006,24,28,64,265,27,07,46,084,23,26,36,312,22*75
$GPGSV,3,2,12,19,22,046,19,17,21,184,29,13,19,153,36,11,16,095,19*71
$GPGSV,3,3,12,05,16,264,30,10,07,213,34,01,03,109,19,24,00,065,*7D
$GPVTG,140.02,T,,M,2.46,N,4.6,K,D*0D
$GPGGA,163119.000,3748.7515,N,12217.7791,W,2,05,1.5,27.2,M,-25.1,M,,0000*5C
$GPGSA,A,3,07,28,08,17,13,,,,,,,,1.8,1.5,1.0*3F
$GPRMC,163119.000,A,3748.7515,N,12217.7791,W,2.67,130.74,290812,,,D*77
$GPVTG,130.74,T,,M,2.67,N,5.0,K,D*0F
$GPGGA,163120.000,3748.7510,N,12217.7786,W,2,05,1.5,27.5,M,-25.1,M,,0000*52
$GPGSA,A,3,07,28,08,17,13,,,,,,,,1.8,1.5,1.0*3F
$GPRMC,163120.000,A,3748.7510,N,12217.7786,W,2.64,119.20,290812,,,D*77
$GPVTG,119.20,T,,M,2.64,N,4.9,K,D*0E
$GPGGA,163121.000,3748.7510,N,12217.7787,W,2,05,1.5,27.0,M,-25.1,M,,0000*57
$GPGSA,A,3,07,28,08,17,13,,,,,,,,1.8,1.5,1.0*3F
$GPRMC,163121.000,A,3748.7510,N,12217.7787,W,1.95,137.18,290812,,,D*7D
$GPVTG,137.18,T,,M,1.95,N,3.6,K,D*0C
$GPGGA,163122.000,3748.7507,N,12217.7778,W,2,05,1.5,26.6,M,-25.1,M,2.8,0000*71
$GPGSA,A,3,07,28,08,17,13,,,,,,,,1.8,1.5,1.0*3F
$GPRMC,163122.000,A,3748.7507,N,12217.7778,W,2.48,121.21,290812,,,D*76
$GPVTG,121.21,T,,M,2.48,N,4.6,K,D*05
$GPGGA,163123.000,3748.7503,N,12217.7769,W,2,05,1.5,26.4,M,-25.1,M,3.8,0000*77
$GPGSA,A,3,07,28,08,17,13,,,,,,,,1.8,1.5,1.0*3F
$GPGSV,3,1,12,08,66,006,24,28,64,265,27,07,46,084,24,26,36,312,21*71
$GPGSV,3,2,12,19,22,046,19,17,21,184,36,13,19,153,32,11,16,095,20*71
$GPGSV,3,3,12,05,16,264,27,10,07,213,30,01,03,109,18,24,00,065,*7E
$GPRMC,163123.000,A,3748.7503,N,12217.7769,W,2.42,119.97,290812,,,D*7F
$GPVTG,119.97,T,,M,2.42,N,4.5,K,D*0A
$GPGGA,163124.000,3748.7503,N,12217.7768,W,2,05,1.5,24.6,M,-25.1,M,4.8,0000*76
$GPGSA,A,3,07,28,08,17,13,,,,,,,,1.8,1.5,1.0*3F
$GPRMC,163124.000,A,3748.7503,N,12217.7768,W,2.09,119.69,290812,,,D*77
$GPVTG,119.69,T,,M,2.09,N,3.9,K,D*0F
$GPGGA,163125.000,3748.7504,N,12217.7766,W,2,05,1.5,22.8,M,-25.1,M,,0000*54
$GPGSA,A,3,07,28,08,17,13,,,,,,,,1.8,1.5,1.0*3F
$GPRMC,163125.000,A,3748.7504,N,12217.7766,W,2.18,124.24,290812,,,D*78
$GPVTG,124.24,T,,M,2.18,N,4.0,K,D*06
$GPGGA,163126.000,3748.7502,N,12217.7764,W,2,05,1.5,21.6,M,-25.1,M,2.8,0000*7A
$GPGSA,A,3,07,28,08,17,13,,,,,,,,1.8,1.5,1.0*3F
$GPRMC,163126.000,A,3748.7502,N,12217.7764,W,2.53,123.97,290812,,,D*7F
$GPVTG,123.97,T,,M,2.53,N,4.7,K,D*01
$GPGGA,163127.000,3748.7496,N,12217.7757,W,2,05,1.5,21.6,M,-25.1,M,3.8,0000*76
$GPGSA,A,3,07,28,08,17,13,,,,,,,,1.8,1.5,1.0*3F
$GPRMC,163127.000,A,3748.7496,N,12217.7757,W,2.75,112.59,290812,,,D*76
$GPVTG,112.59,T,,M,2.75,N,5.1,K,D*02
$GPGGA,163128.000,3748.7496,N,12217.7760,W,2,05,1.5,19.8,M,-25.1,M,4.8,0000*7F
$GPGSA,A,3,07,28,08,17,13,,,,,,,,1.8,1.5,1.0*3F
$GPGSV,3,1,12,08,66,006,24,28,64,265,27,07,46,084,23,26,36,312,21*76
$GPGSV,3,2,12,19,22,046,20,17,21,184,36,13,19,153,39,11,16,095,20*70
$GPGSV,3,3,12,05,16,264,27,10,07,213,28,01,03,109,19,24,00,065,*76
$GPRMC,163128.000,A,3748.7496,N,12217.7760,W,2.57,123.92,290812,,,D*78
$GPVTG,123.92,T,,M,2.57,N,4.8,K,D*0F
$GPGGA,163129.000,3748.7496,N,12217.7759,W,2,05,1.5,17.8,M,-25.1,M,5.8,0000*7B
$GPGSA,A,3,07,28,08,17,13,,,,,,,,1.8,1.5,1.0*3F
$GPRMC,163129.000,A,3748.7496,N,12217.7759,W,2.06,128.42,290812,,,D*71
$GPVTG,128.42,T,,M,2.06,N,3.8,K,D*0A
$GPGGA,163130.000,3748.7497,N,12217.7754,W,2,05,1.5,15.7,M,-25.1,M,6.8,0000*71
$GPGSA,A,3,07,28,08,17,13,,,,,,,,1.8,1.5,1.0*3F
$GPRMC,163130.000,A,3748.7497,N,12217.7754,W,2.42,130.74,290812,,,D*79
$GPVTG,130.74,T,,M,2.42,N,4.5,K,D*0C
$GPGGA,163131.000,3748.7497,N,12217.7749,W,2,05,1.5,13.6,M,-25.1,M,,0000*5B
$GPGSA,A,3,07,28,08,17,13,,,,,,,,1.8,1.5,1.0*3F
$GPRMC,163131.000,A,3748.7497,N,12217.7749,W,2.61,133.49,290812,,,D*78
$GPVTG,133.49,T,,M,2.61,N,4.8,K,D*0D
$GPGGA,163132.000,3748.7494,N,12217.7739,W,2,05,1.5,13.0,M,-25.1,M,,0000*5A
$GPGSA,A,3,07,28,08,17,13,,,,,,,,1.8,1.5,1.0*3F
$GPRMC,163132.000,A,3748.7494,N,12217.7739,W,2.95,111.04,290812,,,D*7D
$GPVTG,111.04,T,,M,2.95,N,5.5,K,D*03
$GPGGA,163133.000,3748.7487,N,12217.7723,W,2,05,1.5,14.2,M,-25.1,M,,0000*57
$GPGSA,A,3,07,28,08,17,13,,,,,,,,1.8,1.5,1.0*3F
$GPGSV,3,1,12,08,66,006,23,28,64,265,27,07,46,084,21,26,36,312,20*72
$GPGSV,3,2,12,19,22,046,19,17,21,184,28,13,19,153,36,11,16,095,20*7A
$GPGSV,3,3,12,05,16,264,22,10,07,213,32,01,03,109,19,24,00,065,*78
$GPVTG,105.06,T,,M,2.73,N,5.1,K,D*08
$GPGGA,163134.000,3748.7483,N,12217.7715,W,2,05,1.5,13.0,M,-25.1,M,2.8,0000*70
$GPGSA,A,3,07,28,08,17,13,,,,,,,,1.8,1.5,1.0*3F
$GPRMC,163134.000,A,3748.7483,N,12217.7715,W,3.03,123.76,290812,,,D*79
$GPVTG,123.76,T,,M,3.03,N,5.6,K,D*0A
$GPGGA,163135.000,3748.7482,N,12217.7709,W,2,05,1.5,11.0,M,-25.1,M,3.8,0000*7E
$GPGSA,A,3,07,28,08,17,13,,,,,,,,1.8,1.5,1.0*3F
$GPRMC,163135.000,A,3748.7482,N,12217.7709,W,2.38,126.50,290812,,,D*7C
$GPVTG,126.50,T,,M,2.38,N,4.4,K,D*01
$GPGGA,163136.000,3748.7483,N,12217.7704,W,2,05,1.5,9.8,M,-25.1,M,4.8,0000*47
$GPGSA,A,3,07,28,08,17,13,,,,,,,,1.8,1.5,1.0*3F
$GPRMC,163136.000,A,3748.7483,N,12217.7704,W,1.70,118.58,290812,,,D*79
$GPVTG,118.58,T,,M,1.70,N,3.2,K,D*0A
$GPGGA,163137.000,3748.7481,N,12217.7699,W,2,05,1.5,8.7,M,-25.1,M,,0000*6D
$GPGSA,A,3,07,28,08,17,13,,,,,,,,1.8,1.5,1.0*3F
$GPRMC,163137.000,A,3748.7481,N,12217.7699,W,1.65,116.31,290812,,,D*7A
$GPVTG,116.31,T,,M,1.65,N,3.1,K,D*0C
$GPGGA,163138.000,3748.7475,N,12217.7683,W,2,05,1.5,9.1,M,-25.1,M,,0000*65
$GPGSA,A,3,07,28,08,17,13,,,,,,,,1.8,1.5,1.0*3F
$GPGSV,3,1,12,08,66,006,22,28,64,265,27,07,46,084,20,26,36,312,21*73
$GPGSV,3,2,12,19,22,046,20,17,21,184,22,13,19,153,36,11,16,095,21*7B
$GPGSV,3,3,12,05,16,264,22,10,07,213,32,01,03,109,18,24,00,065,*79
$GPRMC,163138.000,A,3748.7475,N,12217.7683,W,2.64,118.83,290812,,,D*70
$GPVTG,118.83,T,,M,2.64,N,4.9,K,D*06
$GPGGA,163139.000,3748.7477,N,12217.7675,W,2,05,1.5,6.3,M,-25.1,M,,0000*62
$GPGSA,A,3,07,28,08,17,13,,,,,,,,1.8,1.5,1.0*3F
$GPRMC,163139.000,A,3748.7477,N,12217.7675,W,2.91,104.61,290812,,,D*71
$GPVTG,104.61,T,,M,2.91,N,5.4,K,D*01
$GPGGA,163140.000,3748.7476,N,12217.7666,W,2,05,1.5,5.6,M,-25.1,M,,0000*69
$GPGSA,A,3,07,28,08,17,13,,,,,,,,1.8,1.5,1.0*3F
$GPRMC,163140.000,A,3748.7476,N,12217.7666,W,2.31,107.30,290812,,,D*71
$GPVTG,107.30,T,,M,2.31,N,4.3,K,D*0A
$GPGGA,163141.000,3748.7474,N,12217.7657,W,2,05,1.5,5.8,M,-25.1,M,1.8,0000*41
$GPGSA,A,3,07,28,08,17,13,,,,,,,,1.8,1.5,1.0*3F
$GPRMC,163141.000,A,3748.7474,N,12217.7657,W,2.76,105.54,290812,,,D*73
$GPVTG,105.54,T,,M,2.76,N,5.1,K,D*0A
$GPGGA,163142.000,3748.7476,N,12217.7646,W,2,05,1.5,4.3,M,-25.1,M,2.8,0000*49
$GPGSA,A,3,07,28,08,17,13,,,,,,,,1.8,1.5,1.0*3F
$GPRMC,163142.000,A,3748.7476,N,12217.7646,W,2.07,114.54,290812,,,D*74
$GPVTG,114.54,T,,M,2.07,N,3.8,K,D*03
$GPGGA,163143.000,3748.7479,N,12217.7639,W,2,05,1.5,3.2,M,-25.1,M,,0000*6D
$GPGSA,A,3,07,28,08,17,13,,,,,,,,1.8,1.5,1.0*3F
$GPGSV,3,1,12,08,66,006,23,28,64,265,27,07,46,084,25,26,36,312,21*77
$GPGSV,3,2,12,19,22,046,19,17,21,184,29,13,19,153,38,11,16,095,21*74
$GPGSV,3,3,12,05,16,264,23,10,07,213,22,01,03,109,18,24,00,065,*79
$GPRMC,163143.000,A,3748.7479,N,12217.7639,W,1.79,107.64,290812,,,D*79
$GPVTG,107.64,T,,M,1.79,N,3.3,K,D*03
$GPGGA,163144.000,3748.7479,N,12217.7632,W,2,05,1.5,2.1,M,-25.1,M,,0000*63
$GPGSA,A,3,07,28,08,17,13,,,,,,,,1.8,1.5,1.0*3F
$GPRMC,163144.000,A,3748.7479,N,12217.7632,W,2.56,119.91,290812,,,D*7E
$GPVTG,119.91,T,,M,2.56,N,4.7,K,D*0B
$GPGGA,163145.000,3748.7482,N,12217.7624,W,2,05,1.5,0.1,M,-25.1,M,,0000*63
$GPGSA,A,3,07,28,08,17,13,,,,,,,,1.8,1.5,1.0*3F
$GPRMC,163145.000,A,3748.7482,N,12217.7624,W,2.10,114.80,290812,,,D*73
$GPVTG,114.80,T,,M,2.10,N,3.9,K,D*0D
$GPGGA,163146.000,3748.7479,N,12217.7618,W,2,05,1.5,0.3,M,-25.1,M,2.8,0000*4D
$GPGSA,A,3,07,28,08,17,13,,,,,,,,1.8,1.5,1.0*3F
$GPRMC,163146.000,A,3748.7479,N,12217.7618,W,1.76,115.32,290812,,,D*70
$GPVTG,115.32,T,,M,1.76,N,3.3,K,D*0C
$GPGGA,163147.000,3748.7479,N,12217.7605,W,2,05,1.5,-0.4,M,-25.1,M,3.8,0000*6B
$GPGSA,A,3,07,28,08,17,13,,,,,,,,1.8,1.5,1.0*3F
$GPRMC,163147.000,A,3748.7479,N,12217.7605,W,2.02,116.60,290812,,,D*79
$GPVTG,116.60,T,,M,2.02,N,3.7,K,D*0C
$GPGGA,163148.000,3748.7475,N,12217.7590,W,2,05,1.5,-0.1,M,-25.1,M,,0000*47
$GPGSA,A,3,07,28,08,17,13,,,,,,,,1.8,1.5,1.0*3F
$GPGSV,3,1,12,08,66,006,23,28,64,265,26,07,46,084,30,26,36,312,21*72
$GPGSV,3,2,12,19,22,046,20,17,21,184,36,13,19,153,34,11,16,095,22*7F
$GPGSV,3,3,12,05,16,264,31,10,07,213,30,01,03,109,18,24,00,065,*79
$GPVTG,116.35,T,,M,2.43,N,4.5,K,D*0C
$GPGGA,163149.000,3748.7475,N,12217.7580,W,2,05,1.5,-0.2,M,-25.1,M,,0000*44
$GPGSA,A,3,07,28,08,17,13,,,,,,,,1.8,1.5,1.0*3F
$GPRMC,163149.000,A,3748.7475,N,12217.7580,W,2.48,114.47,290812,,,D*7C
$GPVTG,114.47,T,,M,2.48,N,4.6,K,D*03
$GPGGA,163150.000,3748.7467,N,12217.7568,W,2,05,1.5,1.2,M,-25.1,M,,0000*65
$GPGSA,A,3,07,28,08,17,13,,,,,,,,1.8,1.5,1.0*3F
$GPRMC,163150.000,A,3748.7467,N,12217.7568,W,2.79,115.54,290812,,,D*70
$GPVTG,115.54,T,,M,2.79,N,5.2,K,D*07
$GPGGA,163151.000,3748.7460,N,12217.7554,W,2,05,1.5,2.2,M,-25.1,M,,0000*6F
$GPGSA,A,3,07,28,08,17,13,,,,,,,,1.8,1.5,1.0*3F
$GPRMC,163151.000,A,3748.7460,N,12217.7554,W,3.33,116.73,290812,,,D*70
$GPVTG,116.73,T,,M,3.33,N,6.2,K,D*0D
$GPGGA,163152.000,3748.7451,N,12217.7538,W,2,05,1.5,3.1,M,-25.1,M,2.8,0000*42
$GPGSA,A,3,07,28,08,17,13,,,,,,,,1.8,1.5,1.0*3F
$GPRMC,163152.000,A,3748.7451,N,12217.7538,W,2.82,118.34,290812,,,D*7D
$GPVTG,118.34,T,,M,2.82,N,5.2,K,D*08
$GPGGA,163153.000,3748.7448,N,12217.7527,W,2,05,1.5,3.2,M,-25.1,M,3.8,0000*47
$GPGSA,A,3,07,28,08,17,13,,,,,,,,1.8,1.5,1.0*3F
$GPGSV,3,1,12,08,66,006,23,28,64,265,26,07,46,084,29,26,36,312,21*7A
$GPGSV,3,2,12,19,22,046,25,17,21,184,39,13,19,153,27,11,16,095,21*74
$GPGSV,3,3,12,05,16,264,28,10,07,213,21,01,03,109,18,24,00,065,*71
$GPRMC,163153.000,A,3748.7448,N,12217.7527,W,2.33,114.56,290812,,,D*78
$GPVTG,114.56,T,,M,2.33,N,4.3,K,D*0A
$GPGGA,163154.000,3748.7443,N,12217.7520,W,2,05,1.5,4.1,M,-25.1,M,,0000*6D
$GPGSA,A,3,07,28,08,17,13,,,,,,,,1.8,1.5,1.0*3F
$GPRMC,163154.000,A,3748.7443,N,12217.7520,W,2.42,120.33,290812,,,D*71
$GPVTG,120.33,T,,M,2.42,N,4.5,K,D*0E
$GPGGA,163155.000,3748.7442,N,12217.7511,W,2,05,1.5,3.7,M,-25.1,M,2.8,0000*4A
$GPGSA,A,3,07,28,08,17,13,,,,,,,,1.8,1.5,1.0*3F
$GPRMC,163155.000,A,3748.7442,N,12217.7511,W,2.94,116.81,290812,,,D*74
$GPVTG,116.81,T,,M,2.94,N,5.4,K,D*09
$GPGGA,163156.000,3748.7439,N,12217.7504,W,2,05,1.5,4.2,M,-25.1,M,3.8,0000*42
$GPGSA,A,3,07,28,08,17,13,,,,,,,,1.8,1.5,1.0*3F
$GPRMC,163156.000,A,3748.7439,N,12217.7504,W,2.49,113.16,290812,,,D*74
$GPVTG,113.16,T,,M,2.49,N,4.6,K,D*01
$GPGGA,163157.000,3748.7433,N,12217.7498,W,2,05,1.5,4.5,M,-25.1,M,4.8,0000*4D
$GPGSA,A,3,07,28,08,17,13,,,,,,,,1.8,1.5,1.0*3F
$GPRMC,163157.000,A,3748.7433,N,12217.7498,W,1.68,114.25,290812,,,D*7C
$GPVTG,114.25,T,,M,1.68,N,3.1,K,D*06
$GPGGA,163158.000,3748.7430,N,12217.7490,W,2,05,1.5,3.9,M,-25.1,M,5.8,0000*43
$GPGSA,A,3,07,28,08,17,13,,,,,,,,1.8,1.5,1.0*3F
$GPGSV,3,1,12,08,66,006,23,28,64,265,26,07,46,084,25,26,36,312,21*76
$GPGSV,3,2,12,19,22,046,25,17,21,184,31,13,19,153,34,11,16,095,21*7E
$GPGSV,3,3,12,05,16,264,24,10,07,213,21,01,03,109,17,24,00,065,*72
$GPRMC,163158.000,A,3748.7430,N,12217.7490,W,1.88,119.13,290812,,,D*7E
$GPVTG,119.13,T,,M,1.88,N,3.5,K,D*04
$GPGGA,163159.000,3748.7427,N,12217.7486,W,2,05,1.5,2.8,M,-25.1,M,6.8,0000*40
$GPGSA,A,3,07,28,08,17,13,,,,,,,,1.8,1.5,1.0*3F
$GPRMC,163159.000,A,3748.7427,N,12217.7486,W,1.84,99.40,290812,,,D*4D
$GPVTG,99.40,T,,M,1.84,N,3.4,K,D*36
$GPGGA,163200.000,3748.7427,N,12217.7479,W,2,05,1.5,1.5,M,-25.1,M,7.8,0000*40
$GPGSA,A,3,07,28,08,17,13,,,,,,,,1.8,1.5,1.0*3F
$GPRMC,163200.000,A,3748.7427,N,12217.7479,W,2.21,104.76,290812,,,D*7E
$GPVTG,104.76,T,,M,2.21,N,4.1,K,D*08
$GPGGA,163201.000,3748.7422,N,12217.7466,W,2,05,1.5,2.8,M,-25.1,M,8.8,0000*4B
$GPGSA,A,3,07,28,08,17,13,,,,,,,,1.8,1.5,1.0*3F
$GPRMC,163201.000,A,3748.7422,N,12217.7466,W,2.47,97.92,290812,,,D*45
$GPVTG,97.92,T,,M,2.47,N,4.6,K,D*3E
$GPGGA,163202.000,3748.7423,N,12217.7455,W,2,05,1.5,1.7,M,-25.1,M,9.8,0000*44
$GPGSA,A,3,07,28,08,17,13,,,,,,,,1.8,1.5,1.0*3F
$GPRMC,163202.000,A,3748.7423,N,12217.7455,W,2.23,100.69,290812,,,D*7E
$GPVTG,100.69,T,,M,2.23,N,4.1,K,D*00
$GPGGA,163203.000,3748.7418,N,12217.7441,W,2,05,1.5,1.7,M,-25.1,M,10.8,0000*70
$GPGSA,A,3,07,28,08,17,13,,,,,,,,1.8,1.5,1.0*3F
$GPGSV,3,1,12,08,66,006,23,28,64,265,21,07,46,084,24,26,36,312,22*73
$GPGSV,3,2,12,19,22,046,18,17,21,184,35,13,19,153,26,11,16,095,22*74
$GPRMC,163203.000,A,3748.7418,N,12217.7441,W,2.83,105.64,290812,,,D*70
$GPVTG,105.64,T,,M,2.83,N,5.2,K,D*00
$GPGGA,163204.000,3748.7411,N,12217.7429,W,2,05,1.5,2.0,M,-25.1,M,11.8,0000*75
$GPGSA,A,3,07,28,08,17,13,,,,,,,,1.8,1.5,1.0*3F
$GPRMC,163204.000,A,3748.7411,N,12217.7429,W,2.51,116.44,290812,,,D*7F
$GPVTG,116.44,T,,M,2.51,N,4.7,K,D*0B
$GPGGA,163205.000,3748.7405,N,12217.7420,W,2,05,1.5,2.1,M,-25.1,M,12.8,0000*7A
$GPGSA,A,3,07,28,08,17,13,,,,,,,,1.8,1.5,1.0*3F
$GPRMC,163205.000,A,3748.7405,N,12217.7420,W,2.15,117.05,290812,,,D*76
$GPVTG,117.05,T,,M,2.15,N,4.0,K,D*08
$GPGGA,163206.000,3748.7398,N,12217.7413,W,2,05,1.5,2.8,M,-25.1,M,13.8,0000*72
$GPGSA,A,3,07,28,08,17,13,,,,,,,,1.8,1.5,1.0*3F
$GPRMC,163206.000,A,3748.7398,N,12217.7413,W,1.94,117.02,290812,,,D*7B
$GPVTG,117.02,T,,M,1.94,N,3.6,K,D*04
$GPGGA,163207.000,3748.7390,N,12217.7412,W,2,05,1.5,4.6,M,-25.1,M,14.8,0000*75
$GPGSA,A,3,07,28,08,17,13,,,,,,,,1.8,1.5,1.0*3F
$GPRMC,163207.000,A,3748.7390,N,12217.7412,W,1.58,122.91,290812,,,D*7F
$GPVTG,122.91,T,,M,1.58,N,2.9,K,D*06
$GPGGA,163208.000,3748.7386,N,12217.7406,W,2,05,1.5,4.7,M,-25.1,M,15.8,0000*78
$GPGSA,A,3,07,28,08,17,13,,,,,,,,1.8,1.5,1.0*3F
$GPGSV,3,1,12,08,66,006,22,28,64,265,23,07,46,084,29,26,36,312,21*7E
$GPGSV,3,2,12,19,22,046,,17,21,184,39,13,19,153,31,11,16,095,22*77
$GPGSV,3,3,12,05,16,264,24,10,07,213,35,01,03,109,18,24,00,065,*78
$GPRMC,163208.000,A,3748.7386,N,12217.7406,W,1.54,111.02,290812,,,D*74
$GPVTG,111.02,T,,M,1.54,N,2.8,K,D*01
$GPGGA,163209.000,3748.7382,N,12217.7396,W,2,05,1.5,5.1,M,-25.1,M,16.8,0000*77
$GPGSA,A,3,07,28,08,17,13,,,,,,,,1.8,1.5,1.0*3F
$GPRMC,163209.000,A,3748.7382,N,12217.7396,W,2.00,116.04,290812,,,D*7C
$GPVTG,116.04,T,,M,2.00,N,3.7,K,D*0C
$GPGGA,163210.000,3748.7375,N,12217.7382,W,2,05,1.5,5.6,M,-25.1,M,17.8,0000*74
$GPGSA,A,3,07,28,08,17,13,,,,,,,,1.8,1.5,1.0*3F
$GPRMC,163210.000,A,3748.7375,N,12217.7382,W,2.86,113.80,290812,,,D*7E
$GPVTG,113.80,T,,M,2.86,N,5.3,K,D*09
$GPGGA,163211.000,3748.7372,N,12217.7366,W,1,05,1.5,5.3,M,-25.1,M,,0000*6E
$GPGSA,A,3,07,28,08,17,13,,,,,,,,1.8,1.5,1.0*3F
$GPRMC,163211.000,A,3748.7372,N,12217.7366,W,2.53,107.00,290812,,,A*72
$GPVTG,107.00,T,,M,2.53,N,4.7,K,A*0C
$GPGGA,163212.000,3748.7364,N,12217.7351,W,1,05,1.5,6.1,M,-25.1,M,,0000*6F
$GPGSA,A,3,07,28,08,17,13,,,,,,,,1.8,1.5,1.0*3F
$GPRMC,163212.000,A,3748.7364,N,12217.7351,W,3.27,108.20,290812,,,A*7D
$GPVTG,108.20,T,,M,3.27,N,6.1,K,A*07
$GPGGA,163213.000,3748.7361,N,12217.7338,W,1,05,1.5,5.6,M,-25.1,M,,0000*60
$GPGSA,A,3,07,28,08,17,13,,,,,,,,1.8,1.5,1.0*3F
$GPGSV,3,1,12,08,66,006,22,28,64,265,23,07,46,084,28,26,36,312,21*7F
$GPGSV,3,2,12,19,22,046,19,17,21,184,37,13,19,153,30,11,16,095,22*70
$GPGSV,3,3,12,05,16,264,25,10,07,213,22,01,03,109,17,24,00,065,*70
$GPRMC,163213.000,A,3748.7361,N,12217.7338,W,2.12,115.36,290812,,,A*7A
$GPVTG,115.36,T,,M,2.12,N,3.9,K,A*06
$GPGGA,163214.000,3748.7355,N,12217.7328,W,1,05,1.5,6.8,M,-25.1,M,,0000*6C
$GPGSA,A,3,07,28,08,17,13,,,,,,,,1.8,1.5,1.0*3F
$GPRMC,163214.000,A,3748.7355,N,12217.7328,W,1.85,113.63,290812,,,A*70
$GPVTG,113.63,T,,M,1.85,N,3.4,K,A*00
$GPGGA,163215.000,3748.7351,N,12217.7319,W,1,05,1.5,7.9,M,-25.1,M,,0000*6B
$GPGSA,A,3,07,28,08,17,13,,,,,,,,1.8,1.5,1.0*3F
$GPRMC,163215.000,A,3748.7351,N,12217.7319,W,2.00,108.62,290812,,,A*72
$GPVTG,108.62,T,,M,2.00,N,3.7,K,A*06
$GPGGA,163216.000,3748.7346,N,12217.7307,W,1,05,1.5,8.4,M,-25.1,M,,0000*63
$GPGSA,A,3,07,28,08,17,13,,,,,,,,1.8,1.5,1.0*3F
$GPRMC,163216.000,A,3748.7346,N,12217.7307,W,2.56,113.44,290812,,,A*75
$GPVTG,113.44,T,,M,2.56,N,4.7,K,A*0C
$GPGGA,163217.000,3748.7337,N,12217.7289,W,1,05,1.5,9.3,M,-25.1,M,,0000*65
$GPGSA,A,3,07,28,08,17,13,,,,,,,,1.8,1.5,1.0*3F
$GPRMC,163217.000,A,3748.7337,N,12217.7289,W,2.61,117.90,290812,,,A*7C
$GPVTG,117.90,T,,M,2.61,N,4.8,K,A*0A
$GPGGA,163218.000,3748.7326,N,12217.7271,W,1,05,1.5,10.4,M,-25.1,M,,0000*52
