$ADVER,3080,2.3
$GPRMC,215934.500,A,3748.4482,N,12217.8230,W,1.92,222.68,170712,,,A*79
$GPRMC,215935.500,A,3748.4476,N,12217.8234,W,1.90,219.24,170712,,,A*75
$GPRMC,215936.500,A,3748.4471,N,12217.8239,W,1.75,224.70,170712,,,A*78
$GPRMC,215937.500,A,3748.4465,N,12217.8244,W,1.86,227.49,170712,,,A*73
$GPRMC,215938.500,A,3748.4462,N,12217.8249,W,1.45,242.79,170712,,,A*79
$GPRMC,215939.500,A,3748.4457,N,12217.8254,W,1.56,238.09,170712,,,A*7A
$GPRMC,215940.500,A,3748.4451,N,12217.8259,W,2.24,217.77,170712,,,A*7D
$GPRMC,215941.500,A,3748.4449,N,12217.8265,W,1.33,268.63,170712,,,A*72
$GPRMC,215942.500,A,3748.4447,N,12217.8269,W,1.30,246.04,170712,,,A*7D
$GPRMC,215943.500,A,3748.4441,N,12217.8274,W,1.82,225.42,170712,,,A*78
$GPRMC,215944.500,A,3748.4435,N,12217.8278,W,2.00,212.33,170712,,,A*7B
$GPRMC,215945.500,A,3748.4429,N,12217.8282,W,1.66,220.01,170712,,,A*71
$GPRMC,215946.500,A,3748.4425,N,12217.8286,W,1.59,227.15,170712,,,A*74
$GPRMC,215947.500,A,3748.4426,N,12217.8291,W,1.31,299.74,170712,,,A*7C
$GPRMC,215948.500,A,3748.4420,N,12217.8296,W,1.99,222.11,170712,,,A*73
$GPRMC,215949.500,A,3748.4416,N,12217.8302,W,1.80,232.61,170712,,,A*75
$GPRMC,215950.500,A,3748.4454,N,12217.8310,W,1.61,217.46,170712,,,A*75
$GPRMC,215951.500,A,3748.4438,N,12217.8326,W,2.48,187.87,170712,,,A*74
$GPRMC,215952.500,A,3748.4307,N,12217.8347,W,1.06,298.04,170712,,,A*74
$GPRMC,215953.500,A,3748.4370,N,12217.8342,W,3.27,337.13,170712,,,A*73
$GPRMC,215954.500,A,3748.4423,N,12217.8352,W,1.29,316.94,170712,,,A*74
$GPRMC,215955.500,A,3748.4441,N,12217.8356,W,0.97,349.83,170712,,,A*7D
$GPRMC,220000.500,A,3748.4434,N,12217.8380,W,3.92,334.02,170712,,,A*7E
$GPRMC,220001.500,A,3748.4409,N,12217.8355,W,0.21,57.29,170712,,,A*4D
$GPRMC,220002.500,A,3748.4437,N,12217.8313,W,3.92,300.01,170712,,,A*71
$GPRMC,220003.500,A,3748.4517,N,12217.8271,W,4.44,342.02,170712,,,A*7F
$GPRMC,220004.500,A,3748.4467,N,12217.8321,W,3.86,143.48,170712,,,A*7E
$GPRMC,220005.500,A,3748.4342,N,12217.8269,W,1.65,124.12,170712,,,A*73
$GPRMC,220006.500,A,3748.4513,N,12217.8319,W,4.67,179.42,170712,,,A*7E
$GPRMC,220007.500,A,3748.4489,N,12217.8305,W,1.94,292.83,170712,,,A*72
$GPRMC,220008.500,A,3748.4402,N,12217.8346,W,2.56,218.63,170712,,,A*78
$GPRMC,220009.500,A,3748.4326,N,12217.8385,W,2.60,220.23,170712,,,A*7D
$GPRMC,220010.500,A,3748.4364,N,12217.8418,W,1.68,217.00,170712,,,A*7E
$GPRMC,220011.500,A,3748.4281,N,12217.8422,W,3.56,197.10,170712,,,A*79
$GPRMC,220012.500,A,3748.4285,N,12217.8456,W,1.88,317.79,170712,,,A*79
$GPRMC,220013.500,A,3748.4393,N,12217.8423,W,2.40,208.88,170712,,,A*7A
$GPRMC,220014.500,A,3748.4333,N,12217.8389,W,3.50,215.07,170712,,,A*7B
$GPRMC,220015.500,A,3748.4246,N,12217.8434,W,3.60,204.91,170712,,,A*74
$GPRMC,220016.500,A,3748.4360,N,12217.8385,W,2.92,211.76,170712,,,A*7E
$GPRMC,220017.500,A,3748.4208,N,12217.8365,W,5.49,200.43,170712,,,A*79
$GPRMC,220018.500,A,3748.4225,N,12217.8463,W,1.90,211.69,170712,,,A*70
$GPRMC,220019.500,A,3748.4288,N,12217.8384,W,1.42,189.75,170712,,,A*78
$GPRMC,220020.500,A,3748.4313,N,12217.8474,W,1.09,202.78,170712,,,A*7B
$GPRMC,220021.500,A,3748.4268,N,12217.8513,W,4.35,289.22,170712,,,A*71
$GPRMC,220022.500,A,3748.4244,N,12217.8454,W,2.13,230.16,170712,,,A*79
$GPRMC,220023.500,A,3748.4153,N,12217.8468,W,2.07,191.67,170712,,,A*79
$GPRMC,220024.500,A,3748.4326,N,12217.8435,W,1.07,259.52,170712,,,A*74
$GPRMC,220025.499,A,3748.4170,N,12217.8475,W,0.89,276.15,170712,,,A*78
$GPRMC,220026.499,A,3748.4140,N,12217.8494,W,1.69,250.86,170712,,,A*76
$GPRMC,220027.499,A,3748.4173,N,12217.8489,W,1.69,330.92,170712,,,A*79
$GPRMC,220028.499,A,3748.4187,N,12217.8506,W,1.40,175.33,170712,,,A*78
$GPRMC,220029.499,A,3748.4260,N,12217.8491,W,3.52,338.37,170712,,,A*72
$GPRMC,220030.499,A,3748.4237,N,12217.8476,W,1.93,194.51,170712,,,A*7A
$GPRMC,220031.499,A,3748.4164,N,12217.8498,W,10.33,185.90,170712,,,A*49
$GPRMC,220032.499,A,3748.4209,N,12217.8454,W,3.34,119.51,170712,,,A*7F
$GPRMC,220033.499,A,3748.4132,N,12217.8475,W,1.86,153.24,170712,,,A*71
$GPRMC,220034.499,A,3748.4029,N,12217.8491,W,3.22,158.11,170712,,,A*76
$GPRMC,220035.499,A,3748.4240,N,12217.8455,W,6.43,185.05,170712,,,A*75
$GPRMC,220036.499,A,3748.4460,N,12217.8445,W,4.11,171.44,170712,,,A*78
$GPRMC,220037.499,A,3748.4323,N,12217.8423,W,5.41,187.82,170712,,,A*7E
$GPRMC,220038.499,A,3748.4343,N,12217.8429,W,4.91,178.09,170712,,,A*72
$GPRMC,220039.499,A,3748.4243,N,12217.8416,W,4.08,187.99,170712,,,A*77
$GPRMC,220040.499,A,3748.3998,N,12217.8430,W,0.22,347.66,170712,,,A*75
$GPRMC,220041.499,A,3748.4151,N,12217.8393,W,7.29,184.84,170712,,,A*7D
$GPRMC,220042.499,A,3748.4328,N,12217.8367,W,2.33,0.45,170712,,,A*77
$GPRMC,220043.499,A,3748.4255,N,12217.8429,W,13.65,358.44,170712,,,A*4C
$GPRMC,220044.499,A,3748.4628,N,12217.8421,W,21.20,359.58,170712,,,A*41
$GPRMC,220045.499,A,3748.4853,N,12217.8462,W,14.86,355.20,170712,,,A*4C
$GPRMC,220046.499,A,3748.4970,N,12217.8476,W,12.57,355.77,170712,,,A*42
$GPRMC,220047.499,A,3748.5091,N,12217.8473,W,14.67,357.10,170712,,,A*47
$GPRMC,220048.499,A,3748.5149,N,12217.8478,W,9.83,352.78,170712,,,A*7A
$GPRMC,220049.499,A,3748.5169,N,12217.8495,W,4.60,351.60,170712,,,A*70
$GPRMC,220050.499,A,3748.4666,N,12217.8541,W,7.05,2.49,170712,,,A*77
$GPRMC,220055.499,A,3748.3940,N,12217.8694,W,15.90,191.98,170712,,,A*4D
$GPRMC,220056.499,A,3748.4107,N,12217.8683,W,12.58,196.55,170712,,,A*41
$GPRMC,220057.499,A,3748.4264,N,12217.8705,W,5.08,212.66,170712,,,A*75
$GPRMC,220058.499,A,3748.4032,N,12217.8634,W,2.56,206.96,170712,,,A*7E
$GPRMC,220059.499,A,3748.4033,N,12217.8641,W,1.75,195.06,170712,,,A*7E
$GPRMC,220100.499,A,3748.4027,N,12217.8639,W,2.00,196.24,170712,,,A*7B
$GPRMC,220101.000,A,3748.4031,N,12217.8651,W,1.99,200.94,170712,,,A*73
$GPRMC,220102.000,A,3748.4017,N,12217.8667,W,2.31,215.32,170712,,,A*78
$GPRMC,220103.000,A,3748.4008,N,12217.8673,W,1.81,224.90,170712,,,A*70
$GPRMC,220104.000,A,3748.4004,N,12217.8682,W,1.97,231.47,170712,,,A*7C
$GPRMC,220105.000,A,3748.4002,N,12217.8696,W,2.43,222.35,170712,,,A*73
$GPRMC,220106.000,A,3748.3996,N,12217.8698,W,2.58,217.16,170712,,,A*70
$GPRMC,220107.000,A,3748.3995,N,12217.8705,W,2.37,215.09,170712,,,A*72
$GPRMC,220108.000,A,3748.3995,N,12217.8716,W,2.20,216.30,170712,,,A*70
$GPRMC,220109.000,A,3748.3997,N,12217.8733,W,2.32,209.41,170712,,,A*7F
$GPRMC,220110.000,A,3748.3992,N,12217.8742,W,2.40,206.28,170712,,,A*71
$GPRMC,220111.000,A,3748.3989,N,12217.8739,W,2.26,208.91,170712,,,A*7A
$GPRMC,220112.000,A,3748.3986,N,12217.8736,W,2.03,185.73,170712,,,A*74
$GPRMC,220113.000,A,3748.3983,N,12217.8727,W,1.92,176.84,170712,,,A*7F
$GPRMC,220114.000,A,3748.3980,N,12217.8727,W,2.26,177.86,170712,,,A*74
$GPRMC,220115.000,A,3748.3976,N,12217.8729,W,2.19,202.26,170712,,,A*75
$GPRMC,220116.000,A,3748.3972,N,12217.8734,W,2.64,221.12,170712,,,A*72
$GPRMC,220117.000,A,3748.3968,N,12217.8739,W,2.47,220.37,170712,,,A*72
$GPRMC,220118.000,A,3748.3963,N,12217.8745,W,2.53,218.71,170712,,,A*71
$GPRMC,220119.000,A,3748.3958,N,12217.8750,W,2.45,212.68,170712,,,A*79
$GPRMC,220120.000,A,3748.3956,N,12217.8749,W,2.09,199.62,170712,,,A*77
$GPRMC,220121.000,A,3748.3952,N,12217.8738,W,2.16,187.95,170712,,,A*7D
$GPRMC,220122.000,A,3748.3946,N,12217.8709,W,1.89,194.56,170712,,,A*71
$GPRMC,220123.000,A,3748.3944,N,12217.8716,W,1.63,190.61,170712,,,A*78
$GPRMC,220124.000,A,3748.3939,N,12217.8717,W,1.81,198.87,170712,,,A*78
$GPRMC,220125.000,A,3748.3935,N,12217.8722,W,2.23,207.39,170712,,,A*78
$GPRMC,220126.000,A,3748.3930,N,12217.8726,W,2.35,207.71,170712,,,A*71
$GPRMC,220127.000,A,3748.3925,N,12217.8730,W,2.46,211.75,170712,,,A*74
$GPRMC,220128.000,A,3748.3920,N,12217.8731,W,2.48,191.10,170712,,,A*79
$GPRMC,220129.000,A,3748.3914,N,12217.8729,W,2.15,193.98,170712,,,A*7C
$GPRMC,220130.000,A,3748.3908,N,12217.8731,W,2.24,208.55,170712,,,A*72
$GPRMC,220131.000,A,3748.3902,N,12217.8724,W,2.17,209.42,170712,,,A*7A
$GPRMC,220132.000,A,3748.3897,N,12217.8733,W,2.17,214.69,170712,,,A*77
$GPRMC,220133.000,A,3748.3895,N,12217.8742,W,2.23,216.94,170712,,,A*75
$GPRMC,220134.000,A,3748.3888,N,12217.8751,W,2.64,209.10,170712,,,A*7D
$GPRMC,220135.000,A,3748.3881,N,12217.8757,W,2.77,201.52,170712,,,A*7F
$GPRMC,220136.000,A,3748.3875,N,12217.8765,W,2.45,219.74,170712,,,A*7A
$GPRMC,220137.000,A,3748.3867,N,12217.8776,W,2.82,219.65,170712,,,A*71
$GPRMC,220138.000,A,3748.3860,N,12217.8778,W,2.51,209.48,170712,,,A*77
$GPRMC,220139.000,A,3748.3852,N,12217.8781,W,2.51,207.79,170712,,,A*7D
$GPRMC,220140.000,A,3748.3846,N,12217.8791,W,2.42,210.81,170712,,,A*74
$GPRMC,220141.000,A,3748.3840,N,12217.8802,W,2.54,212.46,170712,,,A*78
$GPRMC,220142.000,A,3748.3834,N,12217.8817,W,2.54,213.80,170712,,,A*77
$GPRMC,220143.000,A,3748.3828,N,12217.8827,W,2.67,215.74,170712,,,A*75
$GPRMC,220144.000,A,3748.3821,N,12217.8840,W,2.84,210.82,170712,,,A*7B
$GPRMC,220145.000,A,3748.3813,N,12217.8848,W,2.85,211.15,170712,,,A*7D
$GPRMC,220146.000,A,3748.3807,N,12217.8857,W,2.80,206.28,170712,,,A*78
$GPRMC,220147.000,A,3748.3800,N,12217.8862,W,2.42,207.49,170712,,,A*70
$GPRMC,220148.000,A,3748.3794,N,12217.8867,W,2.44,200.61,170712,,,A*73
$GPRMC,220149.000,A,3748.3785,N,12217.8861,W,2.43,195.17,170712,,,A*7D
$GPRMC,220150.000,A,3748.3778,N,12217.8852,W,2.62,205.97,170712,,,A*76
$GPRMC,220151.000,A,3748.3771,N,12217.8850,W,2.55,213.83,170712,,,A*7A
$GPRMC,220152.000,A,3748.3764,N,12217.8853,W,2.93,221.50,170712,,,A*7B
$GPRMC,220153.000,A,3748.3757,N,12217.8855,W,2.57,208.34,170712,,,A*7D
$GPRMC,220154.000,A,3748.3751,N,12217.8853,W,2.41,208.70,170712,,,A*7D
$GPRMC,220155.000,A,3748.3746,N,12217.8851,W,2.96,223.80,170712,,,A*74
$GPRMC,220156.000,A,3748.3740,N,12217.8849,W,2.70,216.64,170712,,,A*7C
$GPRMC,220157.000,A,3748.3735,N,12217.8843,W,2.35,212.83,170712,,,A*79
$GPRMC,220158.000,A,3748.3729,N,12217.8841,W,2.40,206.52,170712,,,A*72
$GPRMC,220159.000,A,3748.3724,N,12217.8839,W,2.20,209.62,170712,,,A*7B
$GPRMC,220200.000,A,3748.3719,N,12217.8840,W,1.97,207.62,170712,,,A*75
$GPRMC,220201.000,A,3748.3714,N,12217.8844,W,2.39,217.38,170712,,,A*74
$GPRMC,220202.000,A,3748.3710,N,12217.8844,W,2.09,221.25,170712,,,A*79
$GPRMC,220203.000,A,3748.3706,N,12217.8842,W,2.13,200.16,170712,,,A*71
$GPRMC,220204.000,A,3748.3700,N,12217.8839,W,2.11,201.15,170712,,,A*7C
$GPRMC,220205.000,A,3748.3694,N,12217.8837,W,2.25,203.46,170712,,,A*7C
$GPRMC,220206.000,A,3748.3688,N,12217.8832,W,2.09,194.59,170712,,,A*7A
$GPRMC,220207.000,A,3748.3682,N,12217.8837,W,2.55,217.28,170712,,,A*73
$GPRMC,220208.000,A,3748.3676,N,12217.8839,W,2.38,200.81,170712,,,A*77
$GPRMC,220209.000,A,3748.3670,N,12217.8845,W,2.50,206.74,170712,,,A*79
$GPRMC,220210.000,A,3748.3664,N,12217.8853,W,2.13,208.35,170712,,,A*7F
$GPRMC,220211.000,A,3748.3658,N,12217.8861,W,1.76,210.59,170712,,,A*73
$GPRMC,220212.000,A,3748.3651,N,12217.8854,W,1.77,157.15,170712,,,A*76
$GPRMC,220213.000,A,3748.3649,N,12217.8838,W,2.04,125.27,170712,,,A*77
$GPRMC,220214.000,A,3748.3648,N,12217.8823,W,1.97,105.06,170712,,,A*73
$GPRMC,220215.000,A,3748.3647,N,12217.8809,W,2.12,95.55,170712,,,A*45
$GPRMC,220216.000,A,3748.3644,N,12217.8795,W,2.16,106.10,170712,,,A*71
$GPRMC,220217.000,A,3748.3646,N,12217.8778,W,2.51,102.14,170712,,,A*72
$GPRMC,220218.000,A,3748.3646,N,12217.8765,W,2.15,99.56,170712,,,A*44
$GPRMC,220219.000,A,3748.3647,N,12217.8751,W,2.09,106.20,170712,,,A*78
$GPRMC,220220.000,A,3748.3645,N,12217.8738,W,2.09,95.89,170712,,,A*47
$GPRMC,220221.000,A,3748.3646,N,12217.8726,W,2.22,101.54,170712,,,A*7F
$GPRMC,220222.000,A,3748.3644,N,12217.8716,W,2.33,102.29,170712,,,A*74
$GPRMC,220223.000,A,3748.3640,N,12217.8710,W,2.12,112.49,170712,,,A*73
$GPRMC,220224.000,A,3748.3640,N,12217.8700,W,1.93,119.69,170712,,,A*76
$GPRMC,220225.000,A,3748.3640,N,12217.8689,W,2.21,110.52,170712,,,A*7C
$GPRMC,220226.000,A,3748.3636,N,12217.8678,W,2.52,115.35,170712,,,A*70
$GPRMC,220227.000,A,3748.3635,N,12217.8668,W,1.97,102.67,170712,,,A*78
$GPRMC,220228.000,A,3748.3631,N,12217.8659,W,1.92,107.48,170712,,,A*7C
$GPRMC,220229.000,A,3748.3632,N,12217.8650,W,2.05,108.00,170712,,,A*79
$GPRMC,220230.000,A,3748.3630,N,12217.8643,W,2.32,114.46,170712,,,A*7A
$GPRMC,220231.000,A,3748.3627,N,12217.8634,W,2.44,96.83,170712,,,A*4E
$GPRMC,220232.000,A,3748.3623,N,12217.8628,W,2.10,96.80,170712,,,A*46
$GPRMC,220233.000,A,3748.3626,N,12217.8619,W,2.04,94.04,170712,,,A*4B
$GPRMC,220234.000,A,3748.3628,N,12217.8611,W,2.05,98.19,170712,,,A*4B
$GPRMC,220235.000,A,3748.3626,N,12217.8603,W,2.03,86.88,170712,,,A*46
$GPRMC,220236.000,A,3748.3624,N,12217.8595,W,2.08,81.98,170712,,,A*46
$GPRMC,220237.000,A,3748.3618,N,12217.8588,W,1.91,98.86,170712,,,A*40
$GPRMC,220238.000,A,3748.3616,N,12217.8580,W,1.77,88.86,170712,,,A*40
$GPRMC,220239.000,A,3748.3620,N,12217.8573,W,2.02,73.82,170712,,,A*49
$GPRMC,220240.000,A,3748.3621,N,12217.8565,W,1.71,93.95,170712,,,A*4E
$GPRMC,220241.000,A,3748.3617,N,12217.8558,W,1.96,100.96,170712,,,A*75
$GPRMC,220242.000,A,3748.3616,N,12217.8552,W,1.93,105.33,170712,,,A*72
$GPRMC,220243.000,A,3748.3616,N,12217.8546,W,1.82,100.73,170712,,,A*77
$GPRMC,220244.000,A,3748.3619,N,12217.8541,W,1.85,98.12,170712,,,A*48
$GPRMC,220245.000,A,3748.3615,N,12217.8535,W,2.04,117.11,170712,,,A*79
$GPRMC,220246.000,A,3748.3610,N,12217.8532,W,2.33,124.87,170712,,,A*73
$GPRMC,220247.000,A,3748.3608,N,12217.8526,W,1.99,112.12,170712,,,A*74
$GPRMC,220248.000,A,3748.3599,N,12217.8520,W,2.22,115.94,170712,,,A*7C
$GPRMC,220249.000,A,3748.3599,N,12217.8513,W,1.97,96.83,170712,,,A*4C
$GPRMC,220250.000,A,3748.3599,N,12217.8507,W,1.77,84.33,170712,,,A*47
$GPRMC,220251.000,A,3748.3594,N,12217.8502,W,1.65,115.38,170712,,,A*7F
$GPRMC,220252.000,A,3748.3592,N,12217.8493,W,2.20,112.68,170712,,,A*73
$GPRMC,220253.000,A,3748.3590,N,12217.8484,W,1.78,99.84,170712,,,A*48
$GPRMC,220254.000,A,3748.3590,N,12217.8476,W,2.12,99.12,170712,,,A*42
$GPRMC,220255.000,A,3748.3589,N,12217.8468,W,1.98,116.39,170712,,,A*7A
$GPRMC,220256.000,A,3748.3587,N,12217.8461,W,2.15,102.78,170712,,,A*78
$GPRMC,220257.000,A,3748.3586,N,12217.8453,W,2.16,106.15,170712,,,A*75
$GPRMC,220258.000,A,3748.3584,N,12217.8445,W,2.36,112.09,170712,,,A*75
$GPRMC,220259.000,A,3748.3580,N,12217.8437,W,2.38,123.95,170712,,,A*7C
$GPRMC,220300.000,A,3748.3577,N,12217.8430,W,2.51,122.09,170712,,,A*75
$GPRMC,220301.000,A,3748.3574,N,12217.8422,W,2.25,107.06,170712,,,A*7F
$GPRMC,220302.000,A,3748.3575,N,12217.8414,W,2.06,86.95,170712,,,A*4B
$GPRMC,220303.000,A,3748.3570,N,12217.8408,W,2.09,78.06,170712,,,A*46
$GPRMC,220304.000,A,3748.3574,N,12217.8397,W,2.84,69.51,170712,,,A*43
$GPRMC,220305.000,A,3748.3574,N,12217.8387,W,2.57,79.48,170712,,,A*44
$GPRMC,220306.000,A,3748.3569,N,12217.8381,W,2.32,84.24,170712,,,A*46
$GPRMC,220307.000,A,3748.3567,N,12217.8374,W,2.41,76.19,170712,,,A*44
$GPRMC,220308.000,A,3748.3566,N,12217.8371,W,2.21,74.94,170712,,,A*4E
$GPRMC,220309.000,A,3748.3564,N,12217.8366,W,2.28,88.61,170712,,,A*4B
$GPRMC,220310.000,A,3748.3565,N,12217.8359,W,2.37,85.95,170712,,,A*46
$GPRMC,220311.000,A,3748.3566,N,12217.8351,W,2.44,82.17,170712,,,A*45
$GPRMC,220312.000,A,3748.3568,N,12217.8344,W,2.49,79.26,170712,,,A*47
$GPRMC,220313.000,A,3748.3564,N,12217.8338,W,2.16,94.61,170712,,,A*4B
$GPRMC,220314.000,A,3748.3563,N,12217.8333,W,2.07,98.82,170712,,,A*41
$GPRMC,220315.000,A,3748.3561,N,12217.8328,W,2.04,107.56,170712,,,A*75
$GPRMC,220316.000,A,3748.3556,N,12217.8322,W,2.16,98.73,170712,,,A*4B
$GPRMC,220317.000,A,3748.3554,N,12217.8315,W,2.22,97.59,170712,,,A*4C
$GPRMC,220318.000,A,3748.3553,N,12217.8309,W,2.17,101.79,170712,,,A*73
$GPRMC,220319.000,A,3748.3549,N,12217.8303,W,2.07,106.82,170712,,,A*71
$GPRMC,220320.000,A,3748.3546,N,12217.8300,W,1.87,112.32,170712,,,A*72
$GPRMC,220321.000,A,3748.3538,N,12217.8299,W,1.90,143.35,170712,,,A*7E
$GPRMC,220322.000,A,3748.3534,N,12217.8295,W,2.00,161.47,170712,,,A*72
$GPRMC,220323.000,A,3748.3529,N,12217.8289,W,2.22,153.64,170712,,,A*72
$GPRMC,220324.000,A,3748.3524,N,12217.8282,W,2.41,163.89,170712,,,A*76
$GPRMC,220325.000,A,3748.3518,N,12217.8279,W,2.41,172.28,170712,,,A*77
$GPRMC,220326.000,A,3748.3513,N,12217.8278,W,2.32,183.93,170712,,,A*74
$GPRMC,220327.000,A,3748.3507,N,12217.8279,W,2.53,192.12,170712,,,A*7F
$GPRMC,220328.000,A,3748.3501,N,12217.8281,W,2.53,202.40,170712,,,A*7C
$GPRMC,220329.000,A,3748.3495,N,12217.8285,W,2.54,190.32,170712,,,A*7F
$GPRMC,220330.000,A,3748.3489,N,12217.8287,W,2.44,184.82,170712,,,A*77
$GPRMC,220331.000,A,3748.3483,N,12217.8292,W,2.25,193.76,170712,,,A*72
$GPRMC,220332.000,A,3748.3480,N,12217.8293,W,2.21,187.81,170712,,,A*7A
$GPRMC,220333.000,A,3748.3480,N,12217.8286,W,2.20,157.51,170712,,,A*7E
$GPRMC,220334.000,A,3748.3481,N,12217.8279,W,2.14,160.16,170712,,,A*78
$GPRMC,220335.000,A,3748.3477,N,12217.8274,W,2.27,163.71,170712,,,A*7F
$GPRMC,220336.000,A,3748.3469,N,12217.8274,W,2.86,175.11,170712,,,A*79
$GPRMC,220337.000,A,3748.3466,N,12217.8268,W,2.62,170.45,170712,,,A*74
$GPRMC,220338.000,A,3748.3468,N,12217.8256,W,2.54,129.90,170712,,,A*79
$GPRMC,220339.000,A,3748.3469,N,12217.8245,W,2.24,118.61,170712,,,A*70
$GPRMC,220340.000,A,3748.3469,N,12217.8231,W,2.31,124.03,170712,,,A*72
$GPRMC,220341.000,A,3748.3468,N,12217.8216,W,2.51,126.09,170712,,,A*79
$GPRMC,220342.000,A,3748.3466,N,12217.8206,W,2.13,110.44,170712,,,A*7F
$GPRMC,220343.000,A,3748.3464,N,12217.8204,W,2.40,126.93,170712,,,A*77
$GPRMC,220344.000,A,3748.3461,N,12217.8205,W,1.79,131.98,170712,,,A*70
$GPRMC,220345.000,A,3748.3458,N,12217.8200,W,2.14,120.34,170712,,,A*70
$GPRMC,220346.000,A,3748.3449,N,12217.8200,W,2.04,142.86,170712,,,A*7F
$GPRMC,220347.000,A,3748.3440,N,12217.8200,W,2.14,153.17,170712,,,A*7E
$GPRMC,220348.000,A,3748.3437,N,12217.8199,W,2.02,165.47,170712,,,A*75
$GPRMC,220349.000,A,3748.3443,N,12217.8191,W,1.12,127.63,170712,,,A*7D
$GPRMC,220350.000,A,3748.3448,N,12217.8187,W,1.22,97.80,170712,,,A*4D
$GPRMC,220351.000,A,3748.3442,N,12217.8188,W,1.12,112.37,170712,,,A*7A
$GPRMC,220352.000,A,3748.3444,N,12217.8172,W,2.14,96.58,170712,,,A*4B
$GPRMC,220353.000,A,3748.3444,N,12217.8164,W,1.92,88.20,170712,,,A*40
$GPRMC,220354.000,A,3748.3447,N,12217.8150,W,3.09,76.23,170712,,,A*41
$GPRMC,220355.000,A,3748.3448,N,12217.8140,W,2.61,88.78,170712,,,A*4E
$GPRMC,220356.000,A,3748.3451,N,12217.8125,W,2.10,100.77,170712,,,A*7E
$GPRMC,220357.000,A,3748.3447,N,12217.8121,W,1.63,149.18,170712,,,A*7F
$GPRMC,220358.000,A,3748.3447,N,12217.8114,W,1.26,155.69,170712,,,A*7C
$GPRMC,220359.000,A,3748.3446,N,12217.8102,W,1.31,99.07,170712,,,A*44
$GPRMC,220400.000,A,3748.3446,N,12217.8092,W,1.68,138.02,170712,,,A*74
$GPRMC,220401.000,A,3748.3452,N,12217.8076,W,2.14,129.94,170712,,,A*7D
$GPRMC,220402.000,A,3748.3454,N,12217.8066,W,1.77,112.49,170712,,,A*77
$GPRMC,220403.000,A,3748.3457,N,12217.8056,W,2.19,112.44,170712,,,A*70
$GPRMC,220404.000,A,3748.3450,N,12217.8049,W,2.35,114.98,170712,,,A*77
$GPRMC,220405.000,A,3748.3451,N,12217.8036,W,3.31,104.01,170712,,,A*7B
$GPRMC,220406.000,A,3748.3453,N,12217.8017,W,3.27,91.54,170712,,,A*43
$GPRMC,220407.000,A,3748.3450,N,12217.8006,W,3.03,76.50,170712,,,A*4A
$GPRMC,220408.000,A,3748.3455,N,12217.7991,W,2.68,84.81,170712,,,A*45
$GPRMC,220409.000,A,3748.3455,N,12217.7984,W,2.02,103.93,170712,,,A*71
$GPRMC,220410.000,A,3748.3445,N,12217.7985,W,1.99,117.47,170712,,,A*74
$GPRMC,220411.000,A,3748.3443,N,12217.7980,W,2.17,103.24,170712,,,A*73
$GPRMC,220412.000,A,3748.3438,N,12217.7976,W,2.61,103.22,170712,,,A*72
$GPRMC,220413.000,A,3748.3418,N,12217.7979,W,2.33,131.74,170712,,,A*7B
$GPRMC,220414.000,A,3748.3402,N,12217.7981,W,2.27,137.68,170712,,,A*7E
$GPRMC,220415.000,A,3748.3399,N,12217.7974,W,2.07,124.82,170712,,,A*74
$GPRMC,220416.000,A,3748.3408,N,12217.7960,W,2.55,103.48,170712,,,A*79
$GPRMC,220417.000,A,3748.3404,N,12217.7954,W,2.15,102.17,170712,,,A*7C
$GPRMC,220418.000,A,3748.3399,N,12217.7950,W,2.36,113.95,170712,,,A*7F
$GPRMC,220419.000,A,3748.3399,N,12217.7942,W,2.13,106.64,170712,,,A*70
$GPRMC,220420.000,A,3748.3398,N,12217.7936,W,2.30,109.18,170712,,,A*7D
$GPRMC,220421.000,A,3748.3404,N,12217.7924,W,2.56,88.68,170712,,,A*42
$GPRMC,220422.000,A,3748.3402,N,12217.7919,W,2.49,99.70,170712,,,A*4E
$GPRMC,220423.000,A,3748.3398,N,12217.7915,W,2.24,105.08,170712,,,A*77
$GPRMC,220424.000,A,3748.3393,N,12217.7910,W,2.20,112.10,170712,,,A*75
$GPRMC,220425.000,A,3748.3391,N,12217.7902,W,2.40,119.68,170712,,,A*77
$GPRMC,220426.000,A,3748.3395,N,12217.7891,W,2.27,102.27,170712,,,A*7B
$GPRMC,220427.000,A,3748.3391,N,12217.7883,W,2.54,104.15,170712,,,A*7E
$GPRMC,220428.000,A,3748.3386,N,12217.7875,W,2.25,105.69,170712,,,A*72
$GPRMC,220429.000,A,3748.3384,N,12217.7868,W,2.58,98.52,170712,,,A*4A
$GPRMC,220430.000,A,3748.3383,N,12217.7862,W,2.25,89.66,170712,,,A*42
$GPRMC,220431.000,A,3748.3376,N,12217.7857,W,2.28,107.68,170712,,,A*7B
$GPRMC,220432.000,A,3748.3384,N,12217.7843,W,2.60,82.10,170712,,,A*4F
$GPRMC,220433.000,A,3748.3383,N,12217.7836,W,2.45,102.69,170712,,,A*7B
$GPRMC,220434.000,A,3748.3383,N,12217.7828,W,2.20,106.18,170712,,,A*72
$GPRMC,220435.000,A,3748.3383,N,12217.7819,W,2.19,111.49,170712,,,A*79
$GPRMC,220436.000,A,3748.3381,N,12217.7812,W,2.19,101.69,170712,,,A*70
$GPRMC,220437.000,A,3748.3382,N,12217.7803,W,2.42,109.28,170712,,,A*71
$GPRMC,220438.000,A,3748.3376,N,12217.7797,W,2.43,124.65,170712,,,A*70
$GPRMC,220439.000,A,3748.3376,N,12217.7788,W,2.29,123.59,170712,,,A*7B
$GPRMC,220440.000,A,3748.3367,N,12217.7784,W,2.34,125.82,170712,,,A*75
$GPRMC,220441.000,A,3748.3360,N,12217.7779,W,2.07,109.62,170712,,,A*71
$GPRMC,220442.000,A,3748.3356,N,12217.7772,W,2.40,125.41,170712,,,A*70
$GPRMC,220443.000,A,3748.3348,N,12217.7767,W,2.21,124.64,170712,,,A*7B
$GPRMC,220444.000,A,3748.3345,N,12217.7760,W,2.18,102.73,170712,,,A*7E
$GPRMC,220445.000,A,3748.3343,N,12217.7753,W,2.37,96.11,170712,,,A*4C
$GPRMC,220446.000,A,3748.3340,N,12217.7745,W,2.21,104.24,170712,,,A*70
$GPRMC,220447.000,A,3748.3334,N,12217.7740,W,2.18,118.24,170712,,,A*70
$GPRMC,220448.000,A,3748.3324,N,12217.7737,W,2.18,125.16,170712,,,A*71
$GPRMC,220449.000,A,3748.3316,N,12217.7733,W,2.06,116.45,170712,,,A*7C
$GPRMC,220450.000,A,3748.3313,N,12217.7726,W,2.36,116.07,170712,,,A*70
$GPRMC,220451.000,A,3748.3309,N,12217.7719,W,2.29,119.00,170712,,,A*70
$GPRMC,220452.000,A,3748.3303,N,12217.7713,W,2.20,124.68,170712,,,A*7A
$GPRMC,220453.000,A,3748.3300,N,12217.7708,W,2.20,128.97,170712,,,A*7E
$GPRMC,220454.000,A,3748.3303,N,12217.7698,W,2.34,127.84,170712,,,A*7A
$GPRMC,220455.000,A,3748.3304,N,12217.7687,W,2.43,132.96,170712,,,A*75
$GPRMC,220456.000,A,3748.3309,N,12217.7676,W,2.45,104.69,170712,,,A*76
$GPRMC,220457.000,A,3748.3310,N,12217.7665,W,2.48,117.86,170712,,,A*73
$GPRMC,220458.000,A,3748.3313,N,12217.7654,W,2.38,111.05,170712,,,A*77
$GPRMC,220459.000,A,3748.3307,N,12217.7646,W,2.30,127.27,170712,,,A*7D
$GPRMC,220500.000,A,3748.3303,N,12217.7637,W,2.39,131.17,170712,,,A*7F
$GPRMC,220501.000,A,3748.3298,N,12217.7631,W,1.91,121.32,170712,,,A*7C
$GPRMC,220502.000,A,3748.3297,N,12217.7623,W,2.17,103.60,170712,,,A*79
$GPRMC,220503.000,A,3748.3299,N,12217.7613,W,1.80,96.49,170712,,,A*4E
$GPRMC,220504.000,A,3748.3298,N,12217.7605,W,1.76,110.10,170712,,,A*75
$GPRMC,220505.000,A,3748.3298,N,12217.7597,W,1.90,125.34,170712,,,A*74
$GPRMC,220506.000,A,3748.3293,N,12217.7592,W,1.80,155.70,170712,,,A*7F
$GPRMC,220507.000,A,3748.3290,N,12217.7586,W,2.24,121.36,170712,,,A*74
$GPRMC,220508.000,A,3748.3283,N,12217.7585,W,1.46,149.38,170712,,,A*7D
$GPRMC,220509.000,A,3748.3275,N,12217.7583,W,2.09,154.81,170712,,,A*75
$GPRMC,220510.000,A,3748.3271,N,12217.7581,W,1.98,163.56,170712,,,A*7E
$GPRMC,220511.000,A,3748.3265,N,12217.7580,W,2.02,163.15,170712,,,A*7C
$GPRMC,220512.000,A,3748.3254,N,12217.7583,W,2.63,165.17,170712,,,A*7D
$GPRMC,220513.000,A,3748.3241,N,12217.7588,W,2.29,171.17,170712,,,A*78
$GPRMC,220514.000,A,3748.3237,N,12217.7583,W,2.08,164.37,170712,,,A*70
$GPRMC,220515.000,A,3748.3234,N,12217.7571,W,2.35,125.30,170712,,,A*73
$GPRMC,220516.000,A,3748.3236,N,12217.7562,W,2.18,111.24,170712,,,A*7D
$GPRMC,220517.000,A,3748.3234,N,12217.7557,W,2.06,127.12,170712,,,A*77
$GPRMC,220518.000,A,3748.3235,N,12217.7544,W,2.39,131.71,170712,,,A*75
$GPRMC,220519.000,A,3748.3231,N,12217.7538,W,2.32,145.47,170712,,,A*76
$GPRMC,220520.000,A,3748.3227,N,12217.7537,W,2.03,137.39,170712,,,A*7A
$GPRMC,220521.000,A,3748.3223,N,12217.7530,W,1.85,129.65,170712,,,A*73
$GPRMC,220522.000,A,3748.3222,N,12217.7521,W,1.89,134.86,170712,,,A*7C
$GPRMC,220523.000,A,3748.3223,N,12217.7506,W,2.33,105.73,170712,,,A*73
$GPRMC,220524.000,A,3748.3222,N,12217.7499,W,1.40,131.52,170712,,,A*71
$GPRMC,220525.000,A,3748.3222,N,12217.7491,W,1.67,144.95,170712,,,A*74
$GPRMC,220526.000,A,3748.3217,N,12217.7487,W,2.18,134.89,170712,,,A*77
$GPRMC,220527.000,A,3748.3216,N,12217.7481,W,1.22,111.31,170712,,,A*7F
$GPRMC,220528.000,A,3748.3209,N,12217.7483,W,0.95,133.67,170712,,,A*72
$GPRMC,220529.000,A,3748.3203,N,12217.7483,W,1.49,162.02,170712,,,A*7E
$GPRMC,220530.000,A,3748.3200,N,12217.7472,W,1.73,154.72,170712,,,A*70
$GPRMC,220531.000,A,3748.3195,N,12217.7454,W,2.23,130.97,170712,,,A*75
$GPRMC,220532.000,A,3748.3193,N,12217.7438,W,2.83,129.59,170712,,,A*7A
$GPRMC,220533.000,A,3748.3188,N,12217.7433,W,2.84,147.99,170712,,,A*79
$GPRMC,220534.000,A,3748.3182,N,12217.7428,W,2.86,142.29,170712,,,A*72
$GPRMC,220535.000,A,3748.3183,N,12217.7422,W,2.15,127.43,170712,,,A*7D
$GPRMC,220536.000,A,3748.3181,N,12217.7416,W,2.03,118.70,170712,,,A*70
$GPRMC,220537.000,A,3748.3170,N,12217.7420,W,1.82,174.70,170712,,,A*7A
$GPRMC,220538.000,A,3748.3169,N,12217.7419,W,2.11,188.24,170712,,,A*7C
$GPRMC,220539.000,A,3748.3167,N,12217.7414,W,1.98,198.05,170712,,,A*7E
$GPRMC,220540.000,A,3748.3163,N,12217.7416,W,2.04,200.11,170712,,,A*77
$GPRMC,220541.000,A,3748.3160,N,12217.7413,W,1.64,188.47,170712,,,A*75
$GPRMC,220542.000,A,3748.3161,N,12217.7413,W,1.40,188.95,170712,,,A*7E
$GPRMC,220543.000,A,3748.3162,N,12217.7409,W,1.58,122.94,170712,,,A*7F
$GPRMC,220544.000,A,3748.3160,N,12217.7406,W,1.02,123.87,170712,,,A*79
$GPRMC,220545.000,A,3748.3155,N,12217.7410,W,1.16,156.83,170712,,,A*7A
$GPRMC,220546.000,A,3748.3148,N,12217.7409,W,1.59,108.66,170712,,,A*76
$GPRMC,220547.000,A,3748.3139,N,12217.7403,W,1.63,124.98,170712,,,A*7D
$GPRMC,220548.000,A,3748.3136,N,12217.7388,W,1.01,126.69,170712,,,A*71
$GPRMC,220549.000,A,3748.3134,N,12217.7384,W,0.64,160.54,170712,,,A*70
$GPRMC,220550.000,A,3748.3138,N,12217.7369,W,0.77,117.22,170712,,,A*74
$GPRMC,220551.000,A,3748.3142,N,12217.7358,W,0.90,136.78,170712,,,A*7F
$GPRMC,220552.000,A,3748.3140,N,12217.7357,W,1.02,168.70,170712,,,A*78
$GPRMC,220553.000,A,3748.3141,N,12217.7348,W,0.84,151.66,170712,,,A*74
$GPRMC,220554.000,A,3748.3138,N,12217.7349,W,1.29,169.78,170712,,,A*7E
$GPRMC,220555.000,A,3748.3137,N,12217.7341,W,1.86,123.03,170712,,,A*7F
$GPRMC,220556.000,A,3748.3126,N,12217.7339,W,2.07,146.98,170712,,,A*78
$GPRMC,220557.000,A,3748.3117,N,12217.7335,W,1.68,143.47,170712,,,A*7A
$GPRMC,220558.000,A,3748.3105,N,12217.7342,W,2.05,171.78,170712,,,A*73
$GPRMC,220559.000,A,3748.3095,N,12217.7348,W,1.93,180.84,170712,,,A*71
$GPRMC,220600.000,A,3748.3091,N,12217.7345,W,1.65,164.69,170712,,,A*77
$GPRMC,220601.000,A,3748.3084,N,12217.7347,W,1.97,173.78,170712,,,A*7B
$GPRMC,220602.000,A,3748.3082,N,12217.7346,W,1.59,179.99,170712,,,A*78
$GPRMC,220603.000,A,3748.3082,N,12217.7350,W,1.67,203.77,170712,,,A*7D
$GPRMC,220604.000,A,3748.3085,N,12217.7352,W,0.94,200.54,170712,,,A*70
$GPRMC,220605.000,A,3748.3077,N,12217.7359,W,1.89,185.21,170712,,,A*76
$GPRMC,220606.000,A,3748.3068,N,12217.7365,W,2.20,202.89,170712,,,A*7A
$GPRMC,220607.000,A,3748.3059,N,12217.7372,W,2.57,201.51,170712,,,A*79
$GPRMC,220608.000,A,3748.3050,N,12217.7380,W,2.75,187.84,170712,,,A*77
$GPRMC,220609.000,A,3748.3051,N,12217.7369,W,1.42,128.55,170712,,,A*7E
$GPRMC,220610.000,A,3748.3056,N,12217.7374,W,1.03,95.62,170712,,,A*4B
$GPRMC,220611.000,A,3748.3056,N,12217.7380,W,1.19,99.14,170712,,,A*47
$GPRMC,220612.000,A,3748.3058,N,12217.7375,W,1.75,80.20,170712,,,A*45
$GPRMC,220613.000,A,3748.3060,N,12217.7367,W,1.82,50.97,170712,,,A*45
$GPRMC,220614.000,A,3748.3065,N,12217.7358,W,1.05,48.96,170712,,,A*4C
$GPRMC,220615.000,A,3748.3066,N,12217.7351,W,0.23,355.07,170712,,,A*75
$GPRMC,220616.000,A,3748.3070,N,12217.7347,W,0.36,299.09,170712,,,A*7D
$GPRMC,220617.000,A,3748.3074,N,12217.7348,W,0.62,255.00,170712,,,A*7F
$GPRMC,220618.000,A,3748.3078,N,12217.7347,W,1.29,230.54,170712,,,A*7F
$GPRMC,220619.000,A,3748.3082,N,12217.7343,W,0.34,197.10,170712,,,A*7C
$GPRMC,220620.000,A,3748.3087,N,12217.7337,W,0.82,73.23,170712,,,A*46
$GPRMC,220621.000,A,3748.3100,N,12217.7319,W,1.15,59.21,170712,,,A*40
$GPRMC,220622.000,A,3748.3108,N,12217.7306,W,0.82,83.61,170712,,,A*49
$GPRMC,220623.000,A,3748.3111,N,12217.7297,W,0.66,87.80,170712,,,A*48
$GPRMC,220624.000,A,3748.3119,N,12217.7289,W,0.77,39.58,170712,,,A*48
$GPRMC,220625.000,A,3748.3130,N,12217.7280,W,0.86,11.46,170712,,,A*40
$GPRMC,220626.000,A,3748.3145,N,12217.7256,W,1.58,56.15,170712,,,A*4D
$GPRMC,220627.000,A,3748.3148,N,12217.7247,W,1.33,50.72,170712,,,A*4B
$GPRMC,220628.000,A,3748.3153,N,12217.7237,W,1.43,42.91,170712,,,A*40
$GPRMC,220629.000,A,3748.3160,N,12217.7222,W,1.96,42.22,170712,,,A*45
$GPRMC,220630.000,A,3748.3162,N,12217.7218,W,2.13,34.53,170712,,,A*4F
$GPRMC,220631.000,A,3748.3161,N,12217.7216,W,2.53,51.02,170712,,,A*40
$GPRMC,220632.000,A,3748.3158,N,12217.7218,W,1.85,54.02,170712,,,A*4A
$GPRMC,220633.000,A,3748.3151,N,12217.7214,W,1.51,77.94,170712,,,A*49
$GPRMC,220634.000,A,3748.3148,N,12217.7208,W,1.01,66.40,170712,,,A*47
$GPRMC,220635.000,A,3748.3149,N,12217.7210,W,1.17,352.42,170712,,,A*7F
$GPRMC,220636.000,A,3748.3152,N,12217.7211,W,1.17,352.42,170712,,,E*73
$GPRMC,220637.000,A,3748.3155,N,12217.7211,W,1.17,352.42,170712,,,E*75
$GPRMC,220638.000,A,3748.3158,N,12217.7212,W,1.17,352.42,170712,,,E*74
$GPRMC,220639.000,A,3748.3161,N,12217.7212,W,1.17,352.42,170712,,,E*7F
$GPRMC,220640.000,A,3748.3165,N,12217.7213,W,1.17,352.42,170712,,,E*74
$GPRMC,220641.000,A,3748.3168,N,12217.7213,W,1.17,352.42,170712,,,E*78
$GPRMC,220642.000,A,3748.3171,N,12217.7214,W,1.17,352.42,170712,,,E*74
$GPRMC,220643.000,A,3748.3174,N,12217.7215,W,1.17,352.42,170712,,,E*71
$GPRMC,220644.000,A,3748.3177,N,12217.7215,W,1.17,352.42,170712,,,E*75
$GPRMC,220645.000,A,3748.3181,N,12217.7216,W,1.17,352.42,170712,,,E*7E
$GPRMC,220646.000,A,3748.3184,N,12217.7216,W,1.17,352.42,170712,,,E*78
$GPRMC,220647.000,A,3748.3206,N,12217.7097,W,2.19,29.81,170712,,,A*42
$GPRMC,220648.000,A,3748.3218,N,12217.7087,W,2.36,37.04,170712,,,A*4C
$GPRMC,220649.000,A,3748.3224,N,12217.7100,W,1.37,16.13,170712,,,A*4B
$GPRMC,220650.000,A,3748.3235,N,12217.7087,W,1.10,43.92,170712,,,A*41
$GPRMC,220651.000,A,3748.3250,N,12217.7089,W,0.22,343.45,170712,,,A*74
$GPRMC,220652.000,A,3748.3267,N,12217.7064,W,0.72,66.71,170712,,,A*46
$GPRMC,220653.000,A,3748.3272,N,12217.7054,W,0.97,6.28,170712,,,A*71
$GPRMC,220654.000,A,3748.3285,N,12217.7050,W,1.79,349.08,170712,,,A*71
$GPRMC,220655.000,A,3748.3292,N,12217.7053,W,2.26,350.53,170712,,,A*7A
$GPRMC,220656.000,A,3748.3307,N,12217.7046,W,2.45,25.08,170712,,,A*4A
$GPRMC,220657.000,A,3748.3326,N,12217.7025,W,2.84,52.19,170712,,,A*40
$GPRMC,220658.000,A,3748.3334,N,12217.7022,W,1.60,57.94,170712,,,A*42
$GPRMC,220659.000,A,3748.3337,N,12217.7018,W,1.60,57.94,170712,,,E*4D
$GPRMC,220700.000,A,3748.3329,N,12217.7082,W,6.71,276.80,170712,,,A*7B
$GPRMC,220701.000,A,3748.3327,N,12217.7074,W,2.23,256.30,170712,,,A*77
$GPRMC,220702.000,A,3748.3378,N,12217.6989,W,4.44,52.36,170712,,,A*43
$GPRMC,220703.000,A,3748.3409,N,12217.6958,W,6.58,55.04,170712,,,A*46
$GPRMC,220704.000,A,3748.3425,N,12217.6913,W,6.82,56.41,170712,,,A*45
$GPRMC,220705.000,A,3748.3418,N,12217.6914,W,5.75,59.05,170712,,,A*49
$GPRMC,220706.000,A,3748.3409,N,12217.6907,W,4.74,66.36,170712,,,A*44
$GPRMC,220707.000,A,3748.3398,N,12217.6922,W,2.03,39.08,170712,,,A*4C
$GPRMC,220708.000,A,3748.3402,N,12217.6918,W,2.03,39.08,170712,,,E*4A
$GPRMC,220709.000,A,3748.3407,N,12217.6913,W,2.03,39.08,170712,,,E*45
$GPRMC,220710.000,A,3748.3411,N,12217.6909,W,2.03,39.08,170712,,,E*41
$GPRMC,220711.000,A,3748.3382,N,12217.6970,W,4.19,227.23,170712,,,A*7E
$GPRMC,220712.000,A,3748.3332,N,12217.7061,W,8.00,226.81,170712,,,A*73
$GPRMC,220713.000,A,3748.3309,N,12217.7104,W,8.12,225.80,170712,,,A*79
$GPRMC,220714.000,A,3748.3298,N,12217.7117,W,6.47,228.58,170712,,,A*73
$GPRMC,220715.000,A,3748.3293,N,12217.7132,W,4.54,226.99,170712,,,A*7D
$GPRMC,220716.000,A,3748.3274,N,12217.7153,W,3.34,228.47,170712,,,A*7C
$GPRMC,220717.000,A,3748.3268,N,12217.7161,W,3.34,228.47,170712,,,E*75
$GPRMC,220718.000,A,3748.3262,N,12217.7170,W,3.34,228.47,170712,,,E*70
$GPRMC,220719.000,A,3748.3256,N,12217.7179,W,3.34,228.47,170712,,,E*7F
$GPRMC,220720.000,A,3748.3250,N,12217.7188,W,3.34,228.47,170712,,,E*7D
$GPRMC,220721.000,A,3748.3237,N,12217.7237,W,2.68,230.27,170712,,,A*79
$GPRMC,220722.000,A,3748.3210,N,12217.7254,W,2.04,213.86,170712,,,A*7A
$GPRMC,220723.000,A,3748.3205,N,12217.7258,W,2.04,213.86,170712,,,E*77
$GPRMC,220724.000,A,3748.3200,N,12217.7262,W,2.04,213.86,170712,,,E*7C
$GPRMC,220725.000,A,3748.3196,N,12217.7266,W,2.04,213.86,170712,,,E*75
$GPRMC,220726.000,A,3748.3191,N,12217.7270,W,2.04,213.86,170712,,,E*76
$GPRMC,220727.000,A,3748.3186,N,12217.7274,W,2.04,213.86,170712,,,E*75
$GPRMC,220728.000,A,3748.3170,N,12217.7237,W,1.01,251.86,170712,,,A*70
$GPRMC,220729.000,A,3748.3182,N,12217.7196,W,1.30,355.06,170712,,,A*7B
$GPRMC,220730.000,A,3748.3179,N,12217.7191,W,1.59,8.73,170712,,,A*76
$GPRMC,220731.000,A,3748.3189,N,12217.7160,W,2.90,36.76,170712,,,A*48
$GPRMC,220732.000,A,3748.3175,N,12217.7161,W,3.01,58.63,170712,,,A*4C
$GPRMC,220733.000,A,3748.3154,N,12217.7163,W,2.49,78.90,170712,,,A*4F
$GPRMC,220734.000,A,3748.3155,N,12217.7155,W,2.49,78.90,170712,,,E*48
$GPRMC,220735.000,A,3748.3156,N,12217.7146,W,2.49,78.90,170712,,,E*48
$GPRMC,220736.000,A,3748.3158,N,12217.7138,W,2.49,78.90,170712,,,E*4C
$GPRMC,220737.000,A,3748.3113,N,12217.7124,W,2.44,127.24,170712,,,A*72
$GPRMC,220738.000,A,3748.3077,N,12217.7132,W,1.30,143.04,170712,,,A*79
$GPRMC,220739.000,A,3748.3052,N,12217.7102,W,0.89,118.78,170712,,,A*7A
$GPRMC,220740.000,A,3748.3051,N,12217.7099,W,0.89,118.78,170712,,,E*70
$GPRMC,220741.000,A,3748.3050,N,12217.7096,W,0.89,118.78,170712,,,E*7F
$GPRMC,220742.000,A,3748.2989,N,12217.7147,W,1.38,278.34,170712,,,A*7F
$GPRMC,220743.000,A,3748.2990,N,12217.7152,W,1.38,278.34,170712,,,E*76
$GPRMC,220744.000,A,3748.2990,N,12217.7156,W,1.38,278.34,170712,,,E*75
$GPRMC,220745.000,A,3748.2991,N,12217.7161,W,1.38,278.34,170712,,,E*71
$GPRMC,220746.000,A,3748.2991,N,12217.7166,W,1.38,278.34,170712,,,E*75
$GPRMC,220747.000,A,3748.2992,N,12217.7171,W,1.38,278.34,170712,,,E*71
$GPRMC,220748.000,A,3748.2992,N,12217.7176,W,1.38,278.34,170712,,,E*79
$GPRMC,220749.000,A,3748.2993,N,12217.7180,W,1.38,278.34,170712,,,E*70
$GPRMC,220750.000,A,3748.2994,N,12217.7185,W,1.38,278.34,170712,,,E*7A
$GPRMC,220751.000,A,3748.2994,N,12217.7190,W,1.38,278.34,170712,,,E*7F
$GPRMC,220752.000,A,3748.2995,N,12217.7195,W,1.38,278.34,170712,,,E*78
$GPRMC,220753.000,A,3748.2995,N,12217.7199,W,1.38,278.34,170712,,,E*75
$GPRMC,220754.000,A,3748.2996,N,12217.7204,W,1.38,278.34,170712,,,E*76
$GPRMC,220755.000,A,3748.2996,N,12217.7209,W,1.38,278.34,170712,,,E*7A
$GPRMC,220756.000,A,3748.2997,N,12217.7214,W,1.38,278.34,170712,,,E*74
$GPRMC,220820.000,A,3748.2984,N,12217.6768,W,1.95,10.85,170712,,,A*42
$GPRMC,220821.000,A,3748.2991,N,12217.6781,W,2.07,47.09,170712,,,A*4E
$GPRMC,220822.000,A,3748.2940,N,12217.6824,W,0.86,70.53,170712,,,A*41
$GPRMC,220823.000,A,3748.2916,N,12217.6851,W,0.38,241.16,170712,,,A*75
$GPRMC,220824.000,A,3748.2913,N,12217.6868,W,0.23,257.29,170712,,,A*7C
$GPRMC,220825.000,A,3748.2918,N,12217.6876,W,0.13,82.52,170712,,,A*4C
$GPRMC,220826.000,A,3748.2914,N,12217.6887,W,0.63,294.08,170712,,,A*70
$GPRMC,220827.000,A,3748.2912,N,12217.6894,W,0.65,331.35,170712,,,A*73
$GPRMC,220828.000,A,3748.2904,N,12217.6903,W,0.06,53.25,170712,,,A*47
$GPRMC,220829.000,A,3748.2906,N,12217.6909,W,0.50,51.85,170712,,,A*45
$GPRMC,220830.000,A,3748.2905,N,12217.6909,W,0.47,80.84,170712,,,A*45
$GPRMC,220831.000,A,3748.2903,N,12217.6912,W,1.11,71.67,170712,,,A*49
$GPRMC,220832.000,A,3748.2899,N,12217.6916,W,0.89,130.82,170712,,,A*73
$GPRMC,220833.000,A,3748.2895,N,12217.6922,W,0.73,216.50,170712,,,A*74
$GPRMC,220834.000,A,3748.2889,N,12217.6927,W,1.11,185.98,170712,,,A*73
$GPRMC,220835.000,A,3748.2881,N,12217.6935,W,1.13,199.88,170712,,,A*77
$GPRMC,220836.000,A,3748.2875,N,12217.6945,W,0.88,218.62,170712,,,A*75
$GPRMC,220837.000,A,3748.2872,N,12217.6951,W,0.19,210.26,170712,,,A*76
$GPRMC,220838.000,A,3748.2869,N,12217.6951,W,0.59,197.28,170712,,,A*75
$GPRMC,220839.000,A,3748.2863,N,12217.6958,W,1.02,238.01,170712,,,A*75
$GPRMC,220838.000,A,3748.2861,N,12217.6957,W,0.14,304.34,170712,,,A*77
$GPRMC,220839.000,A,3748.2859,N,12217.6959,W,0.21,287.37,170712,,,A*7C
$GPRMC,220840.000,A,3748.2860,N,12217.6962,W,0.58,276.34,170712,,,A*73
$GPRMC,220841.000,A,3748.2861,N,12217.6963,W,0.29,275.59,170712,,,A*7C
$GPRMC,220842.000,A,3748.2862,N,12217.6963,W,0.44,75.16,170712,,,A*4E
$GPRMC,220843.000,A,3748.2865,N,12217.6964,W,0.50,39.92,170712,,,A*4E
$GPRMC,220844.000,A,3748.2868,N,12217.6964,W,1.07,60.67,170712,,,A*41
$GPRMC,220845.000,A,3748.2866,N,12217.6972,W,0.53,13.89,170712,,,A*4D
$GPRMC,220846.000,A,3748.2867,N,12217.6977,W,0.28,277.95,170712,,,A*7B
$GPRMC,220847.000,A,3748.2871,N,12217.6982,W,0.38,239.42,170712,,,A*76
$GPRMC,220848.000,A,3748.2872,N,12217.6986,W,0.97,257.62,170712,,,A*71
$GPRMC,220849.000,A,3748.2875,N,12217.6985,W,0.44,301.63,170712,,,A*79
$GPRMC,220850.000,A,3748.2876,N,12217.6985,W,0.36,260.59,170712,,,A*78
$GPRMC,220851.000,A,3748.2877,N,12217.6985,W,0.34,257.46,170712,,,A*70
$GPRMC,220852.000,A,3748.2877,N,12217.6986,W,0.34,257.46,170712,,,E*74
$GPRMC,220853.000,A,3748.2881,N,12217.7011,W,3.17,296.13,170712,,,A*71
$GPRMC,220854.000,A,3748.2886,N,12217.7021,W,1.79,286.54,170712,,,A*7A
$GPRMC,220855.000,A,3748.2890,N,12217.7023,W,0.84,280.22,170712,,,A*7A
$GPRMC,220856.000,A,3748.2899,N,12217.7012,W,0.46,5.14,170712,,,A*76
$GPRMC,220857.000,A,3748.2899,N,12217.6989,W,0.04,310.78,170712,,,A*76
$GPRMC,220858.000,A,3748.2900,N,12217.6986,W,0.19,156.36,170712,,,A*71
$GPRMC,220859.000,A,3748.2898,N,12217.6989,W,0.43,98.54,170712,,,A*47
$GPRMC,220900.000,A,3748.2895,N,12217.6986,W,0.59,237.21,170712,,,A*76
$GPRMC,220901.000,A,3748.2892,N,12217.6978,W,0.32,275.96,170712,,,A*76
$GPRMC,220902.000,A,3748.2889,N,12217.6974,W,0.64,208.87,170712,,,A*7A
$GPRMC,220903.000,A,3748.2881,N,12217.6980,W,0.68,224.17,170712,,,A*73
$GPRMC,220904.000,A,3748.2876,N,12217.6989,W,0.70,262.75,170712,,,A*7A
$GPRMC,220905.000,A,3748.2871,N,12217.6995,W,1.32,241.23,170712,,,A*74
$GPRMC,220906.000,A,3748.2868,N,12217.6997,W,0.55,239.14,170712,,,A*76
$GPRMC,220907.000,A,3748.2868,N,12217.6998,W,0.98,238.46,170712,,,A*7F
$GPRMC,220908.000,A,3748.2871,N,12217.6995,W,0.46,352.36,170712,,,A*7C
$GPRMC,220909.000,A,3748.2873,N,12217.6987,W,1.18,60.17,170712,,,A*47
$GPRMC,220910.000,A,3748.2876,N,12217.6982,W,0.89,49.94,170712,,,A*46
$GPRMC,220911.000,A,3748.2875,N,12217.6988,W,0.68,337.82,170712,,,A*7C
$GPRMC,220912.000,A,3748.2867,N,12217.6997,W,0.55,278.35,170712,,,A*7A
$GPRMC,220913.000,A,3748.2865,N,12217.6999,W,0.26,209.08,170712,,,A*7B
$GPRMC,220914.000,A,3748.2862,N,12217.6997,W,0.52,196.48,170712,,,A*77
$GPRMC,220915.000,A,3748.2857,N,12217.7000,W,0.44,222.82,170712,,,A*7B
$GPRMC,220916.000,A,3748.2853,N,12217.7005,W,0.53,254.16,170712,,,A*73
$GPRMC,220917.000,A,3748.2851,N,12217.7012,W,0.87,243.95,170712,,,A*72
$GPRMC,220918.000,A,3748.2852,N,12217.7014,W,1.34,272.24,170712,,,A*79
$GPRMC,220919.000,A,3748.2844,N,12217.7016,W,0.74,262.91,170712,,,A*77
$GPRMC,220920.000,A,3748.2839,N,12217.7019,W,1.16,251.38,170712,,,A*7E
$GPRMC,220921.000,A,3748.2839,N,12217.7018,W,0.76,224.26,170712,,,A*74
$GPRMC,220922.000,A,3748.2841,N,12217.7017,W,0.89,227.99,170712,,,A*70
$GPRMC,220923.000,A,3748.2849,N,12217.7010,W,0.17,185.49,170712,,,A*7F
$GPRMC,220924.000,A,3748.2864,N,12217.7001,W,1.38,33.33,170712,,,A*4A
$GPRMC,220925.000,A,3748.2877,N,12217.6994,W,1.48,41.06,170712,,,A*49
$GPRMC,220926.000,A,3748.2888,N,12217.6990,W,1.24,37.90,170712,,,A*4A
$GPRMC,220927.000,A,3748.2892,N,12217.6978,W,0.96,40.43,170712,,,A*40
$GPRMC,220928.000,A,3748.2897,N,12217.6967,W,0.33,36.33,170712,,,A*4D
$GPRMC,220929.000,A,3748.2898,N,12217.6959,W,0.26,119.08,170712,,,A*7E
$GPRMC,220930.000,A,3748.2898,N,12217.6953,W,0.70,203.09,170712,,,A*76
$GPRMC,220931.000,A,3748.2898,N,12217.6946,W,0.27,261.82,170712,,,A*76
$GPRMC,220932.000,A,3748.2906,N,12217.6940,W,0.36,21.68,170712,,,A*47
$GPRMC,220933.000,A,3748.2914,N,12217.6937,W,0.61,12.45,170712,,,A*48
$GPRMC,220934.000,A,3748.2913,N,12217.6942,W,0.27,344.74,170712,,,A*7A
$GPRMC,220935.000,A,3748.2902,N,12217.6944,W,0.70,166.85,170712,,,A*73
$GPRMC,220936.000,A,3748.2889,N,12217.6952,W,1.00,197.16,170712,,,A*77
$GPRMC,220937.000,A,3748.2875,N,12217.6964,W,1.17,190.08,170712,,,A*7E
$GPRMC,220938.000,A,3748.2868,N,12217.6966,W,1.22,209.78,170712,,,A*7D
$GPRMC,220939.000,A,3748.2862,N,12217.6966,W,1.01,234.79,170712,,,A*78
$GPRMC,220940.000,A,3748.2857,N,12217.6968,W,1.24,256.26,170712,,,A*77
$GPRMC,220941.000,A,3748.2856,N,12217.6966,W,1.21,281.07,170712,,,A*75
$GPRMC,220942.000,A,3748.2856,N,12217.6971,W,1.42,272.13,170712,,,A*7C
$GPRMC,220943.000,A,3748.2858,N,12217.6971,W,0.98,265.91,170712,,,A*79
$GPRMC,220944.000,A,3748.2858,N,12217.6969,W,1.24,243.11,170712,,,A*7D
$GPRMC,220945.000,A,3748.2870,N,12217.6962,W,0.78,323.24,170712,,,A*74
$GPRMC,220946.000,A,3748.2879,N,12217.6968,W,1.01,317.92,170712,,,A*71
$GPRMC,220947.000,A,3748.2885,N,12217.6964,W,0.65,299.59,170712,,,A*7C
$GPRMC,220948.000,A,3748.2889,N,12217.6961,W,0.79,294.94,170712,,,A*7B
$GPRMC,220949.000,A,3748.2889,N,12217.6958,W,0.50,325.36,170712,,,A*78
$GPRMC,220950.000,A,3748.2887,N,12217.6953,W,0.38,314.79,170712,,,A*72
$GPRMC,220951.000,A,3748.2885,N,12217.6949,W,0.52,88.99,170712,,,A*4E
$GPRMC,220952.000,A,3748.2882,N,12217.6960,W,0.50,262.86,170712,,,A*7B
$GPRMC,220953.000,A,3748.2882,N,12217.6957,W,0.40,327.04,170712,,,A*75
$GPRMC,220954.000,A,3748.2874,N,12217.6952,W,1.25,179.43,170712,,,A*76
$GPRMC,220955.000,A,3748.2858,N,12217.6946,W,1.37,198.27,170712,,,A*72
$GPRMC,220956.000,A,3748.2846,N,12217.6942,W,0.70,200.08,170712,,,A*77
$GPRMC,220957.000,A,3748.2841,N,12217.6947,W,0.96,224.47,170712,,,A*71
$GPRMC,220958.000,A,3748.2836,N,12217.6949,W,0.78,150.95,170712,,,A*7F
$GPRMC,220959.000,A,3748.2833,N,12217.6954,W,0.34,100.42,170712,,,A*70
$GPRMC,221000.000,A,3748.2832,N,12217.6955,W,0.45,310.54,170712,,,A*76
$GPRMC,221001.000,A,3748.2830,N,12217.6954,W,0.93,266.58,170712,,,A*73
$GPRMC,221002.000,A,3748.2828,N,12217.6953,W,0.31,252.89,170712,,,A*7D
$GPRMC,221003.000,A,3748.2832,N,12217.6953,W,0.14,345.22,170712,,,A*76
$GPRMC,221004.000,A,3748.2835,N,12217.6949,W,0.13,311.79,170712,,,A*75
$GPRMC,221005.000,A,3748.2836,N,12217.6951,W,0.09,155.02,170712,,,A*7B
$GPRMC,221006.000,A,3748.2834,N,12217.6953,W,0.65,166.27,170712,,,A*75
$GPRMC,221007.000,A,3748.2828,N,12217.6959,W,0.82,209.20,170712,,,A*77
$GPRMC,221008.000,A,3748.2824,N,12217.6962,W,0.37,240.60,170712,,,A*7B
$GPRMC,221009.000,A,3748.2826,N,12217.6961,W,0.38,67.32,170712,,,A*44
$GPRMC,221010.000,A,3748.2830,N,12217.6961,W,0.67,12.14,170712,,,A*47
$GPRMC,221011.000,A,3748.2839,N,12217.6953,W,0.79,23.67,170712,,,A*47
$GPRMC,221012.000,A,3748.2848,N,12217.6946,W,0.69,24.63,170712,,,A*44
$GPRMC,221013.000,A,3748.2849,N,12217.6944,W,0.24,346.74,170712,,,A*7E
$GPRMC,221014.000,A,3748.2852,N,12217.6944,W,0.95,335.18,170712,,,A*77
$GPRMC,221015.000,A,3748.2852,N,12217.6949,W,1.31,328.19,170712,,,A*79
$GPRMC,221016.000,A,3748.2851,N,12217.6945,W,0.21,229.65,170712,,,A*7E
$GPRMC,221017.000,A,3748.2851,N,12217.6947,W,0.84,209.51,170712,,,A*77
$GPRMC,221018.000,A,3748.2849,N,12217.6950,W,0.98,197.81,170712,,,A*73
$GPRMC,221019.000,A,3748.2848,N,12217.6948,W,0.97,142.53,170712,,,A*72
$GPRMC,221020.000,A,3748.2851,N,12217.6947,W,0.69,106.51,170712,,,A*7C
$GPRMC,221021.000,A,3748.2856,N,12217.6954,W,0.60,346.97,170712,,,A*7D
$GPRMC,221022.000,A,3748.2860,N,12217.6958,W,0.61,346.17,170712,,,A*7E
$GPRMC,221023.000,A,3748.2861,N,12217.6958,W,0.61,346.17,170712,,,E*7A
$GPRMC,221024.000,A,3748.2855,N,12217.6972,W,2.43,247.08,170712,,,A*7A
$GPRMC,221025.000,A,3748.2849,N,12217.6968,W,1.40,203.59,170712,,,A*79
$GPRMC,221026.000,A,3748.2846,N,12217.6956,W,0.82,187.55,170712,,,A*74
$GPRMC,221027.000,A,3748.2848,N,12217.6944,W,1.06,178.34,170712,,,A*72
$GPRMC,221028.000,A,3748.2849,N,12217.6938,W,0.35,96.92,170712,,,A*4B
$GPRMC,221029.000,A,3748.2839,N,12217.6939,W,0.47,141.83,170712,,,A*72
$GPRMC,221030.000,A,3748.2840,N,12217.6934,W,0.59,117.58,170712,,,A*73
$GPRMC,221031.000,A,3748.2840,N,12217.6933,W,0.65,247.91,170712,,,A*79
$GPRMC,221032.000,A,3748.2841,N,12217.6942,W,1.74,250.23,170712,,,A*73
$GPRMC,221033.000,A,3748.2839,N,12217.6950,W,2.08,252.74,170712,,,A*76
$GPRMC,221034.000,A,3748.2837,N,12217.6956,W,1.05,245.73,170712,,,A*76
$GPRMC,221035.000,A,3748.2838,N,12217.6959,W,0.75,251.77,170712,,,A*70
$GPRMC,221036.000,A,3748.2837,N,12217.6965,W,0.76,263.04,170712,,,A*75
$GPRMC,221037.000,A,3748.2830,N,12217.6972,W,0.34,185.40,170712,,,A*78
$GPRMC,221038.000,A,3748.2825,N,12217.6983,W,0.42,201.61,170712,,,A*70
$GPRMC,221039.000,A,3748.2827,N,12217.6992,W,0.47,220.42,170712,,,A*74
$GPRMC,221040.000,A,3748.2832,N,12217.6990,W,0.27,54.50,170712,,,A*48
$GPRMC,221041.000,A,3748.2838,N,12217.6993,W,0.36,55.93,170712,,,A*4E
$GPRMC,221042.000,A,3748.2837,N,12217.7004,W,0.53,206.03,170712,,,D*7F
$GPRMC,221043.000,A,3748.2839,N,12217.7005,W,1.06,261.85,170712,,,D*7F
$GPRMC,221044.000,A,3748.2847,N,12217.6999,W,0.37,343.36,170712,,,D*76
$GPRMC,221045.000,A,3748.2853,N,12217.6996,W,0.91,23.70,170712,,,D*46
$GPRMC,221046.000,A,3748.2857,N,12217.6994,W,1.27,41.85,170712,,,D*41
$GPRMC,221047.000,A,3748.2862,N,12217.6988,W,0.90,35.58,170712,,,D*45
$GPRMC,221048.000,A,3748.2869,N,12217.6984,W,1.00,343.89,170712,,,D*7B
$GPRMC,221049.000,A,3748.2873,N,12217.6982,W,0.88,295.49,170712,,,D*70
$GPRMC,221050.000,A,3748.2875,N,12217.6979,W,0.15,273.58,170712,,,D*76
$GPRMC,221051.000,A,3748.2872,N,12217.6976,W,0.83,239.32,170712,,,D*72
$GPRMC,221052.000,A,3748.2865,N,12217.6971,W,0.51,129.66,170712,,,D*7C
$GPRMC,221053.000,A,3748.2866,N,12217.6965,W,0.81,50.23,170712,,,D*48
$GPRMC,221054.000,A,3748.2862,N,12217.6964,W,0.28,46.17,170712,,,D*49
$GPRMC,221055.000,A,3748.2857,N,12217.6967,W,0.29,28.55,170712,,,D*42
$GPRMC,221056.000,A,3748.2861,N,12217.6969,W,0.27,242.78,170712,,,D*75
$GPRMC,221057.000,A,3748.2861,N,12217.6969,W,0.02,167.06,170712,,,D*7E
$GPRMC,221058.000,A,3748.2862,N,12217.6965,W,0.39,352.66,170712,,,D*74
$GPRMC,221059.000,A,3748.2858,N,12217.6966,W,0.06,236.69,170712,,,A*7A
$GPRMC,221100.000,A,3748.2857,N,12217.6970,W,0.50,190.27,170712,,,A*79
$GPRMC,221101.000,A,3748.2852,N,12217.6975,W,0.51,241.85,170712,,,A*7E
$GPRMC,221102.000,A,3748.2855,N,12217.6978,W,0.91,271.97,170712,,,A*7B
$GPRMC,221103.000,A,3748.2856,N,12217.6978,W,0.30,233.81,170712,,,A*73
$GPRMC,221104.000,A,3748.2854,N,12217.6971,W,0.68,143.21,170712,,,A*7C
$GPRMC,221105.000,A,3748.2845,N,12217.6980,W,2.23,221.23,170712,,,A*7B
$GPRMC,221106.000,A,3748.2836,N,12217.6987,W,2.64,217.09,170712,,,A*75
$GPRMC,221107.000,A,3748.2834,N,12217.6997,W,2.21,233.44,170712,,,A*79
$GPRMC,221108.000,A,3748.2832,N,12217.6996,W,1.28,212.95,170712,,,A*74
$GPRMC,221109.000,A,3748.2832,N,12217.6991,W,1.00,198.94,170712,,,A*78
$GPRMC,221110.000,A,3748.2836,N,12217.6975,W,1.57,76.83,170712,,,A*4B
$GPRMC,221111.000,A,3748.2845,N,12217.6956,W,2.33,52.81,170712,,,A*4A
$GPRMC,221112.000,A,3748.2850,N,12217.6949,W,2.15,28.85,170712,,,A*4E
$GPRMC,221113.000,A,3748.2851,N,12217.6949,W,1.93,4.75,170712,,,A*72
$GPRMC,221114.000,A,3748.2848,N,12217.6941,W,1.55,45.37,170712,,,A*4C
$GPRMC,221115.000,A,3748.2845,N,12217.6940,W,0.89,72.13,170712,,,A*43
$GPRMC,221116.000,A,3748.2846,N,12217.6933,W,1.16,42.20,170712,,,A*43
$GPRMC,221117.000,A,3748.2846,N,12217.6933,W,1.15,36.34,170712,,,A*47
$GPRMC,221118.000,A,3748.2856,N,12217.6923,W,1.34,44.52,170712,,,A*4E
$GPRMC,221119.000,A,3748.2859,N,12217.6924,W,1.59,19.33,170712,,,A*43
$GPRMC,221120.000,A,3748.2861,N,12217.6931,W,1.93,356.01,170712,,,A*79
$GPRMC,221121.000,A,3748.2866,N,12217.6931,W,1.93,356.01,170712,,,E*7B
$GPRMC,221122.000,A,3748.2872,N,12217.6932,W,1.93,356.01,170712,,,E*7E
$GPRMC,221123.000,A,3748.2877,N,12217.6932,W,1.93,356.01,170712,,,E*7A
$GPRMC,221124.000,A,3748.2848,N,12217.6988,W,3.38,262.24,170712,,,A*76
$GPRMC,221125.000,A,3748.2823,N,12217.7002,W,3.20,261.39,170712,,,A*76
$GPRMC,221126.000,A,3748.2824,N,12217.7026,W,4.19,270.30,170712,,,A*70
$GPRMC,221127.000,A,3748.2829,N,12217.7051,W,6.52,265.35,170712,,,A*70
$GPRMC,221128.000,A,3748.2829,N,12217.7076,W,7.18,260.38,170712,,,A*7D
$GPRMC,221129.000,A,3748.2836,N,12217.7107,W,8.70,268.54,170712,,,A*76
$GPRMC,221130.000,A,3748.2850,N,12217.7163,W,13.23,276.31,170712,,,A*4C
$GPRMC,221131.000,A,3748.2888,N,12217.7227,W,17.95,284.76,170712,,,A*4C
$GPRMC,221132.000,A,3748.2921,N,12217.7315,W,22.59,287.46,170712,,,A*4B
$GPRMC,221133.000,A,3748.2951,N,12217.7387,W,23.59,287.91,170712,,,A*4D
$GPRMC,221134.000,A,3748.2986,N,12217.7466,W,25.24,289.17,170712,,,A*44
$GPRMC,221135.000,A,3748.3022,N,12217.7559,W,27.45,290.07,170712,,,A*42
$GPRMC,221136.000,A,3748.3057,N,12217.7655,W,28.40,291.52,170712,,,A*47
$GPRMC,221137.000,A,3748.3181,N,12217.7734,W,30.54,302.67,170712,,,A*4B
$GPRMC,221138.000,A,3748.3252,N,12217.7815,W,30.29,305.52,170712,,,A*4E
$GPRMC,221139.000,A,3748.3276,N,12217.7904,W,29.91,301.14,170712,,,A*45
$GPRMC,221140.000,A,3748.3320,N,12217.7995,W,30.82,298.61,170712,,,A*48
$GPRMC,221141.000,A,3748.3378,N,12217.8077,W,32.41,299.47,170712,,,A*46
$GPRMC,221142.000,A,3748.3428,N,12217.8178,W,34.25,299.09,170712,,,A*47
$GPRMC,221143.000,A,3748.3479,N,12217.8297,W,36.17,297.58,170712,,,A*49
$GPRMC,221144.000,A,3748.3528,N,12217.8414,W,37.26,296.58,170712,,,A*44
$GPRMC,221145.000,A,3748.3557,N,12217.8580,W,39.76,293.81,170712,,,A*4B
$GPRMC,221146.000,A,3748.3591,N,12217.8714,W,41.15,293.18,170712,,,A*47
$GPRMC,221147.000,A,3748.3621,N,12217.8853,W,41.59,290.77,170712,,,A*40
$GPRMC,221148.000,A,3748.3658,N,12217.8988,W,41.06,290.19,170712,,,A*44
$GPRMC,221149.000,A,3748.3700,N,12217.9115,W,40.50,290.48,170712,,,A*42
$GPRMC,221150.000,A,3748.3742,N,12217.9248,W,40.45,290.77,170712,,,A*4F
$GPRMC,221151.000,A,3748.3781,N,12217.9382,W,40.56,291.28,170712,,,A*4F
$GPRMC,221152.000,A,3748.3809,N,12217.9523,W,40.34,287.81,170712,,,A*4E
$GPRMC,221153.000,A,3748.3831,N,12217.9660,W,39.99,286.07,170712,,,A*46
$GPRMC,221154.000,A,3748.3861,N,12217.9788,W,40.00,285.21,170712,,,A*4A
$GPRMC,221155.000,A,3748.3886,N,12217.9931,W,40.95,284.60,170712,,,A*46
$GPRMC,221156.000,A,3748.3911,N,12218.0070,W,40.69,285.18,170712,,,A*4D
$GPRMC,221157.000,A,3748.3931,N,12218.0213,W,41.12,284.53,170712,,,A*4A
$GPRMC,221158.000,A,3748.3961,N,12218.0354,W,41.76,285.29,170712,,,A*4C
$GPRMC,221159.000,A,3748.3993,N,12218.0496,W,41.60,285.11,170712,,,A*45
$GPRMC,221200.000,A,3748.4026,N,12218.0639,W,41.63,286.39,170712,,,A*47
$GPRMC,221201.000,A,3748.4067,N,12218.0779,W,42.36,287.34,170712,,,A*49
$GPRMC,221202.000,A,3748.4102,N,12218.0924,W,41.99,287.25,170712,,,A*48
$GPRMC,221203.000,A,3748.4140,N,12218.1072,W,41.65,288.31,170712,,,A*4D
$GPRMC,221204.000,A,3748.4174,N,12218.1211,W,40.56,287.37,170712,,,A*42
$GPRMC,221205.000,A,3748.4208,N,12218.1354,W,40.31,288.45,170712,,,A*40
$GPRMC,221206.000,A,3748.4238,N,12218.1494,W,41.12,287.56,170712,,,A*46
$GPRMC,221207.000,A,3748.4261,N,12218.1638,W,42.00,285.46,170712,,,A*4C
$GPRMC,221208.000,A,3748.4285,N,12218.1789,W,43.51,284.32,170712,,,A*45
$GPRMC,221209.000,A,3748.4316,N,12218.1937,W,44.53,284.33,170712,,,A*40
$GPRMC,221210.000,A,3748.4354,N,12218.2083,W,45.14,285.33,170712,,,A*48
$GPRMC,221211.000,A,3748.4387,N,12218.2241,W,46.09,284.98,170712,,,A*44
$GPRMC,221212.000,A,3748.4419,N,12218.2419,W,48.43,284.88,170712,,,A*4D
$GPRMC,221213.000,A,3748.4453,N,12218.2596,W,49.49,284.35,170712,,,A*49
$GPRMC,221214.000,A,3748.4486,N,12218.2779,W,50.11,284.42,170712,,,A*40
$GPRMC,221215.000,A,3748.4530,N,12218.2951,W,51.49,284.98,170712,,,A*42
$GPRMC,221216.000,A,3748.4567,N,12218.3126,W,51.51,285.06,170712,,,A*45
$GPRMC,221217.000,A,3748.4596,N,12218.3310,W,52.32,283.88,170712,,,A*4B
$GPRMC,221218.000,A,3748.4621,N,12218.3491,W,52.91,282.17,170712,,,A*4B
$GPRMC,221219.000,A,3748.4653,N,12218.3667,W,53.37,281.28,170712,,,A*46
$GPRMC,221220.000,A,3748.4689,N,12218.3842,W,53.91,280.91,170712,,,A*4D
$GPRMC,221221.000,A,3748.4781,N,12218.4030,W,56.28,285.25,170712,,,A*42
$GPRMC,221222.000,A,3748.4800,N,12218.4234,W,57.21,282.24,170712,,,A*4F
$GPRMC,221223.000,A,3748.4814,N,12218.4447,W,58.07,279.46,170712,,,A*42
$GPRMC,221224.000,A,3748.4831,N,12218.4661,W,59.15,278.46,170712,,,A*47
$GPRMC,221225.000,A,3748.4843,N,12218.4870,W,60.68,277.94,170712,,,A*4D
$GPRMC,221226.000,A,3748.4860,N,12218.5089,W,59.95,278.59,170712,,,A*46
$GPRMC,221227.000,A,3748.4870,N,12218.5305,W,59.05,278.95,170712,,,A*48
$GPRMC,221228.000,A,3748.4893,N,12218.5517,W,58.59,278.49,170712,,,A*46
$GPRMC,221229.000,A,3748.4922,N,12218.5721,W,58.36,277.51,170712,,,A*44
$GPRMC,221230.000,A,3748.4942,N,12218.5930,W,57.78,277.97,170712,,,A*4B
$GPRMC,221231.000,A,3748.4959,N,12218.6140,W,58.23,277.70,170712,,,A*44
$GPRMC,221232.000,A,3748.4980,N,12218.6339,W,57.59,277.73,170712,,,A*4E
$GPRMC,221233.000,A,3748.5000,N,12218.6545,W,58.70,277.71,170712,,,A*44
$GPRMC,221234.000,A,3748.5017,N,12218.6748,W,57.92,277.66,170712,,,A*4F
$GPRMC,221235.000,A,3748.5042,N,12218.6950,W,57.95,278.10,170712,,,A*40
$GPRMC,221236.000,A,3748.5053,N,12218.7159,W,58.96,276.97,170712,,,A*4E
$GPRMC,221237.000,A,3748.5074,N,12218.7374,W,59.58,277.31,170712,,,A*49
$GPRMC,221238.000,A,3748.5099,N,12218.7581,W,59.86,277.56,170712,,,A*4B
$GPRMC,221239.000,A,3748.5135,N,12218.7783,W,60.41,278.06,170712,,,A*46
$GPRMC,221240.000,A,3748.5166,N,12218.7994,W,60.88,277.85,170712,,,A*47
$GPRMC,221241.000,A,3748.5196,N,12218.8205,W,60.31,277.94,170712,,,A*47
$GPRMC,221242.000,A,3748.5220,N,12218.8408,W,59.05,277.69,170712,,,A*4E
$GPRMC,221243.000,A,3748.5250,N,12218.8603,W,58.05,278.25,170712,,,A*47
$GPRMC,221244.000,A,3748.5273,N,12218.8808,W,58.91,277.50,170712,,,A*44
$GPRMC,221245.000,A,3748.5289,N,12218.9018,W,59.19,276.89,170712,,,A*4C
$GPRMC,221246.000,A,3748.5309,N,12218.9215,W,58.83,277.33,170712,,,A*4B
$GPRMC,221247.000,A,3748.5329,N,12218.9422,W,58.64,277.15,170712,,,A*47
$GPRMC,221248.000,A,3748.5350,N,12218.9626,W,58.64,277.15,170712,,,E*44
$GPRMC,221249.000,A,3748.5370,N,12218.9830,W,58.64,277.15,170712,,,E*4E
$GPRMC,221250.000,A,3748.5390,N,12219.0034,W,58.64,277.15,170712,,,E*4C
$GPRMC,221251.000,A,3748.5410,N,12219.0238,W,58.64,277.15,170712,,,E*4C
$GPRMC,221252.000,A,3748.5431,N,12219.0442,W,58.64,277.15,170712,,,E*47
$GPRMC,221253.000,A,3748.5451,N,12219.0646,W,58.64,277.15,170712,,,E*46
$GPRMC,221254.000,A,3748.5471,N,12219.0850,W,58.64,277.15,170712,,,E*4A
$GPRMC,221255.000,A,3748.5492,N,12219.1054,W,58.64,277.15,170712,,,E*4B
$GPRMC,221256.000,A,3748.5512,N,12219.1258,W,58.64,277.15,170712,,,E*4F
$GPRMC,221257.000,A,3748.5532,N,12219.1462,W,58.64,277.15,170712,,,E*43
$GPRMC,221258.000,A,3748.5553,N,12219.1665,W,58.64,277.15,170712,,,E*4E
$GPRMC,221259.000,A,3748.5573,N,12219.1869,W,58.64,277.15,170712,,,E*4F
$GPRMC,221300.000,A,3748.5593,N,12219.2073,W,58.64,277.15,170712,,,E*4C
$GPRMC,221301.000,A,3748.5613,N,12219.2277,W,58.64,277.15,170712,,,E*40
$GPRMC,225451.000,A,3743.3867,N,12226.8087,W,0.74,354.92,170712,,,A*7A
$GPRMC,225452.000,A,3743.3580,N,12226.8301,W,2.45,178.28,170712,,,A*7D
$GPRMC,225453.000,A,3743.3663,N,12226.8218,W,2.88,178.38,170712,,,A*7B
$GPRMC,225454.000,A,3743.3673,N,12226.8185,W,1.84,170.36,170712,,,A*73
$GPRMC,225455.000,A,3743.3669,N,12226.8179,W,3.17,174.22,170712,,,A*73
$GPRMC,225456.000,A,3743.3673,N,12226.8175,W,2.72,195.89,170712,,,A*7B
$GPRMC,225457.000,A,3743.3592,N,12226.8233,W,2.21,200.18,170712,,,A*76
$GPRMC,225458.000,A,3743.3467,N,12226.8327,W,1.77,205.90,170712,,,A*73
$GPRMC,225459.000,A,3743.3433,N,12226.8362,W,0.58,180.83,170712,,,A*72
$GPRMC,225500.000,A,3743.3420,N,12226.8376,W,0.74,175.43,170712,,,A*70
$GPRMC,225501.000,A,3743.3407,N,12226.8387,W,1.17,185.95,170712,,,A*7A
$GPRMC,225502.000,A,3743.3399,N,12226.8387,W,2.18,190.71,170712,,,A*7B
$GPRMC,225503.000,A,3743.3390,N,12226.8391,W,2.82,196.24,170712,,,A*71
$GPRMC,225504.000,A,3743.3393,N,12226.8385,W,2.81,196.07,170712,,,A*72
$GPRMC,225505.000,A,3743.3383,N,12226.8387,W,3.23,189.37,170712,,,A*74
$GPRMC,225506.000,A,3743.3383,N,12226.8386,W,2.47,199.28,170712,,,A*7A
$GPRMC,225507.000,A,3743.3385,N,12226.8384,W,2.08,197.05,170712,,,A*75
$GPRMC,225508.000,A,3743.3375,N,12226.8389,W,1.92,204.16,170712,,,A*73
$GPRMC,225509.000,A,3743.3370,N,12226.8390,W,1.44,185.15,170712,,,A*7D
$GPRMC,225510.000,A,3743.3370,N,12226.8390,W,0.28,196.29,170712,,,A*73
$GPRMC,225511.000,A,3743.3361,N,12226.8393,W,0.26,180.02,170712,,,A*71
$GPRMC,225512.000,A,3743.3349,N,12226.8398,W,1.16,194.58,170712,,,A*7B
$GPRMC,225513.000,A,3743.3341,N,12226.8402,W,1.79,190.39,170712,,,A*7C
$GPRMC,225514.000,A,3743.3332,N,12226.8401,W,2.80,166.61,170712,,,A*7D
$GPRMC,225515.000,A,3743.3334,N,12226.8399,W,1.29,193.60,170712,,,A*77
$GPRMC,225516.000,A,3743.3341,N,12226.8400,W,1.01,268.31,170712,,,A*78
$GPRMC,225517.000,A,3743.3345,N,12226.8402,W,1.02,279.25,170712,,,A*79
$GPRMC,225518.000,A,3743.3349,N,12226.8398,W,0.87,223.75,170712,,,A*78
$GPRMC,225519.000,A,3743.3349,N,12226.8396,W,1.04,188.79,170712,,,A*73
$GPRMC,225520.000,A,3743.3352,N,12226.8394,W,0.32,231.48,170712,,,A*76
$GPRMC,225521.000,A,3743.3347,N,12226.8397,W,0.90,183.08,170712,,,A*76
$GPRMC,225522.000,A,3743.3342,N,12226.8402,W,0.54,168.14,170712,,,A*7B
$GPRMC,225523.000,A,3743.3330,N,12226.8416,W,0.75,241.24,170712,,,A*72
$GPRMC,225524.000,A,3743.3331,N,12226.8418,W,0.45,163.11,170712,,,A*7C
$GPRMC,225525.000,A,3743.3327,N,12226.8419,W,1.01,189.01,170712,,,A*7F
$GPRMC,225526.000,A,3743.3320,N,12226.8422,W,1.73,190.48,170712,,,A*73
$GPRMC,225527.000,A,3743.3311,N,12226.8425,W,2.83,193.25,170712,,,A*73
$GPRMC,225528.000,A,3743.3306,N,12226.8431,W,2.42,205.60,170712,,,A*7F
$GPRMC,225529.000,A,3743.3307,N,12226.8434,W,2.69,193.38,170712,,,A*72
$GPRMC,225530.000,A,3743.3316,N,12226.8428,W,2.61,189.85,170712,,,A*72
$GPRMC,225531.000,A,3743.3319,N,12226.8425,W,2.18,185.40,170712,,,A*7A
$GPRMC,225532.000,A,3743.3318,N,12226.8425,W,2.55,204.25,170712,,,A*78
$GPRMC,225533.000,A,3743.3325,N,12226.8420,W,1.54,177.20,170712,,,A*72
$GPRMC,225534.000,A,3743.3323,N,12226.8418,W,1.22,161.76,170712,,,A*7D
$GPRMC,225535.000,A,3743.3325,N,12226.8416,W,1.03,165.99,170712,,,A*72
$GPRMC,225536.000,A,3743.3314,N,12226.8423,W,0.91,183.73,170712,,,A*73
$GPRMC,225537.000,A,3743.3311,N,12226.8425,W,1.06,167.28,170712,,,A*7A
$GPRMC,225538.000,A,3743.3308,N,12226.8422,W,1.27,149.28,170712,,,A*75
$GPRMC,225539.000,A,3743.3307,N,12226.8418,W,1.98,106.84,170712,,,A*7B
$GPRMC,225540.000,A,3743.3304,N,12226.8414,W,1.39,134.77,170712,,,A*7C
$GPRMC,225541.000,A,3743.3296,N,12226.8417,W,1.86,184.94,170712,,,A*76
$GPRMC,225542.000,A,3743.3287,N,12226.8421,W,2.84,200.64,170712,,,A*71
$GPRMC,225543.000,A,3743.3278,N,12226.8425,W,2.37,194.11,170712,,,A*70
$GPRMC,225544.000,A,3743.3277,N,12226.8420,W,1.59,173.81,170712,,,A*76
$GPRMC,225545.000,A,3743.3283,N,12226.8406,W,1.49,103.33,170712,,,A*77
$GPRMC,225546.000,A,3743.3282,N,12226.8400,W,1.49,103.33,170712,,,E*77
$GPRMC,225547.000,A,3743.3281,N,12226.8395,W,1.49,103.33,170712,,,E*7E
$GPRMC,225548.000,A,3743.3299,N,12226.8365,W,4.30,66.79,170712,,,A*44
$GPRMC,225549.000,A,3743.3327,N,12226.8329,W,7.24,51.14,170712,,,A*40
$GPRMC,225550.000,A,3743.3339,N,12226.8309,W,7.24,51.14,170712,,,E*41
$GPRMC,225551.000,A,3743.3352,N,12226.8289,W,7.24,51.14,170712,,,E*44
$GPRMC,225552.000,A,3743.3365,N,12226.8270,W,7.24,51.14,170712,,,E*45
$GPRMC,225553.000,A,3743.3377,N,12226.8250,W,7.24,51.14,170712,,,E*45
$GPRMC,225554.000,A,3743.3390,N,12226.8230,W,7.24,51.14,170712,,,E*4D
$GPRMC,225555.000,A,3743.3402,N,12226.8210,W,7.24,51.14,170712,,,E*42
$GPRMC,225556.000,A,3743.3415,N,12226.8191,W,7.24,51.14,170712,,,E*4D
