$ADVER,3080,2.3
$GPRMC,215204.718,A,3748.5456,N,12217.8603,W,0.15,327.38,170712,,,A*79
$GPGGA,215205.718,3748.5456,N,12217.8604,W,1,03,1.5,25.1,M,-25.1,M,,0000*5C
$GPGSA,A,2,15,04,28,,,,,,,,,,1.8,1.5,1.0*35
$GPRMC,215205.718,A,3748.5456,N,12217.8604,W,0.10,330.11,170712,,,A*77
$GPVTG,330.11,T,,M,0.10,N,0.2,K,N*01
$GPGGA,215206.718,3748.5456,N,12217.8604,W,1,03,1.5,25.1,M,-25.1,M,,0000*5F
$GPGSA,A,2,15,04,28,,,,,,,,,,1.8,1.5,1.0*35
$GPGSV,3,1,10,28,51,052,33,15,32,275,35,04,18,162,31,17,81,068,36*7E
$GPGSV,3,2,10,27,38,315,33,26,36,222,36,09,22,315,30,01,17,048,25*77
$GPGSV,3,3,10,11,04,038,,48,00,000,36*7E
$GPRMC,215206.718,A,3748.5456,N,12217.8604,W,0.11,326.71,170712,,,A*74
$GPVTG,326.71,T,,M,0.11,N,0.2,K,N*01
$GPGGA,215207.718,3748.5456,N,12217.8604,W,1,03,1.5,25.1,M,-25.1,M,,0000*5E
$GPGSA,A,2,15,04,28,,,,,,,,,,1.8,1.5,1.0*35
$GPRMC,215207.718,A,3748.5456,N,12217.8604,W,0.17,320.00,170712,,,A*73
$GPVTG,320.00,T,,M,0.17,N,0.3,K,N*06
$GPGGA,215208.718,3748.5456,N,12217.8605,W,1,03,1.5,25.1,M,-25.1,M,,0000*50
$GPGSA,A,2,15,04,28,,,,,,,,,,1.8,1.5,1.0*35
$GPRMC,215208.718,A,3748.5456,N,12217.8605,W,0.11,281.25,170712,,,A*76
$GPVTG,281.25,T,,M,0.11,N,0.2,K,N*0C
$GPGGA,215209.718,3748.5438,N,12217.8603,W,1,03,1.5,25.1,M,-25.1,M,,0000*5F
$GPGSA,A,2,15,04,28,,,,,,,,,,1.8,1.5,1.0*35
$GPRMC,215209.718,A,3748.5438,N,12217.8603,W,0.85,25.48,170712,,,A*43
$GPVTG,25.48,T,,M,0.85,N,1.6,K,N*33
$GPGGA,215210.718,3748.5501,N,12217.8569,W,1,03,1.5,25.1,M,-25.1,M,,0000*53
$GPGSA,A,2,15,04,28,,,,,,,,,,1.8,1.5,1.0*35
$GPRMC,215210.718,A,3748.5501,N,12217.8569,W,0.35,348.54,170712,,,A*71
$GPVTG,348.54,T,,M,0.35,N,0.6,K,N*0C
$GPGGA,215211.718,3748.5557,N,12217.8602,W,1,03,1.5,25.1,M,-25.1,M,,0000*5F
$GPGSA,A,2,15,04,28,,,,,,,,,,1.8,1.5,1.0*35
$GPGSV,3,1,09,28,51,052,28,15,32,275,29,04,18,162,19,17,81,068,33*7E
$GPGSV,3,2,09,27,38,315,28,26,36,222,25,09,22,315,32,01,17,048,25*75
$GPGSV,3,3,09,11,04,038,*4F
$GPRMC,215211.718,A,3748.5557,N,12217.8602,W,0.69,136.78,170712,,,A*71
$GPVTG,136.78,T,,M,0.69,N,1.3,K,N*04
$GPGGA,215212.718,3748.5534,N,12217.8598,W,1,03,1.5,25.1,M,-25.1,M,,0000*59
$GPGSA,A,2,15,04,28,,,,,,,,,,1.8,1.5,1.0*35
$GPRMC,215212.718,A,3748.5534,N,12217.8598,W,1.06,347.47,170712,,,A*77
$GPVTG,347.47,T,,M,1.06,N,2.0,K,N*04
$GPGGA,215213.718,3748.5494,N,12217.8612,W,1,03,1.5,25.1,M,-25.1,M,,0000*52
$GPGSA,A,2,15,04,28,,,,,,,,,,1.8,1.5,1.0*35
$GPRMC,215213.718,A,3748.5494,N,12217.8612,W,1.09,312.04,170712,,,A*74
$GPVTG,312.04,T,,M,1.09,N,2.0,K,N*0C
$GPGGA,215214.718,3748.5501,N,12217.8532,W,1,03,1.5,25.1,M,-25.1,M,,0000*59
$GPGSA,A,2,15,04,28,,,,,,,,,,1.8,1.5,1.0*35
$GPRMC,215214.718,A,3748.5501,N,12217.8532,W,1.23,287.97,170712,,,A*70
$GPVTG,287.97,T,,M,1.23,N,2.3,K,N*00
$GPGGA,215215.718,3748.5522,N,12217.8544,W,1,03,1.5,25.1,M,-25.1,M,,0000*58
$GPGSA,A,2,15,04,28,,,,,,,,,,1.8,1.5,1.0*35
$GPRMC,215215.718,A,3748.5522,N,12217.8544,W,1.20,306.80,170712,,,A*7C
$GPVTG,306.80,T,,M,1.20,N,2.2,K,N*0C
$GPGGA,215216.718,3748.5470,N,12217.8555,W,1,03,1.5,25.1,M,-25.1,M,,0000*5D
$GPGSA,A,2,15,04,28,,,,,,,,,,1.8,1.5,1.0*35
$GPGSV,3,1,09,28,51,052,16,15,32,275,21,04,18,162,19,17,81,068,20*79
$GPGSV,3,2,09,27,38,315,21,26,36,222,24,09,22,315,27,01,17,048,24*78
$GPGSV,3,3,09,11,04,038,*4F
$GPRMC,215216.718,A,3748.5470,N,12217.8555,W,1.07,58.59,170712,,,A*40
$GPGGA,215217.718,3748.5497,N,12217.8599,W,1,03,1.5,25.1,M,-25.1,M,,0000*55
$GPGSA,A,2,15,04,28,,,,,,,,,,1.8,1.5,1.0*35
$GPRMC,215217.718,A,3748.5497,N,12217.8599,W,1.65,41.50,170712,,,A*4D
$GPVTG,41.50,T,,M,1.65,N,3.1,K,N*32
$GPGGA,215218.718,3748.5506,N,12217.8567,W,1,03,1.5,25.1,M,-25.1,M,,0000*52
$GPGSA,A,2,15,04,28,,,,,,,,,,1.8,1.5,1.0*35
$GPRMC,215218.718,A,3748.5506,N,12217.8567,W,1.93,357.69,170712,,,A*7D
$GPVTG,357.69,T,,M,1.93,N,3.6,K,N*02
$GPGGA,215219.718,3748.5478,N,12217.8548,W,1,03,1.5,25.1,M,-25.1,M,,0000*56
$GPGSA,A,2,15,04,28,,,,,,,,,,1.8,1.5,1.0*35
$GPRMC,215219.718,A,3748.5478,N,12217.8548,W,1.06,228.12,170712,,,A*70
$GPVTG,228.12,T,,M,1.06,N,2.0,K,N*0C
$GPGGA,215220.718,3748.5433,N,12217.8569,W,1,03,1.5,25.1,M,-25.1,M,,0000*50
$GPGSA,A,2,15,04,28,,,,,,,,,,1.8,1.5,1.0*35
$GPRMC,215220.718,A,3748.5433,N,12217.8569,W,1.12,208.96,170712,,,A*7D
$GPVTG,208.96,T,,M,1.12,N,2.1,K,N*06
$GPGGA,215221.718,3748.5458,N,12217.8634,W,1,03,1.5,25.1,M,-25.1,M,,0000*57
$GPGSA,A,2,15,04,28,,,,,,,,,,1.8,1.5,1.0*35
$GPGSV,3,1,09,28,51,052,29,15,32,275,25,04,18,162,19,17,81,068,16*74
$GPGSV,3,2,09,27,38,315,21,26,36,222,23,09,22,315,21,01,17,048,24*79
$GPGSV,3,3,09,11,04,038,*4F
$GPRMC,215221.718,A,3748.5458,N,12217.8634,W,0.37,38.06,170712,,,A*44
$GPVTG,38.06,T,,M,0.37,N,0.7,K,N*3C
$GPGGA,215222.718,3748.5440,N,12217.8612,W,1,04,1.7,45.4,M,-25.1,M,,0000*5F
$GPGSA,A,3,15,09,04,28,,,,,,,,,4.3,1.7,4.0*34
$GPRMC,215222.718,A,3748.5440,N,12217.8612,W,1.78,188.95,170712,,,A*70
$GPVTG,188.95,T,,M,1.78,N,3.3,K,A*0E
$GPGGA,215223.718,3748.5450,N,12217.8602,W,1,04,1.7,25.3,M,-25.1,M,,0000*5F
$GPGSA,A,3,15,09,04,28,,,,,,,,,4.3,1.7,4.0*34
$GPRMC,215223.718,A,3748.5450,N,12217.8602,W,0.80,220.65,170712,,,A*79
$GPVTG,220.65,T,,M,0.80,N,1.5,K,A*02
$GPGGA,215224.718,3748.5438,N,12217.8605,W,1,04,1.7,6.0,M,-25.1,M,,0000*63
$GPGSA,A,3,15,09,04,28,,,,,,,,,4.3,1.7,4.0*34
$GPRMC,215224.718,A,3748.5438,N,12217.8605,W,0.22,229.11,170712,,,A*75
$GPVTG,229.11,T,,M,0.22,N,0.4,K,A*00
$GPGGA,215225.000,3748.5431,N,12217.8607,W,1,04,1.7,4.3,M,-25.1,M,,0000*66
$GPGSA,A,3,15,09,04,28,,,,,,,,,4.3,1.7,4.0*34
$GPRMC,215225.000,A,3748.5431,N,12217.8607,W,0.14,95.31,170712,,,A*43
$GPVTG,95.31,T,,M,0.14,N,0.3,K,A*35
$GPGGA,215226.000,3748.5419,N,12217.8625,W,1,04,1.7,10.1,M,-25.1,M,,0000*58
$GPGSA,A,3,15,09,04,28,,,,,,,,,4.3,1.7,4.0*34
$GPGSV,3,1,09,28,50,053,20,15,32,275,27,09,22,315,19,04,18,162,18*7E
$GPGSV,3,2,09,17,81,067,17,27,38,315,21,26,36,222,21,01,17,048,25*7F
$GPGSV,3,3,09,11,04,038,*4F
$GPVTG,182.00,T,,M,0.91,N,1.7,K,A*08
$GPGGA,215227.000,3748.5410,N,12217.8628,W,1,04,1.7,17.4,M,-25.1,M,,0000*5F
$GPGSA,A,3,15,09,04,28,,,,,,,,,4.3,1.7,4.0*34
$GPRMC,215227.000,A,3748.5410,N,12217.8628,W,0.62,197.78,170712,,,A*70
$GPVTG,197.78,T,,M,0.62,N,1.1,K,A*09
$GPGGA,215228.000,3748.5397,N,12217.8633,W,1,04,1.7,24.9,M,-25.1,M,,0000*5F
$GPGSA,A,3,15,09,04,28,,,,,,,,,4.3,1.7,4.0*34
$GPRMC,215228.000,A,3748.5397,N,12217.8633,W,0.28,129.62,170712,,,A*7D
$GPVTG,129.62,T,,M,0.28,N,0.5,K,A*0C
$GPGGA,215229.000,3748.5396,N,12217.8634,W,1,03,3.0,27.8,M,-25.1,M,,0000*58
$GPGSA,A,2,15,09,04,,,,,,,,,,3.1,3.0,1.0*3A
$GPRMC,215229.000,A,3748.5396,N,12217.8634,W,1.37,42.94,170712,,,A*40
$GPVTG,42.94,T,,M,1.37,N,2.5,K,A*34
$GPGGA,215230.000,3748.5390,N,12217.8638,W,1,03,2.9,33.4,M,-25.1,M,,0000*5B
$GPGSA,A,2,15,09,04,,,,,,,,,,3.1,2.9,1.0*32
$GPRMC,215230.000,A,3748.5390,N,12217.8638,W,1.78,49.21,170712,,,A*4C
$GPVTG,49.21,T,,M,1.78,N,3.3,K,A*3D
$GPGGA,215231.000,3748.5385,N,12217.8636,W,1,03,2.9,37.4,M,-25.1,M,,0000*54
$GPGSA,A,2,15,09,04,,,,,,,,,,3.1,2.9,1.0*32
$GPGSV,3,1,09,28,50,053,16,15,32,275,26,09,22,315,18,04,18,162,17*74
$GPGSV,3,2,09,17,81,067,18,27,38,315,22,26,36,222,18,01,17,048,25*79
$GPGSV,3,3,09,11,04,038,*4F
$GPRMC,215231.000,A,3748.5385,N,12217.8636,W,2.19,54.94,170712,,,A*41
$GPVTG,54.94,T,,M,2.19,N,4.1,K,A*3E
$GPGGA,215232.000,3748.5384,N,12217.8632,W,1,03,2.9,40.5,M,-25.1,M,,0000*53
$GPGSA,A,2,15,09,04,,,,,,,,,,3.1,2.9,1.0*32
$GPRMC,215232.000,A,3748.5384,N,12217.8632,W,3.29,47.70,170712,,,A*4D
$GPVTG,47.70,T,,M,3.29,N,6.1,K,A*36
$GPGGA,215233.000,3748.5390,N,12217.8626,W,1,03,2.9,42.6,M,-25.1,M,,0000*53
$GPGSA,A,2,15,09,04,,,,,,,,,,3.1,2.9,1.0*32
$GPRMC,215233.000,A,3748.5390,N,12217.8626,W,4.05,47.39,170712,,,A*48
$GPVTG,47.39,T,,M,4.05,N,7.5,K,A*37
$GPGGA,215234.000,3748.5399,N,12217.8624,W,1,03,2.9,45.2,M,-25.1,M,,0000*5C
$GPGSA,A,2,15,09,04,,,,,,,,,,3.1,2.9,1.0*32
$GPRMC,215234.000,A,3748.5399,N,12217.8624,W,4.44,28.22,170712,,,A*42
$GPVTG,28.22,T,,M,4.44,N,8.2,K,A*39
$GPGGA,215235.000,3748.5407,N,12217.8611,W,1,04,1.7,49.0,M,-25.1,M,,0000*5F
$GPGSA,A,3,15,09,04,28,,,,,,,,,4.3,1.7,4.0*34
$GPRMC,215235.000,A,3748.5407,N,12217.8611,W,4.03,28.76,170712,,,A*47
$GPVTG,28.76,T,,M,4.03,N,7.5,K,A*33
$GPGGA,215236.000,3748.5413,N,12217.8603,W,1,04,1.7,55.0,M,-25.1,M,,0000*57
$GPGSA,A,3,15,09,04,28,,,,,,,,,4.3,1.7,4.0*34
$GPGSV,3,1,09,28,50,053,26,15,32,275,27,09,22,315,18,04,18,162,16*77
$GPGSV,3,2,09,17,81,067,17,27,38,315,16,26,36,222,20,01,17,048,21*7E
$GPRMC,215236.000,A,3748.5413,N,12217.8603,W,3.26,32.82,170712,,,A*42
$GPVTG,32.82,T,,M,3.26,N,6.0,K,A*37
$GPGGA,215237.000,3748.5425,N,12217.8600,W,1,04,1.7,55.4,M,-25.1,M,,0000*54
$GPGSA,A,3,15,09,04,28,,,,,,,,,4.3,1.7,4.0*34
$GPRMC,215237.000,A,3748.5425,N,12217.8600,W,1.81,34.62,170712,,,A*42
$GPVTG,34.62,T,,M,1.81,N,3.4,K,A*31
$GPGGA,215238.000,3748.5431,N,12217.8603,W,1,03,1.5,57.6,M,-25.1,M,,0000*58
$GPGSA,A,2,15,04,28,,,,,,,,,,1.8,1.5,1.0*35
$GPRMC,215238.000,A,3748.5431,N,12217.8603,W,0.40,50.07,170712,,,A*46
$GPVTG,50.07,T,,M,0.40,N,0.7,K,A*3C
$GPGGA,215239.000,3748.5432,N,12217.8605,W,1,03,1.5,58.6,M,-25.1,M,,0000*53
$GPGSA,A,2,15,04,28,,,,,,,,,,1.8,1.5,1.0*35
$GPRMC,215239.000,A,3748.5432,N,12217.8605,W,0.73,203.48,170712,,,A*7D
$GPVTG,203.48,T,,M,0.73,N,1.4,K,A*01
$GPGGA,215240.000,3748.5432,N,12217.8613,W,1,03,1.5,60.0,M,-25.1,M,,0000*57
$GPGSA,A,2,15,04,28,,,,,,,,,,1.8,1.5,1.0*35
$GPRMC,215240.000,A,3748.5432,N,12217.8613,W,0.88,255.99,170712,,,A*7F
$GPVTG,255.99,T,,M,0.88,N,1.6,K,A*08
$GPGGA,215241.000,3748.5438,N,12217.8618,W,1,04,1.7,57.7,M,-25.1,M,,0000*51
$GPGSA,A,3,15,09,04,28,,,,,,,,,4.3,1.7,4.0*34
$GPGSV,3,1,09,28,50,053,25,15,32,275,21,09,22,315,18,04,18,162,22*75
$GPGSV,3,2,09,17,81,067,17,27,38,315,17,26,36,222,25,01,17,048,20*7B
$GPGSV,3,3,09,11,04,038,17*49
$GPRMC,215241.000,A,3748.5438,N,12217.8618,W,1.05,215.55,170712,,,A*7F
$GPVTG,215.55,T,,M,1.05,N,1.9,K,A*07
$GPGGA,215242.000,3748.5435,N,12217.8625,W,1,03,1.5,58.5,M,-25.1,M,,0000*59
$GPGSA,A,2,15,04,28,,,,,,,,,,1.8,1.5,1.0*35
$GPRMC,215242.000,A,3748.5435,N,12217.8625,W,0.91,200.17,170712,,,A*71
$GPVTG,200.17,T,,M,0.91,N,1.7,K,A*07
$GPGGA,215243.000,3748.5438,N,12217.8628,W,1,03,1.5,59.8,M,-25.1,M,,0000*54
$GPGSA,A,2,15,04,28,,,,,,,,,,1.8,1.5,1.0*35
$GPRMC,215243.000,A,3748.5438,N,12217.8628,W,0.84,198.34,170712,,,A*77
$GPVTG,198.34,T,,M,0.84,N,1.5,K,A*02
$GPGGA,215244.000,3748.5438,N,12217.8636,W,1,03,1.5,61.0,M,-25.1,M,,0000*5F
$GPGSA,A,2,15,04,28,,,,,,,,,,1.8,1.5,1.0*35
$GPRMC,215244.000,A,3748.5438,N,12217.8636,W,0.60,209.88,170712,,,A*79
$GPVTG,209.88,T,,M,0.60,N,1.1,K,A*00
$GPGGA,215245.000,3748.5445,N,12217.8638,W,1,03,1.5,62.5,M,-25.1,M,,0000*5C
$GPGSA,A,2,15,04,28,,,,,,,,,,1.8,1.5,1.0*35
$GPRMC,215245.000,A,3748.5445,N,12217.8638,W,0.58,322.13,170712,,,A*7D
$GPVTG,322.13,T,,M,0.58,N,1.1,K,A*01
$GPGGA,215246.000,3748.5454,N,12217.8634,W,1,03,1.5,63.8,M,-25.1,M,,0000*5F
$GPGSA,A,2,15,04,28,,,,,,,,,,1.8,1.5,1.0*35
$GPGSV,3,1,09,28,50,053,20,15,32,275,23,09,22,315,19,04,18,162,23*72
$GPGSV,3,2,09,17,81,067,23,27,38,315,25,26,36,222,19,01,17,048,20*72
$GPGSV,3,3,09,11,04,038,16*48
$GPRMC,215246.000,A,3748.5454,N,12217.8634,W,0.68,11.97,170712,,,A*4E
$GPVTG,11.97,T,,M,0.68,N,1.3,K,A*3F
$GPGGA,215247.000,3748.5460,N,12217.8631,W,1,04,1.7,63.4,M,-25.1,M,,0000*55
$GPGSA,A,3,15,09,04,28,,,,,,,,,4.4,1.7,4.0*33
$GPRMC,215247.000,A,3748.5460,N,12217.8631,W,0.48,227.71,170712,,,A*70
$GPVTG,227.71,T,,M,0.48,N,0.9,K,A*09
$GPGGA,215248.000,3748.5476,N,12217.8627,W,1,04,1.7,60.5,M,-25.1,M,,0000*58
$GPGSA,A,3,15,09,04,28,,,,,,,,,4.4,1.7,4.0*33
$GPRMC,215248.000,A,3748.5476,N,12217.8627,W,0.20,358.48,170712,,,A*72
$GPVTG,358.48,T,,M,0.20,N,0.4,K,A*09
$GPGGA,215249.000,3748.5484,N,12217.8623,W,1,04,1.7,57.6,M,-25.1,M,,0000*57
$GPGSA,A,3,15,09,04,28,,,,,,,,,4.4,1.7,4.0*33
$GPRMC,215249.000,A,3748.5484,N,12217.8623,W,0.02,128.33,170712,,,A*73
$GPVTG,128.33,T,,M,0.02,N,0.0,K,A*04
$GPGGA,215250.000,3748.5485,N,12217.8625,W,1,04,1.7,57.7,M,-25.1,M,,0000*59
$GPGSA,A,3,15,09,04,28,,,,,,,,,4.4,1.7,4.0*33
$GPRMC,215250.000,A,3748.5485,N,12217.8625,W,0.56,246.85,170712,,,A*7B
$GPVTG,246.85,T,,M,0.56,N,1.0,K,A*02
$GPGGA,215251.000,3748.5493,N,12217.8625,W,1,04,1.7,55.2,M,-25.1,M,,0000*58
$GPGSA,A,3,15,09,04,28,,,,,,,,,4.4,1.7,4.0*33
$GPGSV,3,1,09,28,50,053,27,15,32,275,24,09,22,315,19,04,18,162,25*74
$GPGSV,3,2,09,17,81,067,15,27,38,315,28,26,36,222,19,01,17,048,20*7A
$GPGSV,3,3,09,11,04,038,*4F
$GPRMC,215251.000,A,3748.5493,N,12217.8625,W,0.97,241.96,170712,,,A*75
$GPVTG,241.96,T,,M,0.97,N,1.8,K,A*02
$GPGGA,215252.000,3748.5497,N,12217.8625,W,1,04,1.7,53.8,M,-25.1,M,,0000*53
$GPGSA,A,3,15,09,04,28,,,,,,,,,4.4,1.7,4.0*33
$GPRMC,215252.000,A,3748.5497,N,12217.8625,W,0.32,354.03,170712,,,A*74
$GPVTG,354.03,T,,M,0.32,N,0.6,K,A*0B
$GPGGA,215253.000,3748.5501,N,12217.8624,W,1,04,1.7,51.6,M,-25.1,M,,0000*51
$GPGSA,A,3,15,09,04,28,,,,,,,,,4.4,1.7,4.0*33
$GPRMC,215253.000,A,3748.5501,N,12217.8624,W,0.24,79.97,170712,,,A*4C
$GPVTG,79.97,T,,M,0.24,N,0.4,K,A*3F
$GPGGA,215254.000,3748.5506,N,12217.8618,W,1,04,1.7,48.8,M,-25.1,M,,0000*58
$GPGSA,A,3,15,09,04,28,,,,,,,,,4.4,1.7,4.0*33
$GPRMC,215254.000,A,3748.5506,N,12217.8618,W,0.33,98.60,170712,,,A*42
$GPVTG,98.60,T,,M,0.33,N,0.6,K,A*3C
$GPGGA,215255.000,3748.5505,N,12217.8616,W,1,04,1.7,48.2,M,-25.1,M,,0000*5E
$GPGSA,A,3,15,09,04,28,,,,,,,,,4.4,1.7,4.0*33
$GPRMC,215255.000,A,3748.5505,N,12217.8616,W,0.26,116.13,170712,,,A*79
$GPVTG,116.13,T,,M,0.26,N,0.5,K,A*08
$GPGGA,215256.000,3748.5501,N,12217.8611,W,1,03,2.9,47.2,M,-25.1,M,,0000*5B
$GPGSA,A,2,15,09,04,,,,,,,,,,3.1,2.9,1.0*32
$GPGSV,3,1,09,28,50,053,24,15,32,275,24,09,22,315,19,04,18,162,25*77
$GPGSV,3,2,09,17,81,067,21,27,38,315,24,26,36,222,19,01,17,048,21*70
$GPGSV,3,3,09,11,04,038,*4F
$GPRMC,215256.000,A,3748.5501,N,12217.8611,W,0.23,243.91,170712,,,A*75
$GPVTG,243.91,T,,M,0.23,N,0.4,K,N*0A
$GPGGA,215257.000,3748.5501,N,12217.8614,W,1,03,2.7,46.2,M,-25.1,M,,0000*50
$GPGSA,A,2,15,09,28,,,,,,,,,,2.9,2.7,1.0*3B
$GPRMC,215257.000,A,3748.5501,N,12217.8614,W,0.96,223.07,170712,,,A*76
$GPVTG,223.07,T,,M,0.96,N,1.8,K,N*00
$GPGGA,215258.000,3748.5501,N,12217.8616,W,1,04,1.7,42.8,M,-25.1,M,,0000*57
$GPGSA,A,3,15,09,04,28,,,,,,,,,4.4,1.7,4.0*33
$GPRMC,215258.000,A,3748.5501,N,12217.8616,W,1.21,181.56,170712,,,A*79
$GPVTG,181.56,T,,M,1.21,N,2.2,K,A*04
$GPGGA,215259.000,3748.5505,N,12217.8603,W,1,04,1.7,39.7,M,-25.1,M,,0000*55
$GPGSA,A,3,15,09,04,28,,,,,,,,,4.4,1.7,4.0*33
$GPRMC,215259.000,A,3748.5505,N,12217.8603,W,0.33,91.46,170712,,,A*4B
$GPVTG,91.46,T,,M,0.33,N,0.6,K,A*31
$GPGGA,215300.000,3748.5509,N,12217.8598,W,1,04,1.7,34.0,M,-25.1,M,,0000*5F
$GPGSA,A,3,15,09,04,28,,,,,,,,,4.4,1.7,4.0*33
$GPRMC,215300.000,A,3748.5509,N,12217.8598,W,0.55,21.42,170712,,,A*44
$GPVTG,21.42,T,,M,0.55,N,1.0,K,A*39
$GPGGA,215301.000,3748.5505,N,12217.8604,W,1,04,1.7,31.2,M,-25.1,M,,0000*53
$GPGSA,A,3,15,09,04,28,,,,,,,,,4.4,1.7,4.0*33
$GPGSV,3,1,09,28,50,053,22,15,32,275,25,09,22,315,19,04,18,162,23*76
$GPGSV,3,2,09,17,81,067,22,27,38,315,23,26,36,222,25,01,17,048,26*7C
$GPGSV,3,3,09,11,04,038,15*4B
$GPVTG,300.73,T,,M,0.83,N,1.5,K,A*05
$GPGGA,215302.000,3748.5507,N,12217.8603,W,1,03,2.9,28.7,M,-25.1,M,,0000*52
$GPGSA,A,2,15,09,04,,,,,,,,,,3.1,2.9,1.0*32
$GPRMC,215302.000,A,3748.5507,N,12217.8603,W,0.70,193.18,170712,,,A*79
$GPVTG,193.18,T,,M,0.70,N,1.3,K,A*0A
$GPGGA,215303.000,3748.5508,N,12217.8606,W,1,03,2.9,27.6,M,-25.1,M,,0000*57
$GPGSA,A,2,15,09,04,,,,,,,,,,3.1,2.9,1.0*32
$GPRMC,215303.000,A,3748.5508,N,12217.8606,W,1.35,260.93,170712,,,A*7E
$GPVTG,260.93,T,,M,1.35,N,2.5,K,A*03
$GPGGA,215304.000,3748.5508,N,12217.8608,W,1,03,2.9,26.0,M,-25.1,M,,0000*59
$GPGSA,A,2,15,09,04,,,,,,,,,,3.1,2.9,1.0*32
$GPRMC,215304.000,A,3748.5508,N,12217.8608,W,1.67,275.70,170712,,,A*79
$GPVTG,275.70,T,,M,1.67,N,3.1,K,A*08
$GPGGA,215305.000,3748.5501,N,12217.8616,W,1,04,1.7,22.6,M,-25.1,M,,0000*56
$GPGSA,A,3,15,09,04,28,,,,,,,,,4.4,1.7,4.0*33
$GPRMC,215305.000,A,3748.5501,N,12217.8616,W,1.93,233.07,170712,,,A*77
$GPVTG,233.07,T,,M,1.93,N,3.6,K,A*06
$GPGGA,215306.000,3748.5501,N,12217.8605,W,1,04,1.7,20.8,M,-25.1,M,,0000*5B
$GPGSA,A,3,15,09,04,28,,,,,,,,,4.4,1.7,4.0*33
$GPGSV,3,1,09,28,50,053,25,15,32,275,22,09,22,315,19,04,18,162,23*76
$GPGSV,3,2,09,17,81,067,20,27,38,315,23,26,36,222,23,01,17,048,24*7A
$GPGSV,3,3,09,11,04,038,15*4B
$GPRMC,215306.000,A,3748.5501,N,12217.8605,W,0.06,45.54,170712,,,A*4E
$GPVTG,45.54,T,,M,0.06,N,0.1,K,A*3A
$GPGGA,215307.000,3748.5501,N,12217.8605,W,1,04,1.7,17.7,M,-25.1,M,,0000*51
$GPGSA,A,3,15,09,04,28,,,,,,,,,4.4,1.7,4.0*33
$GPRMC,215307.000,A,3748.5501,N,12217.8605,W,0.24,204.65,170712,,,A*7A
$GPVTG,204.65,T,,M,0.24,N,0.4,K,A*0A
$GPGGA,215308.000,3748.5507,N,12217.8595,W,1,04,1.7,13.6,M,-25.1,M,,0000*57
$GPGSA,A,3,15,09,04,28,,,,,,,,,4.4,1.7,4.0*33
$GPRMC,215308.000,A,3748.5507,N,12217.8595,W,0.75,54.67,170712,,,A*48
$GPVTG,54.67,T,,M,0.75,N,1.4,K,A*3A
$GPGGA,215309.000,3748.5509,N,12217.8588,W,1,04,1.7,10.7,M,-25.1,M,,0000*56
$GPGSA,A,3,15,09,04,28,,,,,,,,,4.4,1.7,4.0*33
$GPRMC,215309.000,A,3748.5509,N,12217.8588,W,0.52,31.76,170712,,,A*4D
$GPVTG,31.76,T,,M,0.52,N,1.0,K,A*38
$GPGGA,215310.000,3748.5511,N,12217.8583,W,1,04,1.7,8.8,M,-25.1,M,,0000*6A
$GPGSA,A,3,15,09,04,28,,,,,,,,,4.4,1.7,4.0*33
$GPRMC,215310.000,A,3748.5511,N,12217.8583,W,0.35,345.54,170712,,,A*76
$GPVTG,345.54,T,,M,0.35,N,0.6,K,A*0E
$GPGGA,215311.000,3748.5514,N,12217.8582,W,1,04,1.7,6.9,M,-25.1,M,,0000*60
$GPGSA,A,3,15,09,04,28,,,,,,,,,4.4,1.7,4.0*33
$GPGSV,3,1,10,28,50,053,23,15,32,275,22,09,22,315,25,04,18,162,19*7E
$GPGSV,3,2,10,17,81,067,20,27,38,315,13,26,36,222,24,01,17,048,26*74
$GPGSV,3,3,10,11,04,038,,51,43,156,25*71
$GPRMC,215311.000,A,3748.5514,N,12217.8582,W,0.81,8.53,170712,,,A*71
$GPVTG,8.53,T,,M,0.81,N,1.5,K,A*0E
$GPGGA,215312.000,3748.5510,N,12217.8580,W,1,04,1.7,7.2,M,-25.1,M,,0000*6F
$GPGSA,A,3,15,09,04,28,,,,,,,,,4.4,1.7,4.0*33
$GPRMC,215312.000,A,3748.5510,N,12217.8580,W,0.21,17.89,170712,,,A*47
$GPVTG,17.89,T,,M,0.21,N,0.4,K,A*3D
$GPGGA,215313.000,3748.5504,N,12217.8582,W,1,03,2.7,10.1,M,-25.1,M,,0000*58
$GPGSA,A,2,15,09,28,,,,,,,,,,2.9,2.7,1.0*3B
$GPRMC,215313.000,A,3748.5504,N,12217.8582,W,0.35,93.51,170712,,,A*4D
$GPVTG,93.51,T,,M,0.35,N,0.7,K,A*32
$GPGGA,215314.000,3748.5494,N,12217.8584,W,1,04,1.7,10.5,M,-25.1,M,,0000*51
$GPGSA,A,3,15,09,04,28,,,,,,,,,4.4,1.7,4.0*33
$GPRMC,215314.000,A,3748.5494,N,12217.8584,W,0.47,186.50,170712,,,A*75
$GPVTG,186.50,T,,M,0.47,N,0.9,K,A*0D
$GPGGA,215315.000,3748.5489,N,12217.8590,W,1,04,1.7,8.5,M,-25.1,M,,0000*60
$GPGSA,A,3,15,09,04,28,,,,,,,,,4.4,1.7,4.0*33
$GPRMC,215315.000,A,3748.5489,N,12217.8590,W,0.77,205.41,170712,,,A*76
$GPVTG,205.41,T,,M,0.77,N,1.4,K,A*0A
$GPGGA,215316.000,3748.5486,N,12217.8589,W,1,04,1.7,5.7,M,-25.1,M,,0000*6B
$GPGSA,A,3,15,09,04,28,,,,,,,,,4.4,1.7,4.1*32
$GPGSV,3,1,10,28,50,053,22,15,32,275,29,09,22,315,24,04,18,162,25*7A
$GPGSV,3,2,10,17,81,067,21,27,38,315,24,26,36,222,33,01,17,048,21*70
$GPGSV,3,3,10,11,04,038,,51,43,156,29*7D
$GPRMC,215316.000,A,3748.5486,N,12217.8589,W,1.91,134.35,170712,,,A*79
$GPVTG,134.35,T,,M,1.91,N,3.5,K,A*02
$GPGGA,215317.000,3748.5482,N,12217.8587,W,1,04,1.7,3.5,M,-25.1,M,,0000*64
$GPGSA,A,3,15,09,04,28,,,,,,,,,4.4,1.7,4.1*32
$GPRMC,215317.000,A,3748.5482,N,12217.8587,W,1.91,105.10,170712,,,A*77
$GPVTG,105.10,T,,M,1.91,N,3.5,K,A*07
$GPGGA,215318.000,3748.5479,N,12217.8587,W,1,04,1.7,3.2,M,-25.1,M,,0000*68
$GPGSA,A,3,15,09,04,28,,,,,,,,,4.4,1.7,4.1*32
$GPRMC,215318.000,A,3748.5479,N,12217.8587,W,0.69,50.10,170712,,,A*4B
$GPVTG,50.10,T,,M,0.69,N,1.3,K,A*34
$GPGGA,215319.000,3748.5477,N,12217.8591,W,1,04,1.7,5.9,M,-25.1,M,,0000*6D
$GPGSA,A,3,15,09,04,28,,,,,,,,,4.4,1.7,4.1*32
$GPRMC,215319.000,A,3748.5477,N,12217.8591,W,0.79,60.65,170712,,,A*43
$GPVTG,60.65,T,,M,0.79,N,1.5,K,A*32
$GPGGA,215320.000,3748.5477,N,12217.8592,W,1,04,1.7,7.2,M,-25.1,M,,0000*6D
$GPGSA,A,3,15,09,04,28,,,,,,,,,4.4,1.7,4.1*32
$GPRMC,215320.000,A,3748.5477,N,12217.8592,W,1.05,60.61,170712,,,A*44
$GPVTG,60.61,T,,M,1.05,N,1.9,K,A*30
$GPGGA,215321.000,3748.5482,N,12217.8588,W,1,04,1.7,8.6,M,-25.1,M,,0000*66
$GPGSA,A,3,15,09,04,28,,,,,,,,,4.4,1.7,4.1*32
$GPGSV,3,1,09,28,50,053,25,15,32,275,27,09,22,315,30,04,18,162,21*7A
$GPGSV,3,2,09,17,81,067,22,27,38,315,28,26,36,222,24,01,17,048,21*71
$GPGSV,3,3,09,11,04,038,*4F
$GPRMC,215321.000,A,3748.5482,N,12217.8588,W,0.51,72.26,170712,,,A*44
$GPVTG,72.26,T,,M,0.51,N,0.9,K,A*31
$GPGGA,215322.000,3748.5484,N,12217.8585,W,1,04,1.7,9.7,M,-25.1,M,,0000*6E
$GPGSA,A,3,15,09,04,28,,,,,,,,,4.4,1.7,4.1*32
$GPRMC,215322.000,A,3748.5484,N,12217.8585,W,0.85,103.36,170712,,,A*73
$GPVTG,103.36,T,,M,0.85,N,1.6,K,A*00
$GPGGA,215323.000,3748.5481,N,12217.8583,W,1,04,1.7,8.3,M,-25.1,M,,0000*69
$GPGSA,A,3,15,09,04,28,,,,,,,,,4.4,1.7,4.1*32
$GPRMC,215323.000,A,3748.5481,N,12217.8583,W,1.21,113.23,170712,,,A*7B
$GPVTG,113.23,T,,M,1.21,N,2.2,K,A*0D
$GPGGA,215324.000,3748.5479,N,12217.8584,W,1,04,1.7,7.0,M,-25.1,M,,0000*62
$GPGSA,A,3,15,09,04,28,,,,,,,,,4.4,1.7,4.1*32
$GPRMC,215324.000,A,3748.5479,N,12217.8584,W,1.20,128.47,170712,,,A*77
$GPVTG,128.47,T,,M,1.20,N,2.2,K,A*06
$GPGGA,215325.000,3748.5481,N,12217.8579,W,1,04,1.7,6.9,M,-25.1,M,,0000*6E
$GPGSA,A,3,15,09,04,28,,,,,,,,,4.4,1.7,4.1*32
$GPRMC,215325.000,A,3748.5481,N,12217.8579,W,1.05,63.91,170712,,,A*41
$GPVTG,63.91,T,,M,1.05,N,1.9,K,A*3C
$GPGGA,215326.000,3748.5478,N,12217.8579,W,1,04,1.7,11.4,M,-25.1,M,,0000*50
$GPGSA,A,3,15,09,04,28,,,,,,,,,4.4,1.7,4.1*32
$GPGSV,3,1,09,28,50,053,33,15,32,275,23,09,22,315,27,04,18,162,19*74
$GPGSV,3,2,09,17,81,067,27,27,38,315,28,26,36,222,20,01,17,048,28*79
$GPGSV,3,3,09,11,04,038,35*49
$GPRMC,215326.000,A,3748.5478,N,12217.8579,W,1.00,24.76,170712,,,A*4B
$GPGGA,215327.000,3748.5483,N,12217.8573,W,1,04,1.7,11.7,M,-25.1,M,,0000*5C
$GPGSA,A,3,15,09,04,28,,,,,,,,,4.4,1.7,4.1*32
$GPRMC,215327.000,A,3748.5483,N,12217.8573,W,1.44,19.99,170712,,,A*4B
$GPVTG,19.99,T,,M,1.44,N,2.7,K,A*31
$GPGGA,215328.000,3748.5492,N,12217.8574,W,1,04,1.7,12.0,M,-25.1,M,,0000*50
$GPGSA,A,3,15,09,04,28,,,,,,,,,4.4,1.7,4.1*32
$GPRMC,215328.000,A,3748.5492,N,12217.8574,W,0.64,344.29,170712,,,A*70
$GPVTG,344.29,T,,M,0.64,N,1.2,K,A*04
$GPGGA,215329.000,3748.5504,N,12217.8568,W,1,04,1.7,11.0,M,-25.1,M,,0000*51
$GPGSA,A,3,15,09,04,28,,,,,,,,,4.4,1.7,4.1*32
$GPRMC,215329.000,A,3748.5504,N,12217.8568,W,1.67,14.23,170712,,,A*4C
$GPVTG,14.23,T,,M,1.67,N,3.1,K,A*3B
$GPGGA,215330.000,3748.5512,N,12217.8565,W,1,04,1.7,10.8,M,-25.1,M,,0000*5A
$GPGSA,A,3,15,09,04,28,,,,,,,,,4.4,1.7,4.1*32
$GPRMC,215330.000,A,3748.5512,N,12217.8565,W,0.80,0.55,170712,,,A*72
$GPVTG,0.55,T,,M,0.80,N,1.5,K,A*01
$GPGGA,215331.000,3748.5518,N,12217.8564,W,1,04,1.7,11.1,M,-25.1,M,,0000*58
$GPGSA,A,3,15,09,04,28,,,,,,,,,4.4,1.7,4.1*32
$GPGSV,3,1,09,28,50,053,27,15,32,275,31,09,22,315,27,04,18,162,22*7A
$GPGSV,3,2,09,17,81,067,21,27,38,315,28,26,36,222,20,01,17,048,29*7E
$GPGSV,3,3,09,11,04,038,36*4A
$GPRMC,215331.000,A,3748.5518,N,12217.8564,W,0.05,9.47,170712,,,A*7F
$GPVTG,9.47,T,,M,0.05,N,0.1,K,A*03
$GPGGA,215332.000,3748.5523,N,12217.8564,W,1,04,1.7,11.5,M,-25.1,M,,0000*57
$GPGSA,A,3,15,09,04,28,,,,,,,,,4.4,1.7,4.1*32
$GPRMC,215332.000,A,3748.5523,N,12217.8564,W,0.23,296.67,170712,,,A*76
$GPVTG,296.67,T,,M,0.23,N,0.4,K,A*04
$GPGGA,215333.000,3748.5525,N,12217.8566,W,1,04,1.7,11.9,M,-25.1,M,,0000*5E
$GPGSA,A,3,15,09,04,28,,,,,,,,,4.4,1.7,4.1*32
$GPRMC,215333.000,A,3748.5525,N,12217.8566,W,0.30,337.01,170712,,,A*7B
$GPVTG,337.01,T,,M,0.30,N,0.6,K,A*0E
$GPGGA,215334.000,3748.5526,N,12217.8564,W,1,04,1.7,9.7,M,-25.1,M,,0000*6F
$GPGSA,A,3,15,09,04,28,,,,,,,,,4.4,1.7,4.1*32
$GPRMC,215334.000,A,3748.5526,N,12217.8564,W,0.24,348.82,170712,,,A*7B
$GPVTG,348.82,T,,M,0.24,N,0.5,K,A*0B
$GPGGA,215335.000,3748.5525,N,12217.8562,W,1,04,1.7,6.7,M,-25.1,M,,0000*64
$GPGSA,A,3,15,09,04,28,,,,,,,,,4.4,1.7,4.1*32
$GPRMC,215335.000,A,3748.5525,N,12217.8562,W,0.44,159.53,170712,,,A*77
$GPVTG,159.53,T,,M,0.44,N,0.8,K,A*0E
$GPGGA,215336.000,3748.5521,N,12217.8560,W,1,04,1.7,5.5,M,-25.1,M,,0000*60
$GPGSA,A,3,15,09,04,28,,,,,,,,,4.4,1.7,4.1*32
$GPGSV,3,1,09,28,50,053,35,15,32,275,29,09,22,315,23,04,18,162,21*77
$GPGSV,3,2,09,17,81,067,22,27,38,315,24,26,36,222,25,01,17,048,29*74
$GPRMC,215336.000,A,3748.5521,N,12217.8560,W,0.50,142.32,170712,,,A*7A
$GPVTG,142.32,T,,M,0.50,N,0.9,K,A*07
$GPGGA,215337.000,3748.5516,N,12217.8560,W,1,04,1.7,5.9,M,-25.1,M,,0000*69
$GPGSA,A,3,15,09,04,28,,,,,,,,,4.4,1.7,4.1*32
$GPRMC,215337.000,A,3748.5516,N,12217.8560,W,0.18,50.52,170712,,,A*47
$GPVTG,50.52,T,,M,0.18,N,0.3,K,A*35
$GPGGA,215338.000,3748.5512,N,12217.8560,W,1,04,1.7,7.2,M,-25.1,M,,0000*6B
$GPGSA,A,3,15,09,04,28,,,,,,,,,4.4,1.7,4.1*32
$GPRMC,215338.000,A,3748.5512,N,12217.8560,W,0.22,153.58,170712,,,A*7D
$GPVTG,153.58,T,,M,0.22,N,0.4,K,A*03
$GPGGA,215339.000,3748.5504,N,12217.8559,W,1,04,1.7,8.3,M,-25.1,M,,0000*69
$GPGSA,A,3,15,09,04,28,,,,,,,,,4.4,1.7,4.1*32
$GPRMC,215339.000,A,3748.5504,N,12217.8559,W,0.27,173.26,170712,,,A*7F
$GPVTG,173.26,T,,M,0.27,N,0.5,K,A*0C
$GPGGA,215340.000,3748.5502,N,12217.8558,W,1,04,1.7,8.1,M,-25.1,M,,0000*62
$GPGSA,A,3,15,09,04,28,,,,,,,,,4.4,1.7,4.1*32
$GPRMC,215340.000,A,3748.5502,N,12217.8558,W,0.62,166.56,170712,,,A*74
$GPVTG,166.56,T,,M,0.62,N,1.1,K,A*0B
$GPGGA,215341.000,3748.5496,N,12217.8557,W,1,04,1.7,8.6,M,-25.1,M,,0000*67
$GPGSA,A,3,15,09,04,28,,,,,,,,,4.4,1.7,4.1*32
$GPGSV,3,1,10,28,50,053,32,15,32,275,29,09,22,315,22,04,18,162,22*7A
$GPGSV,3,2,10,17,81,067,14,27,38,315,25,26,36,222,,01,17,048,23*75
$GPGSV,3,3,10,11,04,038,31,51,43,156,34*73
$GPRMC,215341.000,A,3748.5496,N,12217.8557,W,1.08,160.07,170712,,,A*79
$GPVTG,160.07,T,,M,1.08,N,2.0,K,A*06
$GPGGA,215342.000,3748.5488,N,12217.8557,W,1,04,1.7,10.3,M,-25.1,M,,0000*57
$GPGSA,A,3,15,09,04,28,,,,,,,,,4.4,1.7,4.1*32
$GPRMC,215342.000,A,3748.5488,N,12217.8557,W,0.77,152.94,170712,,,A*77
$GPVTG,152.94,T,,M,0.77,N,1.4,K,A*03
$GPGGA,215343.000,3748.5480,N,12217.8562,W,1,04,1.7,13.1,M,-25.1,M,,0000*59
$GPGSA,A,3,15,09,04,28,,,,,,,,,4.5,1.7,4.1*33
$GPRMC,215343.000,A,3748.5480,N,12217.8562,W,0.65,159.89,170712,,,A*7C
$GPVTG,159.89,T,,M,0.65,N,1.2,K,A*01
$GPGGA,215344.000,3748.5478,N,12217.8554,W,1,04,1.7,12.4,M,-25.1,M,,0000*58
$GPGSA,A,3,15,09,04,28,,,,,,,,,4.5,1.7,4.1*33
$GPRMC,215344.000,A,3748.5478,N,12217.8554,W,0.30,115.29,170712,,,A*7B
$GPVTG,115.29,T,,M,0.30,N,0.6,K,A*06
$GPGGA,215345.000,3748.5475,N,12217.8552,W,1,04,1.7,13.1,M,-25.1,M,,0000*56
$GPGSA,A,3,15,09,04,28,,,,,,,,,4.5,1.7,4.1*33
$GPRMC,215345.000,A,3748.5475,N,12217.8552,W,0.17,187.24,170712,,,A*72
$GPVTG,187.24,T,,M,0.17,N,0.3,K,A*00
$GPGGA,215346.000,3748.5477,N,12217.8553,W,1,04,1.7,13.3,M,-25.1,M,,0000*54
$GPGSA,A,3,15,09,04,28,,,,,,,,,4.5,1.7,4.1*33
$GPGSV,3,1,10,28,50,053,31,15,32,275,24,09,22,315,17,04,18,162,22*72
$GPGSV,3,2,10,17,81,067,22,27,38,315,25,26,36,222,23,01,17,048,24*76
$GPGSV,3,3,10,11,04,038,30,51,43,156,27*70
$GPRMC,215346.000,A,3748.5477,N,12217.8553,W,0.62,305.42,170712,,,A*78
$GPVTG,305.42,T,,M,0.62,N,1.1,K,A*09
$GPGGA,215347.000,3748.5479,N,12217.8560,W,1,04,1.7,14.2,M,-25.1,M,,0000*5D
$GPGSA,A,3,15,09,04,28,,,,,,,,,4.5,1.7,4.1*33
$GPRMC,215347.000,A,3748.5479,N,12217.8560,W,0.61,285.06,170712,,,A*7D
$GPVTG,285.06,T,,M,0.61,N,1.1,K,A*03
$GPGGA,215348.000,3748.5479,N,12217.8564,W,1,04,1.7,13.6,M,-25.1,M,,0000*55
$GPGSA,A,3,15,09,04,28,,,,,,,,,4.5,1.7,4.1*33
$GPRMC,215348.000,A,3748.5479,N,12217.8564,W,0.16,280.89,170712,,,A*74
$GPVTG,280.89,T,,M,0.16,N,0.3,K,A*02
$GPGGA,215349.000,3748.5484,N,12217.8566,W,1,04,1.7,14.3,M,-25.1,M,,0000*56
$GPGSA,A,3,15,09,04,28,,,,,,,,,4.5,1.7,4.1*33
$GPRMC,215349.000,A,3748.5484,N,12217.8566,W,0.79,353.53,170712,,,A*74
$GPVTG,353.53,T,,M,0.79,N,1.5,K,A*04
$GPGGA,215350.000,3748.5487,N,12217.8567,W,1,04,1.7,15.3,M,-25.1,M,,0000*5D
$GPGSA,A,3,15,09,04,28,,,,,,,,,4.5,1.7,4.1*33
$GPRMC,215350.000,A,3748.5487,N,12217.8567,W,0.32,335.61,170712,,,A*70
$GPVTG,335.61,T,,M,0.32,N,0.6,K,A*08
$GPGGA,215351.000,3748.5488,N,12217.8566,W,1,03,1.5,15.4,M,-25.1,M,,0000*50
$GPGSA,A,2,15,04,28,,,,,,,,,,1.8,1.5,1.0*35
$GPGSV,3,1,09,17,80,064,24,28,50,053,32,27,39,315,22,26,36,222,19*73
$GPGSV,3,2,09,15,32,275,28,09,23,315,,04,19,161,27,01,17,048,24*73
$GPGSV,3,3,09,11,03,038,36*4D
$GPRMC,215351.000,A,3748.5488,N,12217.8566,W,0.18,162.40,170712,,,A*74
$GPGGA,215352.000,3748.5487,N,12217.8558,W,1,03,1.5,14.1,M,-25.1,M,,0000*55
$GPGSA,A,2,15,04,28,,,,,,,,,,1.8,1.5,1.0*35
$GPRMC,215352.000,A,3748.5487,N,12217.8558,W,0.65,104.06,170712,,,A*7D
$GPVTG,104.06,T,,M,0.65,N,1.2,K,N*01
$GPGGA,215353.000,3748.5486,N,12217.8548,W,1,03,1.5,12.5,M,-25.1,M,,0000*56
$GPGSA,A,2,15,04,28,,,,,,,,,,1.8,1.5,1.0*35
$GPRMC,215353.000,A,3748.5486,N,12217.8548,W,0.72,104.88,170712,,,A*7C
$GPVTG,104.88,T,,M,0.72,N,1.3,K,N*00
$GPGGA,215354.000,3748.5485,N,12217.8541,W,1,03,1.5,11.5,M,-25.1,M,,0000*58
$GPGSA,A,2,15,04,28,,,,,,,,,,1.8,1.5,1.0*35
$GPRMC,215354.000,A,3748.5485,N,12217.8541,W,0.62,87.79,170712,,,A*44
$GPVTG,87.79,T,,M,0.62,N,1.1,K,N*37
$GPGGA,215355.000,3748.5481,N,12217.8541,W,1,04,1.7,12.4,M,-25.1,M,,0000*5A
$GPGSA,A,3,15,04,09,28,,,,,,,,,4.5,1.7,4.1*33
$GPRMC,215355.000,A,3748.5481,N,12217.8541,W,0.43,141.34,170712,,,A*70
$GPVTG,141.34,T,,M,0.43,N,0.8,K,A*01
$GPGGA,215356.000,3748.5476,N,12217.8542,W,1,04,1.7,13.5,M,-25.1,M,,0000*52
$GPGSA,A,3,15,04,09,28,,,,,,,,,4.5,1.7,4.1*33
$GPGSV,3,1,10,17,80,064,28,28,50,053,32,27,39,315,21,26,36,222,21*7F
$GPGSV,3,2,10,15,32,275,21,09,23,315,22,04,19,161,33,01,17,048,24*77
$GPGSV,3,3,10,11,03,038,33,51,43,156,30*72
$GPRMC,215356.000,A,3748.5476,N,12217.8542,W,0.11,96.84,170712,,,A*4F
$GPVTG,96.84,T,,M,0.11,N,0.2,K,A*3C
$GPGGA,215357.000,3748.5472,N,12217.8546,W,1,04,1.7,14.3,M,-25.1,M,,0000*52
$GPGSA,A,3,15,04,09,28,,,,,,,,,4.5,1.7,4.1*33
$GPRMC,215357.000,A,3748.5472,N,12217.8546,W,0.92,229.91,170712,,,A*77
$GPVTG,229.91,T,,M,0.92,N,1.7,K,A*01
$GPGGA,215358.000,3748.5471,N,12217.8550,W,1,04,1.7,13.4,M,-25.1,M,,0000*59
$GPGSA,A,3,15,04,09,28,,,,,,,,,4.5,1.7,4.1*33
$GPRMC,215358.000,A,3748.5471,N,12217.8550,W,0.67,228.57,170712,,,A*7D
$GPVTG,228.57,T,,M,0.67,N,1.2,K,A*05
$GPGGA,215359.000,3748.5473,N,12217.8552,W,1,04,1.7,13.1,M,-25.1,M,,0000*5D
$GPGSA,A,3,15,04,09,28,,,,,,,,,4.5,1.7,4.1*33
$GPRMC,215359.000,A,3748.5473,N,12217.8552,W,0.31,288.78,170712,,,A*78
$GPVTG,288.78,T,,M,0.31,N,0.6,K,A*04
$GPGGA,215400.000,3748.5475,N,12217.8553,W,1,04,1.7,11.0,M,-25.1,M,,0000*52
$GPGSA,A,3,15,04,09,28,,,,,,,,,4.5,1.7,4.1*33
$GPRMC,215400.000,A,3748.5475,N,12217.8553,W,0.42,292.83,170712,,,A*7F
$GPVTG,292.83,T,,M,0.42,N,0.8,K,A*01
$GPGGA,215401.000,3748.5475,N,12217.8555,W,1,04,1.7,10.0,M,-25.1,M,,0000*54
$GPGSA,A,3,15,04,09,28,,,,,,,,,4.5,1.7,4.1*33
$GPGSV,3,1,09,17,80,064,26,28,50,053,33,27,39,315,34,26,36,222,26*7B
$GPGSV,3,2,09,15,32,275,31,09,23,315,33,04,19,161,20,01,17,048,25*7D
$GPGSV,3,3,09,11,03,038,33*48
$GPVTG,210.84,T,,M,1.04,N,1.9,K,A*0F
$GPGGA,215402.000,3748.5471,N,12217.8560,W,1,04,1.7,9.9,M,-25.1,M,,0000*64
$GPGSA,A,3,15,04,09,28,,,,,,,,,4.5,1.7,4.1*33
$GPRMC,215402.000,A,3748.5471,N,12217.8560,W,1.72,163.56,170712,,,A*7E
$GPVTG,163.56,T,,M,1.72,N,3.2,K,A*0F
$GPGGA,215403.000,3748.5464,N,12217.8562,W,1,04,1.7,11.5,M,-25.1,M,,0000*56
$GPGSA,A,3,15,04,09,28,,,,,,,,,4.5,1.7,4.1*33
$GPRMC,215403.000,A,3748.5464,N,12217.8562,W,2.05,145.80,170712,,,A*75
$GPVTG,145.80,T,,M,2.05,N,3.8,K,A*09
$GPGGA,215404.000,3748.5461,N,12217.8562,W,1,04,1.7,13.6,M,-25.1,M,,0000*55
$GPGSA,A,3,15,04,09,28,,,,,,,,,4.5,1.7,4.1*33
$GPRMC,215404.000,A,3748.5461,N,12217.8562,W,1.83,145.16,170712,,,A*75
$GPVTG,145.16,T,,M,1.83,N,3.4,K,A*07
$GPGGA,215405.000,3748.5458,N,12217.8563,W,1,04,1.7,14.9,M,-25.1,M,,0000*57
$GPGSA,A,3,15,04,09,28,,,,,,,,,4.5,1.7,4.1*33
$GPRMC,215405.000,A,3748.5458,N,12217.8563,W,2.03,147.27,170712,,,A*74
$GPVTG,147.27,T,,M,2.03,N,3.8,K,A*00
$GPGGA,215406.000,3748.5452,N,12217.8566,W,1,04,1.7,13.6,M,-25.1,M,,0000*53
$GPGSA,A,3,15,04,09,28,,,,,,,,,4.5,1.7,4.1*33
$GPGSV,3,1,09,17,80,064,24,28,50,053,23,27,39,315,33,26,36,222,24*7D
$GPGSV,3,2,09,15,32,275,31,09,23,315,37,04,19,161,20,01,17,048,23*7F
$GPGSV,3,3,09,11,03,038,19*40
$GPRMC,215406.000,A,3748.5452,N,12217.8566,W,1.66,162.88,170712,,,A*7A
$GPVTG,162.88,T,,M,1.66,N,3.1,K,A*0B
$GPGGA,215407.000,3748.5450,N,12217.8566,W,1,04,1.7,14.3,M,-25.1,M,,0000*52
$GPGSA,A,3,15,04,09,28,,,,,,,,,4.5,1.7,4.1*33
$GPRMC,215407.000,A,3748.5450,N,12217.8566,W,1.15,146.87,170712,,,A*74
$GPVTG,146.87,T,,M,1.15,N,2.1,K,A*07
$GPGGA,215408.000,3748.5448,N,12217.8564,W,1,04,1.7,14.9,M,-25.1,M,,0000*5C
$GPGSA,A,3,15,04,09,28,,,,,,,,,4.5,1.7,4.1*33
$GPRMC,215408.000,A,3748.5448,N,12217.8564,W,1.63,155.26,170712,,,A*78
$GPVTG,155.26,T,,M,1.63,N,3.0,K,A*0F
$GPGGA,215409.000,3748.5442,N,12217.8561,W,1,04,1.7,15.1,M,-25.1,M,,0000*5B
$GPGSA,A,3,15,04,09,28,,,,,,,,,4.5,1.7,4.1*33
$GPRMC,215409.000,A,3748.5442,N,12217.8561,W,1.39,164.94,170712,,,A*72
$GPVTG,164.94,T,,M,1.39,N,2.6,K,A*0C
$GPGGA,215410.000,3748.5438,N,12217.8560,W,1,04,1.7,15.4,M,-25.1,M,,0000*5A
$GPGSA,A,3,15,04,09,28,,,,,,,,,4.5,1.7,4.2*30
$GPRMC,215410.000,A,3748.5438,N,12217.8560,W,1.16,168.34,170712,,,A*7D
$GPVTG,168.34,T,,M,1.16,N,2.1,K,A*00
$GPGGA,215411.000,3748.5432,N,12217.8558,W,1,04,1.7,15.3,M,-25.1,M,,0000*5D
$GPGSA,A,3,15,04,09,28,,,,,,,,,4.5,1.7,4.2*30
$GPGSV,3,1,09,17,80,064,27,28,50,053,31,27,39,315,33,26,36,222,23*7A
$GPGSV,3,2,09,15,32,275,31,09,23,315,36,04,19,161,23,01,17,048,31*7E
$GPGSV,3,3,09,11,03,038,13*4A
$GPRMC,215411.000,A,3748.5432,N,12217.8558,W,1.78,159.57,170712,,,A*72
$GPVTG,159.57,T,,M,1.78,N,3.3,K,A*0C
$GPGGA,215412.000,3748.5425,N,12217.8556,W,1,04,1.7,15.5,M,-25.1,M,,0000*50
$GPGSA,A,3,15,04,09,28,,,,,,,,,4.5,1.7,4.2*30
$GPRMC,215412.000,A,3748.5425,N,12217.8556,W,2.50,164.43,170712,,,A*7B
$GPVTG,164.43,T,,M,2.50,N,4.6,K,A*0C
$GPGGA,215413.000,3748.5417,N,12217.8552,W,1,04,1.7,15.2,M,-25.1,M,,0000*53
$GPGSA,A,3,15,04,09,28,,,,,,,,,4.5,1.7,4.2*30
$GPRMC,215413.000,A,3748.5417,N,12217.8552,W,2.61,153.90,170712,,,A*77
$GPVTG,153.90,T,,M,2.61,N,4.8,K,A*0A
$GPGGA,215414.000,3748.5411,N,12217.8549,W,1,04,1.7,15.7,M,-25.1,M,,0000*5D
$GPGSA,A,3,15,04,09,28,,,,,,,,,4.5,1.7,4.2*30
$GPRMC,215414.000,A,3748.5411,N,12217.8549,W,2.06,150.21,170712,,,A*74
$GPVTG,150.21,T,,M,2.06,N,3.8,K,A*05
$GPGGA,215415.000,3748.5406,N,12217.8544,W,1,04,1.7,14.7,M,-25.1,M,,0000*56
$GPGSA,A,3,15,04,09,28,,,,,,,,,4.5,1.7,4.2*30
$GPRMC,215415.000,A,3748.5406,N,12217.8544,W,1.66,143.21,170712,,,A*79
$GPVTG,143.21,T,,M,1.66,N,3.1,K,A*0B
$GPGGA,215416.000,3748.5403,N,12217.8544,W,1,04,1.7,15.4,M,-25.1,M,,0000*52
$GPGSA,A,3,15,04,09,28,,,,,,,,,4.5,1.7,4.2*30
$GPGSV,3,1,09,17,80,064,22,28,50,053,32,27,39,315,33,26,36,222,21*7E
$GPGSV,3,2,09,15,32,275,31,09,23,315,34,04,19,161,22,01,17,048,20*7D
$GPGSV,3,3,09,11,03,038,*48
$GPRMC,215416.000,A,3748.5403,N,12217.8544,W,1.66,164.00,170712,,,A*79
$GPVTG,164.00,T,,M,1.66,N,3.1,K,A*0D
$GPGGA,215417.000,3748.5401,N,12217.8544,W,1,04,1.7,15.1,M,-25.1,M,,0000*54
$GPGSA,A,3,15,04,09,28,,,,,,,,,4.5,1.7,4.2*30
$GPRMC,215417.000,A,3748.5401,N,12217.8544,W,1.15,176.15,170712,,,A*79
$GPVTG,176.15,T,,M,1.15,N,2.1,K,A*0F
$GPGGA,215418.000,3748.5401,N,12217.8543,W,1,04,1.7,16.2,M,-25.1,M,,0000*5C
$GPGSA,A,3,15,04,09,28,,,,,,,,,4.5,1.7,4.2*30
$GPRMC,215418.000,A,3748.5401,N,12217.8543,W,0.18,16.41,170712,,,A*4B
$GPVTG,16.41,T,,M,0.18,N,0.3,K,A*35
$GPGGA,215419.000,3748.5398,N,12217.8542,W,1,04,1.7,14.9,M,-25.1,M,,0000*52
$GPGSA,A,3,15,04,09,28,,,,,,,,,4.5,1.7,4.2*30
$GPRMC,215419.000,A,3748.5398,N,12217.8542,W,0.50,260.79,170712,,,A*78
$GPVTG,260.79,T,,M,0.50,N,0.9,K,A*0B
$GPGGA,215420.000,3748.5393,N,12217.8543,W,1,04,1.7,15.5,M,-25.1,M,,0000*5F
$GPGSA,A,3,15,04,09,28,,,,,,,,,4.5,1.7,4.2*30
$GPRMC,215420.000,A,3748.5393,N,12217.8543,W,0.49,251.25,170712,,,A*7B
$GPVTG,251.25,T,,M,0.49,N,0.9,K,A*08
$GPGGA,215421.000,3748.5383,N,12217.8549,W,1,04,1.7,18.1,M,-25.1,M,,0000*5C
$GPGSA,A,3,15,04,09,28,,,,,,,,,4.5,1.7,4.2*30
$GPGSV,3,1,09,17,80,063,21,28,50,054,27,27,39,315,24,26,36,222,19*74
$GPGSV,3,2,09,15,32,274,24,09,23,315,19,04,19,161,22,01,17,048,20*77
$GPGSV,3,3,09,11,03,038,*48
$GPRMC,215421.000,A,3748.5383,N,12217.8549,W,0.86,214.85,170712,,,A*79
$GPVTG,214.85,T,,M,0.86,N,1.6,K,A*0E
$GPGGA,215422.000,3748.5380,N,12217.8542,W,1,04,1.7,16.9,M,-25.1,M,,0000*51
$GPGSA,A,3,15,04,09,28,,,,,,,,,4.5,1.7,4.2*30
$GPRMC,215422.000,A,3748.5380,N,12217.8542,W,0.09,304.44,170712,,,A*78
$GPVTG,304.44,T,,M,0.09,N,0.2,K,A*01
$GPGGA,215423.000,3748.5384,N,12217.8536,W,1,04,1.7,15.4,M,-25.1,M,,0000*59
$GPGSA,A,3,15,04,09,28,,,,,,,,,4.5,1.7,4.2*30
$GPRMC,215423.000,A,3748.5384,N,12217.8536,W,0.32,310.27,170712,,,A*76
$GPVTG,310.27,T,,M,0.32,N,0.6,K,A*0D
$GPGGA,215424.000,3748.5387,N,12217.8537,W,1,03,2.7,14.7,M,-25.1,M,,0000*5A
$GPGSA,A,2,15,09,28,,,,,,,,,,2.9,2.7,1.0*3B
$GPRMC,215424.000,A,3748.5387,N,12217.8537,W,1.04,338.80,170712,,,A*70
$GPVTG,338.80,T,,M,1.04,N,1.9,K,N*0F
$GPGGA,215425.000,3748.5385,N,12217.8541,W,1,04,1.7,15.7,M,-25.1,M,,0000*5D
$GPGSA,A,3,15,04,09,28,,,,,,,,,4.5,1.7,4.2*30
$GPRMC,215425.000,A,3748.5385,N,12217.8541,W,0.58,305.82,170712,,,A*76
$GPVTG,305.82,T,,M,0.58,N,1.1,K,A*0C
$GPGGA,215426.000,3748.5388,N,12217.8543,W,1,04,1.7,16.7,M,-25.1,M,,0000*52
$GPGSA,A,3,15,04,09,28,,,,,,,,,4.5,1.7,4.2*30
$GPGSV,3,1,09,17,80,063,25,28,50,054,26,27,39,315,24,26,36,222,19*71
$GPGSV,3,2,09,15,32,274,37,09,23,315,26,04,19,161,16,01,17,048,18*75
$GPGSV,3,3,09,11,03,038,*48
$GPRMC,215426.000,A,3748.5388,N,12217.8543,W,0.39,171.55,170712,,,A*76
$GPGGA,215427.000,3748.5386,N,12217.8545,W,1,04,1.7,18.9,M,-25.1,M,,0000*5B
$GPGSA,A,3,15,04,09,28,,,,,,,,,4.5,1.7,4.2*30
$GPRMC,215427.000,A,3748.5386,N,12217.8545,W,0.92,189.68,170712,,,A*77
$GPVTG,189.68,T,,M,0.92,N,1.7,K,A*0E
$GPGGA,215428.000,3748.5385,N,12217.8541,W,1,04,1.7,20.6,M,-25.1,M,,0000*57
$GPGSA,A,3,15,04,09,28,,,,,,,,,4.5,1.7,4.2*30
$GPRMC,215428.000,A,3748.5385,N,12217.8541,W,0.47,28.25,170712,,,A*44
$GPVTG,28.25,T,,M,0.47,N,0.9,K,A*3A
$GPGGA,215429.000,3748.5385,N,12217.8543,W,1,04,1.7,22.6,M,-25.1,M,,0000*56
$GPGSA,A,3,15,04,09,28,,,,,,,,,4.5,1.7,4.2*30
$GPRMC,215429.000,A,3748.5385,N,12217.8543,W,0.77,345.29,170712,,,A*70
$GPVTG,345.29,T,,M,0.77,N,1.4,K,A*01
$GPGGA,215430.000,3748.5378,N,12217.8541,W,1,04,1.7,23.2,M,-25.1,M,,0000*5B
$GPGSA,A,3,15,04,09,28,,,,,,,,,4.5,1.7,4.2*30
$GPRMC,215430.000,A,3748.5378,N,12217.8541,W,0.36,168.22,170712,,,A*7B
$GPVTG,168.22,T,,M,0.36,N,0.7,K,A*00
$GPGGA,215431.000,3748.5375,N,12217.8539,W,1,04,1.7,23.4,M,-25.1,M,,0000*5E
$GPGSA,A,3,15,04,09,28,,,,,,,,,4.5,1.7,4.2*30
$GPGSV,3,1,10,17,80,063,20,28,50,054,25,27,39,315,21,26,36,222,26*76
$GPGSV,3,2,10,15,32,274,29,09,23,315,23,04,19,161,25,01,17,048,17*78
$GPGSV,3,3,10,11,03,038,,51,43,156,31*73
$GPRMC,215431.000,A,3748.5375,N,12217.8539,W,0.29,150.25,170712,,,A*7A
$GPVTG,150.25,T,,M,0.29,N,0.5,K,A*00
$GPGGA,215432.000,3748.5371,N,12217.8538,W,1,04,1.7,23.4,M,-25.1,M,,0000*58
$GPGSA,A,3,15,04,09,28,,,,,,,,,4.5,1.7,4.2*30
$GPRMC,215432.000,A,3748.5371,N,12217.8538,W,0.25,217.47,170712,,,A*74
$GPVTG,217.47,T,,M,0.25,N,0.5,K,A*08
$GPGGA,215433.000,3748.5373,N,12217.8530,W,1,04,1.7,19.3,M,-25.1,M,,0000*5D
$GPGSA,A,3,15,04,09,28,,,,,,,,,4.5,1.7,4.2*30
$GPRMC,215433.000,A,3748.5373,N,12217.8530,W,0.24,235.01,170712,,,A*7C
$GPVTG,235.01,T,,M,0.24,N,0.4,K,A*0A
$GPGGA,215434.000,3748.5368,N,12217.8534,W,1,04,1.7,19.0,M,-25.1,M,,0000*57
$GPGSA,A,3,15,04,09,28,,,,,,,,,4.5,1.7,4.2*30
$GPRMC,215434.000,A,3748.5368,N,12217.8534,W,0.73,240.91,170712,,,A*7C
$GPVTG,240.91,T,,M,0.73,N,1.4,K,A*02
$GPGGA,215435.000,3748.5370,N,12217.8544,W,1,04,1.7,18.6,M,-25.1,M,,0000*5F
$GPGSA,A,3,15,04,09,28,,,,,,,,,4.5,1.7,4.2*30
$GPRMC,215435.000,A,3748.5370,N,12217.8544,W,0.98,247.14,170712,,,A*7C
$GPVTG,247.14,T,,M,0.98,N,1.8,K,A*01
$GPGGA,215436.000,3748.5377,N,12217.8548,W,1,04,1.7,16.3,M,-25.1,M,,0000*5C
$GPGSA,A,3,15,04,09,28,,,,,,,,,4.5,1.7,4.2*30
$GPGSV,3,1,10,17,80,063,22,28,50,054,26,27,39,315,28,26,36,222,21*79
$GPGSV,3,2,10,15,32,274,34,09,23,315,26,04,19,161,20,01,17,048,18*7B
$GPGSV,3,3,10,11,03,038,,51,43,156,27*74
$GPRMC,215436.000,A,3748.5377,N,12217.8548,W,0.96,249.40,170712,,,A*75
$GPVTG,249.40,T,,M,0.96,N,1.8,K,A*00
$GPGGA,215437.000,3748.5380,N,12217.8546,W,1,04,1.7,16.4,M,-25.1,M,,0000*5C
$GPGSA,A,3,15,04,09,28,,,,,,,,,4.5,1.7,4.2*30
$GPRMC,215437.000,A,3748.5380,N,12217.8546,W,1.10,139.22,170712,,,A*7D
$GPVTG,139.22,T,,M,1.10,N,2.0,K,A*04
$GPGGA,215438.000,3748.5378,N,12217.8544,W,1,04,1.7,17.0,M,-25.1,M,,0000*53
$GPGSA,A,3,15,04,09,28,,,,,,,,,4.5,1.7,4.2*30
$GPRMC,215438.000,A,3748.5378,N,12217.8544,W,1.16,108.45,170712,,,A*72
$GPVTG,108.45,T,,M,1.16,N,2.1,K,A*00
$GPGGA,215439.000,3748.5380,N,12217.8542,W,1,03,1.5,18.0,M,-25.1,M,,0000*59
$GPGSA,A,2,15,04,28,,,,,,,,,,1.8,1.5,1.0*35
$GPRMC,215439.000,A,3748.5380,N,12217.8542,W,1.01,33.06,170712,,,A*4A
$GPVTG,33.06,T,,M,1.01,N,1.9,K,A*33
$GPGGA,215440.000,3748.5386,N,12217.8543,W,1,04,1.7,15.4,M,-25.1,M,,0000*5C
$GPGSA,A,3,15,04,09,28,,,,,,,,,4.6,1.7,4.2*33
$GPRMC,215440.000,A,3748.5386,N,12217.8543,W,0.52,311.94,170712,,,A*7C
$GPVTG,311.94,T,,M,0.52,N,1.0,K,A*05
$GPGGA,215441.000,3748.5387,N,12217.8547,W,1,04,1.7,14.8,M,-25.1,M,,0000*55
$GPGSA,A,3,15,04,09,28,,,,,,,,,4.6,1.7,4.2*33
$GPGSV,3,1,10,17,80,063,25,28,50,054,16,27,39,315,25,26,36,222,24*75
$GPGSV,3,2,10,15,32,274,35,09,23,315,29,04,19,161,26,01,17,048,20*78
$GPGSV,3,3,10,11,03,038,,51,43,156,27*74
$GPRMC,215441.000,A,3748.5387,N,12217.8547,W,0.58,240.14,170712,,,A*7F
$GPVTG,240.14,T,,M,0.58,N,1.1,K,A*03
$GPGGA,215442.000,3748.5388,N,12217.8549,W,1,04,1.7,13.9,M,-25.1,M,,0000*51
$GPGSA,A,3,15,04,09,28,,,,,,,,,4.6,1.7,4.2*33
$GPRMC,215442.000,A,3748.5388,N,12217.8549,W,0.41,221.29,170712,,,A*7C
$GPVTG,221.29,T,,M,0.41,N,0.8,K,A*0A
$GPGGA,215443.000,3748.5389,N,12217.8549,W,1,04,1.7,15.4,M,-25.1,M,,0000*5A
$GPGSA,A,3,15,04,09,28,,,,,,,,,4.6,1.7,4.2*33
$GPRMC,215443.000,A,3748.5389,N,12217.8549,W,0.51,126.98,170712,,,A*73
$GPVTG,126.98,T,,M,0.51,N,0.9,K,A*04
$GPGGA,215444.000,3748.5391,N,12217.8548,W,1,04,1.7,17.1,M,-25.1,M,,0000*52
$GPGSA,A,3,15,04,09,28,,,,,,,,,4.6,1.7,4.2*33
$GPRMC,215444.000,A,3748.5391,N,12217.8548,W,0.51,151.74,170712,,,A*7E
$GPVTG,151.74,T,,M,0.51,N,0.9,K,A*06
$GPGGA,215445.000,3748.5389,N,12217.8546,W,1,04,1.7,17.5,M,-25.1,M,,0000*50
$GPGSA,A,3,15,04,09,28,,,,,,,,,4.6,1.7,4.2*33
$GPRMC,215445.000,A,3748.5389,N,12217.8546,W,0.80,90.11,170712,,,A*4B
$GPVTG,90.11,T,,M,0.80,N,1.5,K,A*38
$GPGGA,215446.000,3748.5385,N,12217.8550,W,1,04,1.7,18.7,M,-25.1,M,,0000*55
$GPGSA,A,3,15,04,09,28,,,,,,,,,4.6,1.7,4.2*33
$GPGSV,3,1,10,17,80,063,22,28,50,054,22,27,39,315,17,26,36,222,23*73
$GPGSV,3,2,10,15,32,274,22,09,23,315,23,04,19,161,23,01,17,048,20*71
$GPGSV,3,3,10,11,03,038,,51,43,156,27*74
$GPRMC,215446.000,A,3748.5385,N,12217.8550,W,0.35,144.27,170712,,,A*70
$GPVTG,144.27,T,,M,0.35,N,0.6,K,A*09
$GPGGA,215447.000,3748.5385,N,12217.8549,W,1,04,1.7,17.9,M,-25.1,M,,0000*5D
$GPGSA,A,3,15,04,09,28,,,,,,,,,4.6,1.7,4.2*33
$GPRMC,215447.000,A,3748.5385,N,12217.8549,W,0.74,90.39,170712,,,A*4B
$GPVTG,90.39,T,,M,0.74,N,1.4,K,A*38
$GPGGA,215448.000,3748.5385,N,12217.8547,W,1,04,1.7,20.1,M,-25.1,M,,0000*50
$GPGSA,A,3,15,04,09,28,,,,,,,,,4.6,1.7,4.2*33
$GPRMC,215448.000,A,3748.5385,N,12217.8547,W,0.22,299.43,170712,,,A*7F
$GPVTG,299.43,T,,M,0.22,N,0.4,K,A*0C
$GPGGA,215449.000,3748.5386,N,12217.8544,W,1,04,1.7,21.9,M,-25.1,M,,0000*58
$GPGSA,A,3,15,04,09,28,,,,,,,,,4.6,1.7,4.2*33
$GPRMC,215449.000,A,3748.5386,N,12217.8544,W,1.16,48.31,170712,,,A*43
$GPVTG,48.31,T,,M,1.16,N,2.2,K,A*35
$GPGGA,215450.000,3748.5381,N,12217.8553,W,1,04,1.7,24.8,M,-25.1,M,,0000*55
$GPGSA,A,3,15,04,09,28,,,,,,,,,4.6,1.7,4.2*33
$GPRMC,215450.000,A,3748.5381,N,12217.8553,W,0.33,354.00,170712,,,A*70
$GPVTG,354.00,T,,M,0.33,N,0.6,K,A*09
$GPGGA,215451.000,3748.5372,N,12217.8564,W,1,04,1.7,27.5,M,-25.1,M,,0000*52
$GPGSA,A,3,15,04,09,28,,,,,,,,,4.6,1.7,4.2*33
$GPGSV,3,1,10,17,80,063,21,28,50,054,21,27,39,315,18,26,36,222,24*7B
$GPGSV,3,2,10,15,32,274,28,09,23,315,20,04,19,161,24,01,17,048,20*7F
$GPRMC,215451.000,A,3748.5372,N,12217.8564,W,0.86,249.99,170712,,,A*7A
$GPVTG,249.99,T,,M,0.86,N,1.6,K,A*0B
$GPGGA,215452.000,3748.5368,N,12217.8570,W,1,04,1.7,29.4,M,-25.1,M,,0000*50
$GPGSA,A,3,15,04,09,28,,,,,,,,,4.6,1.7,4.2*33
$GPRMC,215452.000,A,3748.5368,N,12217.8570,W,0.32,278.82,170712,,,A*70
$GPVTG,278.82,T,,M,0.32,N,0.6,K,A*0D
$GPGGA,215453.000,3748.5371,N,12217.8568,W,1,04,1.7,31.3,M,-25.1,M,,0000*5E
$GPGSA,A,3,15,04,09,28,,,,,,,,,4.6,1.7,4.2*33
$GPRMC,215453.000,A,3748.5371,N,12217.8568,W,0.45,324.11,170712,,,A*72
$GPVTG,324.11,T,,M,0.45,N,0.8,K,A*01
$GPGGA,215454.000,3748.5371,N,12217.8574,W,1,04,1.7,31.2,M,-25.1,M,,0000*55
$GPGSA,A,3,15,04,09,28,,,,,,,,,4.6,1.7,4.2*33
$GPRMC,215454.000,A,3748.5371,N,12217.8574,W,0.87,245.96,170712,,,A*7F
$GPVTG,245.96,T,,M,0.87,N,1.6,K,A*09
$GPGGA,215455.000,3748.5373,N,12217.8576,W,1,04,1.7,31.8,M,-25.1,M,,0000*5E
$GPGSA,A,3,15,04,09,28,,,,,,,,,4.6,1.7,4.2*33
$GPRMC,215455.000,A,3748.5373,N,12217.8576,W,1.21,240.64,170712,,,A*7B
$GPVTG,240.64,T,,M,1.21,N,2.2,K,A*0B
$GPGGA,215456.000,3748.5372,N,12217.8580,W,1,04,1.7,31.1,M,-25.1,M,,0000*5C
$GPGSA,A,3,15,04,09,28,,,,,,,,,4.6,1.7,4.2*33
$GPGSV,3,1,10,17,80,063,25,28,50,054,27,27,39,315,31,26,36,222,24*72
$GPGSV,3,2,10,15,32,274,34,09,23,315,28,04,19,161,21,01,17,048,19*75
$GPGSV,3,3,10,11,03,038,,51,43,156,24*77
$GPRMC,215456.000,A,3748.5372,N,12217.8580,W,0.64,223.86,170712,,,A*79
$GPVTG,223.86,T,,M,0.64,N,1.2,K,A*01
$GPGGA,215457.000,3748.5372,N,12217.8581,W,1,04,1.7,31.3,M,-25.1,M,,0000*5E
$GPGSA,A,3,15,04,09,28,,,,,,,,,4.6,1.7,4.2*33
$GPRMC,215457.000,A,3748.5372,N,12217.8581,W,0.99,173.22,170712,,,A*73
$GPVTG,173.22,T,,M,0.99,N,1.8,K,A*01
$GPGGA,215458.000,3748.5366,N,12217.8581,W,1,04,1.7,30.9,M,-25.1,M,,0000*5F
$GPGSA,A,3,15,04,09,28,,,,,,,,,4.6,1.7,4.2*33
$GPRMC,215458.000,A,3748.5366,N,12217.8581,W,1.12,156.77,170712,,,A*7C
$GPVTG,156.77,T,,M,1.12,N,2.1,K,A*0E
$GPGGA,215459.000,3748.5360,N,12217.8581,W,1,04,1.7,28.6,M,-25.1,M,,0000*5E
$GPGSA,A,3,15,04,09,28,,,,,,,,,4.6,1.7,4.2*33
$GPRMC,215459.000,A,3748.5360,N,12217.8581,W,1.22,189.71,170712,,,A*7C
$GPVTG,189.71,T,,M,1.22,N,2.3,K,A*0B
$GPGGA,215500.000,3748.5361,N,12217.8585,W,1,04,1.7,26.8,M,-25.1,M,,0000*56
$GPGSA,A,3,15,04,09,28,,,,,,,,,4.6,1.7,4.3*32
$GPRMC,215500.000,A,3748.5361,N,12217.8585,W,0.82,207.29,170712,,,A*77
$GPVTG,207.29,T,,M,0.82,N,1.5,K,A*0D
$GPGGA,215501.000,3748.5361,N,12217.8585,W,1,04,1.7,25.2,M,-25.1,M,,0000*5E
$GPGSA,A,3,15,04,09,28,,,,,,,,,4.6,1.7,4.3*32
$GPGSV,3,1,10,17,80,063,20,28,50,054,22,27,39,315,22,26,36,222,28*7C
$GPGSV,3,2,10,15,32,274,35,09,23,315,25,04,19,161,19,01,17,048,*7A
$GPGSV,3,3,10,11,03,038,,51,43,156,31*73
$GPRMC,215501.000,A,3748.5361,N,12217.8585,W,0.32,263.64,170712,,,A*76
$GPVTG,263.64,T,,M,0.32,N,0.6,K,A*0F
$GPGGA,215502.000,3748.5363,N,12217.8588,W,1,04,1.7,21.9,M,-25.1,M,,0000*5D
$GPGSA,A,3,15,04,09,28,,,,,,,,,4.6,1.7,4.3*32
$GPRMC,215502.000,A,3748.5363,N,12217.8588,W,0.74,317.79,170712,,,A*76
$GPVTG,317.79,T,,M,0.74,N,1.4,K,A*00
$GPGGA,215503.000,3748.5364,N,12217.8590,W,1,03,2.8,21.4,M,-25.1,M,,0000*54
$GPGSA,A,2,15,04,09,,,,,,,,,,3.0,2.8,1.0*32
$GPRMC,215503.000,A,3748.5364,N,12217.8590,W,1.20,287.94,170712,,,A*72
$GPVTG,287.94,T,,M,1.20,N,2.2,K,N*01
$GPGGA,215504.000,3748.5368,N,12217.8592,W,1,04,1.7,19.0,M,-25.1,M,,0000*59
$GPGSA,A,3,15,04,09,28,,,,,,,,,4.6,1.7,4.3*32
$GPRMC,215504.000,A,3748.5368,N,12217.8592,W,0.50,288.29,170712,,,A*74
$GPVTG,288.29,T,,M,0.50,N,0.9,K,A*08
$GPGGA,215505.000,3748.5371,N,12217.8586,W,1,04,1.7,17.2,M,-25.1,M,,0000*59
$GPGSA,A,3,15,04,09,28,,,,,,,,,4.6,1.7,4.3*32
$GPRMC,215505.000,A,3748.5371,N,12217.8586,W,0.33,195.75,170712,,,A*7B
$GPVTG,195.75,T,,M,0.33,N,0.6,K,A*04
$GPGGA,215506.000,3748.5372,N,12217.8579,W,1,04,1.7,16.1,M,-25.1,M,,0000*5B
$GPGSA,A,3,15,04,09,28,,,,,,,,,4.6,1.7,4.3*32
$GPGSV,3,1,09,17,80,063,27,28,50,054,31,27,39,315,30,26,36,222,18*71
$GPGSV,3,2,09,15,32,274,35,09,23,315,33,04,19,161,19,01,17,048,19*7D
$GPGSV,3,3,09,11,03,038,*48
$GPRMC,215506.000,A,3748.5372,N,12217.8579,W,0.35,153.37,170712,,,A*71
$GPGGA,215507.000,3748.5373,N,12217.8573,W,1,04,1.7,15.3,M,-25.1,M,,0000*50
$GPGSA,A,3,15,04,09,28,,,,,,,,,4.6,1.7,4.3*32
$GPRMC,215507.000,A,3748.5373,N,12217.8573,W,0.89,155.67,170712,,,A*7F
$GPVTG,155.67,T,,M,0.89,N,1.7,K,A*0A
$GPGGA,215508.000,3748.5373,N,12217.8568,W,1,04,1.7,14.6,M,-25.1,M,,0000*51
$GPGSA,A,3,15,04,09,28,,,,,,,,,4.6,1.7,4.3*32
$GPRMC,215508.000,A,3748.5373,N,12217.8568,W,1.19,159.85,170712,,,A*72
$GPVTG,159.85,T,,M,1.19,N,2.2,K,A*04
$GPGGA,215509.000,3748.5374,N,12217.8565,W,1,04,1.7,14.5,M,-25.1,M,,0000*59
$GPGSA,A,3,15,04,09,28,,,,,,,,,4.6,1.7,4.3*32
$GPRMC,215509.000,A,3748.5374,N,12217.8565,W,0.40,146.24,170712,,,A*71
$GPVTG,146.24,T,,M,0.40,N,0.7,K,A*0B
$GPGGA,215510.000,3748.5377,N,12217.8564,W,1,04,1.7,15.0,M,-25.1,M,,0000*57
$GPGSA,A,3,15,04,09,28,,,,,,,,,4.6,1.7,4.3*32
$GPRMC,215510.000,A,3748.5377,N,12217.8564,W,0.23,15.17,170712,,,A*49
$GPVTG,15.17,T,,M,0.23,N,0.4,K,A*3A
$GPGGA,215511.000,3748.5380,N,12217.8563,W,1,04,1.7,15.4,M,-25.1,M,,0000*5D
$GPGSA,A,3,15,04,09,28,,,,,,,,,4.6,1.7,4.3*32
$GPGSV,3,1,09,17,80,063,26,28,50,054,32,27,39,315,31,26,36,222,17*7D
$GPGSV,3,2,09,15,32,274,36,09,23,315,33,04,19,161,19,01,17,048,20*74
$GPGSV,3,3,09,11,03,038,*48
$GPRMC,215511.000,A,3748.5380,N,12217.8563,W,0.59,354.92,170712,,,A*71
$GPVTG,354.92,T,,M,0.59,N,1.1,K,A*08
$GPGGA,215512.000,3748.5383,N,12217.8562,W,1,04,1.7,15.7,M,-25.1,M,,0000*5F
$GPGSA,A,3,15,04,09,28,,,,,,,,,4.6,1.7,4.3*32
$GPRMC,215512.000,A,3748.5383,N,12217.8562,W,0.58,355.03,170712,,,A*78
$GPVTG,355.03,T,,M,0.58,N,1.1,K,A*00
$GPGGA,215513.000,3748.5383,N,12217.8560,W,1,04,1.7,15.1,M,-25.1,M,,0000*5A
$GPGSA,A,3,15,04,09,28,,,,,,,,,4.6,1.7,4.3*32
$GPRMC,215513.000,A,3748.5383,N,12217.8560,W,0.54,351.51,170712,,,A*74
$GPVTG,351.51,T,,M,0.54,N,1.0,K,A*0E
$GPGGA,215514.000,3748.5383,N,12217.8558,W,1,04,1.7,14.5,M,-25.1,M,,0000*53
$GPGSA,A,3,15,04,09,28,,,,,,,,,4.6,1.7,4.3*32
$GPRMC,215514.000,A,3748.5383,N,12217.8558,W,0.18,87.16,170712,,,A*4B
$GPVTG,87.16,T,,M,0.18,N,0.3,K,A*3F
$GPGGA,215515.000,3748.5384,N,12217.8553,W,1,04,1.7,13.9,M,-25.1,M,,0000*55
$GPGSA,A,3,15,04,09,28,,,,,,,,,4.6,1.7,4.3*32
$GPRMC,215515.000,A,3748.5384,N,12217.8553,W,1.00,82.52,170712,,,A*4B
$GPVTG,82.52,T,,M,1.00,N,1.9,K,A*39
$GPGGA,215516.000,3748.5384,N,12217.8549,W,1,04,1.7,13.2,M,-25.1,M,,0000*56
$GPGSA,A,3,15,04,09,28,,,,,,,,,4.6,1.7,4.3*32
$GPGSV,3,1,09,17,80,063,26,28,50,054,28,27,39,315,22,26,36,222,17*74
$GPGSV,3,2,09,15,32,274,24,09,23,315,21,04,19,161,23,01,17,048,17*79
$GPGSV,3,3,09,11,03,038,*48
$GPVTG,325.57,T,,M,0.18,N,0.3,K,A*01
$GPGGA,215517.000,3748.5383,N,12217.8552,W,1,04,1.7,13.7,M,-25.1,M,,0000*5F
$GPGSA,A,3,15,04,09,28,,,,,,,,,4.6,1.7,4.3*32
$GPRMC,215517.000,A,3748.5383,N,12217.8552,W,1.17,345.78,170712,,,A*79
$GPVTG,345.78,T,,M,1.17,N,2.2,K,A*07
$GPGGA,215518.000,3748.5388,N,12217.8551,W,1,04,1.7,12.5,M,-25.1,M,,0000*5B
$GPGSA,A,3,15,04,09,28,,,,,,,,,4.6,1.7,4.3*32
$GPRMC,215518.000,A,3748.5388,N,12217.8551,W,0.87,313.53,170712,,,A*7C
$GPVTG,313.53,T,,M,0.87,N,1.6,K,A*02
$GPGGA,215519.000,3748.5394,N,12217.8551,W,1,03,2.6,10.6,M,-25.1,M,,0000*53
$GPGSA,A,2,15,09,28,,,,,,,,,,2.8,2.6,1.0*3B
$GPRMC,215519.000,A,3748.5394,N,12217.8551,W,1.03,350.66,170712,,,A*7C
$GPVTG,350.66,T,,M,1.03,N,1.9,K,N*0E
$GPGGA,215520.000,3748.5397,N,12217.8551,W,6,00,50.0,10.2,M,-25.1,M,,0000*6B
$GPGSA,A,2,,,,,,,,,,,,,50.0,50.0,50.0*06
$GPRMC,215520.000,A,3748.5397,N,12217.8551,W,1.03,350.66,170712,,,E*71
$GPVTG,350.66,T,,M,1.03,N,1.9,K,N*0E
$GPGGA,215521.000,3748.5400,N,12217.8552,W,6,00,50.0,9.9,M,-25.1,M,,0000*53
$GPGSA,A,2,,,,,,,,,,,,,50.0,50.0,50.0*06
$GPGSV,3,1,09,17,80,063,25,28,50,054,31,27,39,315,19,26,36,222,08*79
$GPGSV,3,2,09,15,32,274,17,09,23,315,08,04,19,161,,01,17,048,22*75
$GPGSV,3,3,09,11,03,038,*48
$GPRMC,215521.000,A,3748.5400,N,12217.8552,W,1.03,350.66,170712,,,E*7A
$GPVTG,350.66,T,,M,1.03,N,1.9,K,N*0E
$GPGGA,215522.000,3748.5403,N,12217.8553,W,6,00,50.0,9.5,M,-25.1,M,,0000*5E
$GPGSA,A,2,,,,,,,,,,,,,50.0,50.0,50.0*06
$GPRMC,215522.000,A,3748.5403,N,12217.8553,W,1.03,350.66,170712,,,E*7B
$GPVTG,350.66,T,,M,1.03,N,1.9,K,N*0E
$GPGGA,215523.000,3748.5409,N,12217.8537,W,1,03,2.6,10.5,M,-25.1,M,,0000*5A
$GPGSA,A,2,15,09,28,,,,,,,,,,2.8,2.6,1.0*3B
$GPRMC,215523.000,A,3748.5409,N,12217.8537,W,2.25,11.56,170712,,,A*44
$GPVTG,11.56,T,,M,2.25,N,4.2,K,N*32
$GPGGA,215524.000,3748.5407,N,12217.8531,W,1,03,2.6,11.7,M,-25.1,M,,0000*56
$GPGSA,A,2,15,09,28,,,,,,,,,,2.8,2.6,1.0*3B
$GPRMC,215524.000,A,3748.5407,N,12217.8531,W,2.18,3.01,170712,,,A*74
$GPVTG,3.01,T,,M,2.18,N,4.0,K,N*0F
$GPGGA,215525.000,3748.5408,N,12217.8532,W,1,03,2.6,12.3,M,-25.1,M,,0000*5C
$GPGSA,A,2,15,09,28,,,,,,,,,,2.8,2.6,1.0*3B
$GPRMC,215525.000,A,3748.5408,N,12217.8532,W,1.99,10.56,170712,,,A*43
$GPVTG,10.56,T,,M,1.99,N,3.7,K,N*35
$GPGGA,215526.000,3748.5397,N,12217.8531,W,1,03,2.6,13.4,M,-25.1,M,,0000*5B
$GPGSA,A,2,15,09,28,,,,,,,,,,2.8,2.6,1.0*3B
$GPGSV,3,1,09,17,80,063,15,28,50,054,23,27,39,315,18,26,36,222,*70
$GPGSV,3,2,09,15,32,274,22,09,23,315,23,04,19,161,,01,17,048,22*7A
$GPGSV,3,3,09,11,03,038,*48
$GPRMC,215526.000,A,3748.5397,N,12217.8531,W,0.66,4.96,170712,,,A*7A
$GPVTG,4.96,T,,M,0.66,N,1.2,K,N*0A
$GPGGA,215527.000,3748.5399,N,12217.8530,W,6,00,50.0,13.3,M,-25.1,M,,0000*67
$GPGSA,A,2,,,,,,,,,,,,,50.0,50.0,50.0*06
$GPRMC,215527.000,A,3748.5399,N,12217.8530,W,0.66,4.96,170712,,,E*70
$GPVTG,4.96,T,,M,0.66,N,1.2,K,N*0A
$GPGGA,215528.000,3748.5401,N,12217.8530,W,6,00,50.0,13.2,M,-25.1,M,,0000*6F
$GPGSA,A,2,,,,,,,,,,,,,50.0,50.0,50.0*06
$GPRMC,215528.000,A,3748.5401,N,12217.8530,W,0.66,4.96,170712,,,E*79
$GPVTG,4.96,T,,M,0.66,N,1.2,K,N*0A
$GPGGA,215529.000,3748.5373,N,12217.8516,W,1,03,2.6,14.5,M,-25.1,M,,0000*5D
$GPGSA,A,2,15,09,28,,,,,,,,,,2.8,2.6,1.0*3B
$GPRMC,215529.000,A,3748.5373,N,12217.8516,W,2.66,160.46,170712,,,A*76
$GPVTG,160.46,T,,M,2.66,N,4.9,K,N*08
$GPGGA,215530.000,3748.5372,N,12217.8514,W,1,03,2.6,14.7,M,-25.1,M,,0000*54
$GPGSA,A,2,15,09,28,,,,,,,,,,2.8,2.6,1.0*3B
$GPRMC,215530.000,A,3748.5372,N,12217.8514,W,1.10,155.83,170712,,,A*70
$GPVTG,155.83,T,,M,1.10,N,2.0,K,N*0A
$GPGGA,215531.000,3748.5362,N,12217.8517,W,1,03,2.6,15.0,M,-25.1,M,,0000*51
$GPGSA,A,2,15,09,28,,,,,,,,,,2.8,2.6,1.0*3B
$GPGSV,3,1,09,17,80,063,20,28,50,054,24,27,39,315,17,26,36,222,*7E
$GPGSV,3,2,09,15,32,274,23,09,23,315,19,04,19,161,,01,17,048,22*72
$GPGSV,3,3,09,11,03,038,*48
$GPRMC,215531.000,A,3748.5362,N,12217.8517,W,1.08,119.56,170712,,,A*7A
$GPVTG,119.56,T,,M,1.08,N,2.0,K,N*03
$GPGGA,215532.000,3748.5341,N,12217.8516,W,1,03,2.6,15.8,M,-25.1,M,,0000*5A
$GPGSA,A,2,15,09,28,,,,,,,,,,2.8,2.6,1.0*3B
$GPRMC,215532.000,A,3748.5341,N,12217.8516,W,0.49,145.71,170712,,,A*71
$GPVTG,145.71,T,,M,0.49,N,0.9,K,N*00
$GPGGA,215533.000,3748.5319,N,12217.8517,W,1,03,2.6,16.3,M,-25.1,M,,0000*5F
$GPGSA,A,2,15,09,28,,,,,,,,,,2.8,2.6,1.0*3B
$GPRMC,215533.000,A,3748.5319,N,12217.8517,W,1.25,188.71,170712,,,A*76
$GPVTG,188.71,T,,M,1.25,N,2.3,K,N*02
$GPGGA,215534.000,3748.5312,N,12217.8514,W,1,03,2.6,16.4,M,-25.1,M,,0000*57
$GPGSA,A,2,15,09,28,,,,,,,,,,2.8,2.6,1.0*3B
$GPRMC,215534.000,A,3748.5312,N,12217.8514,W,1.61,180.79,170712,,,A*79
$GPVTG,180.79,T,,M,1.61,N,3.0,K,N*00
$GPGGA,215535.000,3748.5295,N,12217.8517,W,1,03,2.6,16.6,M,-25.1,M,,0000*59
$GPGSA,A,2,15,09,28,,,,,,,,,,2.8,2.6,1.0*3B
$GPRMC,215535.000,A,3748.5295,N,12217.8517,W,2.04,186.79,170712,,,A*73
$GPVTG,186.79,T,,M,2.04,N,3.8,K,N*0E
$GPGGA,215536.000,3748.5270,N,12217.8517,W,1,03,2.6,16.9,M,-25.1,M,,0000*5E
$GPGSA,A,2,15,09,28,,,,,,,,,,2.8,2.6,1.0*3B
$GPGSV,3,1,09,17,80,063,20,28,50,054,24,27,39,315,,26,36,222,*78
$GPGSV,3,2,09,15,32,274,21,09,23,315,22,04,19,161,,01,17,048,21*7B
$GPGSV,3,3,09,11,03,038,*48
$GPRMC,215536.000,A,3748.5270,N,12217.8517,W,2.04,182.18,170712,,,A*78
$GPVTG,182.18,T,,M,2.04,N,3.8,K,N*0D
$GPGGA,215537.000,3748.5254,N,12217.8511,W,1,03,2.6,17.1,M,-25.1,M,,0000*56
$GPGSA,A,2,15,09,28,,,,,,,,,,2.8,2.6,1.0*3B
$GPRMC,215537.000,A,3748.5254,N,12217.8511,W,1.68,181.05,170712,,,A*7F
$GPVTG,181.05,T,,M,1.68,N,3.1,K,N*02
$GPGGA,215538.000,3748.5266,N,12217.8512,W,1,03,2.6,16.8,M,-25.1,M,,0000*53
$GPGSA,A,2,15,09,28,,,,,,,,,,2.8,2.6,1.0*3B
$GPRMC,215538.000,A,3748.5266,N,12217.8512,W,0.88,185.53,170712,,,A*7A
$GPVTG,185.53,T,,M,0.88,N,1.6,K,N*0F
$GPGGA,215539.000,3748.5271,N,12217.8516,W,1,03,2.6,16.7,M,-25.1,M,,0000*5F
$GPGSA,A,2,15,09,28,,,,,,,,,,2.8,2.6,1.0*3B
$GPRMC,215539.000,A,3748.5271,N,12217.8516,W,1.46,179.65,170712,,,A*7C
$GPVTG,179.65,T,,M,1.46,N,2.7,K,N*08
$GPGGA,215540.000,3748.5278,N,12217.8513,W,1,03,2.6,16.7,M,-25.1,M,,0000*5D
$GPGSA,A,2,15,09,28,,,,,,,,,,2.8,2.6,1.0*3B
$GPRMC,215540.000,A,3748.5278,N,12217.8513,W,0.59,179.64,170712,,,A*70
$GPVTG,179.64,T,,M,0.59,N,1.1,K,N*03
$GPGGA,215541.000,3748.5314,N,12217.8524,W,1,04,1.7,21.9,M,-25.1,M,,0000*5C
$GPGSA,A,3,15,09,04,28,,,,,,,,,4.7,1.7,4.3*33
$GPGSV,3,1,09,17,80,063,25,28,50,054,35,27,39,315,25,26,36,222,*7A
$GPGSV,3,2,09,15,32,274,22,09,23,315,22,04,19,161,20,01,17,048,22*79
$GPGSV,3,3,09,11,03,038,*48
$GPRMC,215541.000,A,3748.5314,N,12217.8524,W,0.40,159.23,170712,,,A*77
$GPVTG,159.23,T,,M,0.40,N,0.7,K,A*02
$GPGGA,215542.000,3748.5356,N,12217.8534,W,1,04,1.7,26.6,M,-25.1,M,,0000*50
$GPGSA,A,3,15,09,04,28,,,,,,,,,4.7,1.7,4.3*33
$GPRMC,215542.000,A,3748.5356,N,12217.8534,W,0.64,68.65,170712,,,A*44
$GPVTG,68.65,T,,M,0.64,N,1.2,K,A*31
$GPGGA,215543.000,3748.5364,N,12217.8526,W,1,04,1.7,23.3,M,-25.1,M,,0000*53
$GPGSA,A,3,15,09,04,28,,,,,,,,,4.7,1.7,4.3*33
$GPRMC,215543.000,A,3748.5364,N,12217.8526,W,1.11,55.57,170712,,,A*4B
$GPVTG,55.57,T,,M,1.11,N,2.1,K,A*3D
$GPGGA,215544.000,3748.5359,N,12217.8516,W,1,04,1.7,19.5,M,-25.1,M,,0000*56
$GPGSA,A,3,15,09,04,28,,,,,,,,,4.7,1.7,4.3*33
$GPRMC,215544.000,A,3748.5359,N,12217.8516,W,0.61,119.30,170712,,,A*7F
$GPVTG,119.30,T,,M,0.61,N,1.1,K,A*00
$GPGGA,215545.000,3748.5347,N,12217.8513,W,1,04,1.7,15.9,M,-25.1,M,,0000*5D
$GPGSA,A,3,15,09,04,28,,,,,,,,,4.7,1.7,4.3*33
$GPRMC,215545.000,A,3748.5347,N,12217.8513,W,1.03,178.74,170712,,,A*76
$GPVTG,178.74,T,,M,1.03,N,1.9,K,A*0A
$GPGGA,215546.000,3748.5337,N,12217.8516,W,1,04,1.7,12.8,M,-25.1,M,,0000*5A
$GPGSA,A,3,15,09,04,28,,,,,,,,,4.7,1.7,4.3*33
$GPGSV,3,1,10,17,80,063,24,28,50,054,24,27,39,315,19,26,36,222,*7C
$GPGSV,3,2,10,15,32,274,24,09,23,315,23,04,19,161,21,01,17,048,22*77
$GPGSV,3,3,10,11,03,038,,51,43,156,34*76
$GPRMC,215546.000,A,3748.5337,N,12217.8516,W,0.93,151.84,170712,,,A*7B
$GPVTG,151.84,T,,M,0.93,N,1.7,K,A*08
$GPGGA,215547.000,3748.5335,N,12217.8524,W,1,04,1.7,13.3,M,-25.1,M,,0000*52
$GPGSA,A,3,15,09,04,28,,,,,,,,,4.7,1.7,4.4*34
$GPRMC,215547.000,A,3748.5335,N,12217.8524,W,0.61,169.43,170712,,,A*74
$GPVTG,169.43,T,,M,0.61,N,1.1,K,A*03
$GPGGA,215548.000,3748.5338,N,12217.8535,W,1,04,1.7,14.0,M,-25.1,M,,0000*54
$GPGSA,A,3,15,09,04,28,,,,,,,,,4.7,1.7,4.4*34
$GPRMC,215548.000,A,3748.5338,N,12217.8535,W,0.30,187.86,170712,,,A*7B
$GPVTG,187.86,T,,M,0.30,N,0.6,K,A*08
$GPGGA,215549.000,3748.5345,N,12217.8535,W,1,04,1.7,15.5,M,-25.1,M,,0000*5B
$GPGSA,A,3,15,09,04,28,,,,,,,,,4.7,1.7,4.4*34
$GPRMC,215549.000,A,3748.5345,N,12217.8535,W,0.57,61.19,170712,,,A*4E
$GPVTG,61.19,T,,M,0.57,N,1.1,K,A*30
$GPGGA,215550.000,3748.5356,N,12217.8527,W,1,04,1.7,13.7,M,-25.1,M,,0000*56
$GPGSA,A,3,15,09,04,28,,,,,,,,,4.7,1.7,4.4*34
$GPRMC,215550.000,A,3748.5356,N,12217.8527,W,2.09,25.83,170712,,,A*4D
$GPVTG,25.83,T,,M,2.09,N,3.9,K,A*30
$GPGGA,215551.000,3748.5368,N,12217.8515,W,1,04,1.7,13.3,M,-25.1,M,,0000*5F
$GPGSA,A,3,15,09,04,28,,,,,,,,,4.7,1.7,4.4*34
$GPGSV,3,1,10,17,80,063,24,28,50,054,20,27,39,315,28,26,36,222,24*7C
$GPGSV,3,2,10,15,32,274,25,09,23,315,19,04,19,161,22,01,17,048,14*79
$GPGSV,3,3,10,11,03,038,,51,43,156,30*72
$GPVTG,48.49,T,,M,2.46,N,4.6,K,A*3E
$GPGGA,215552.000,3748.5380,N,12217.8503,W,1,04,1.7,11.8,M,-25.1,M,,0000*54
$GPGSA,A,3,15,09,04,28,,,,,,,,,4.7,1.7,4.4*34
$GPRMC,215552.000,A,3748.5380,N,12217.8503,W,1.88,36.23,170712,,,A*40
$GPVTG,36.23,T,,M,1.88,N,3.5,K,A*3E
$GPGGA,215553.000,3748.5385,N,12217.8510,W,1,04,1.7,11.3,M,-25.1,M,,0000*59
$GPGSA,A,3,15,09,04,28,,,,,,,,,4.7,1.7,4.4*34
$GPRMC,215553.000,A,3748.5385,N,12217.8510,W,0.14,161.87,170712,,,A*7F
$GPVTG,161.87,T,,M,0.14,N,0.3,K,A*02
$GPGGA,215554.000,3748.5384,N,12217.8515,W,1,04,1.7,13.7,M,-25.1,M,,0000*5C
$GPGSA,A,3,15,09,04,28,,,,,,,,,4.7,1.7,4.4*34
$GPRMC,215554.000,A,3748.5384,N,12217.8515,W,0.89,248.58,170712,,,A*72
$GPVTG,248.58,T,,M,0.89,N,1.6,K,A*08
$GPGGA,215555.000,3748.5390,N,12217.8518,W,1,04,1.7,15.2,M,-25.1,M,,0000*56
