$ADVER,3080,2.3
$GPRMC,215428.504,A,3748.5408,N,12217.8539,W,0.42,251.91,170712,,,D*7B
$GPGGA,215429.504,3748.5399,N,12217.8530,W,2,04,1.4,-11.6,M,-25.1,M,6.4,0000*5F
$GPGSA,A,3,08,01,28,15,,,,,,,,,3.3,1.4,3.0*33
$GPGSV,3,1,10,28,50,054,39,15,32,274,30,08,31,130,40,01,17,047,25*76
$GPGSV,3,2,10,17,80,063,38,27,39,315,27,26,35,222,27,09,23,315,27*7B
$GPGSV,3,3,10,04,19,161,36,11,03,038,16*78
$GPRMC,215429.504,A,3748.5399,N,12217.8530,W,0.85,237.57,170712,,,D*7D
$GPVTG,237.57,T,,M,0.85,N,1.6,K,D*06
$GPGGA,215430.504,3748.5397,N,12217.8535,W,2,04,1.4,-8.9,M,-25.1,M,7.4,0000*6A
$GPGSA,A,3,08,01,28,15,,,,,,,,,3.3,1.4,3.0*33
$GPRMC,215430.504,A,3748.5397,N,12217.8535,W,0.25,282.59,170712,,,D*74
$GPVTG,282.59,T,,M,0.25,N,0.5,K,D*0E
$GPGGA,215431.000,3748.5396,N,12217.8535,W,2,04,1.4,-8.1,M,-25.1,M,7.8,0000*6F
$GPGSA,A,3,08,01,28,15,,,,,,,,,3.3,1.4,3.0*33
$GPRMC,215431.000,A,3748.5396,N,12217.8535,W,0.67,84.03,170712,,,D*48
$GPVTG,84.03,T,,M,0.67,N,1.2,K,D*35
$GPGGA,215432.000,3748.5395,N,12217.8536,W,2,04,1.4,-6.8,M,-25.1,M,8.8,0000*64
$GPGSA,A,3,08,01,28,15,,,,,,,,,3.3,1.4,3.0*33
$GPRMC,215432.000,A,3748.5395,N,12217.8536,W,0.45,319.06,170712,,,D*79
$GPVTG,319.06,T,,M,0.45,N,0.8,K,D*0C
$GPGGA,215433.000,3748.5394,N,12217.8517,W,2,04,1.4,-3.5,M,-25.1,M,9.8,0000*6E
$GPGSA,A,3,08,01,28,15,,,,,,,,,3.3,1.4,3.0*33
$GPRMC,215433.000,A,3748.5394,N,12217.8517,W,0.49,301.13,170712,,,D*7B
$GPVTG,301.13,T,,M,0.49,N,0.9,K,D*0C
$GPGGA,215434.000,3748.5392,N,12217.8509,W,2,04,1.4,-1.2,M,-25.1,M,10.8,0000*5D
$GPGSA,A,3,08,01,28,15,,,,,,,,,3.3,1.4,3.0*33
$GPGSV,3,1,11,28,50,054,32,15,32,274,24,08,31,130,30,01,17,047,18*70
$GPGSV,3,2,11,17,80,063,34,27,39,315,25,26,35,222,23,09,23,315,25*72
$GPGSV,3,3,11,04,19,161,22,11,03,038,16,48,44,197,25*48
$GPRMC,215434.000,A,3748.5392,N,12217.8509,W,0.32,264.76,170712,,,D*78
$GPGGA,215435.000,3748.5393,N,12217.8502,W,2,04,1.4,-1.3,M,-25.1,M,11.8,0000*56
$GPGSA,A,3,08,01,28,15,,,,,,,,,3.3,1.4,3.0*33
$GPRMC,215435.000,A,3748.5393,N,12217.8502,W,0.30,70.69,170712,,,D*48
$GPVTG,70.69,T,,M,0.30,N,0.6,K,D*35
$GPGGA,215436.000,3748.5394,N,12217.8496,W,2,04,1.4,-1.8,M,-25.1,M,12.8,0000*56
$GPGSA,A,3,08,01,28,15,,,,,,,,,3.3,1.4,3.0*33
$GPRMC,215436.000,A,3748.5394,N,12217.8496,W,0.57,111.99,170712,,,D*78
$GPVTG,111.99,T,,M,0.57,N,1.1,K,D*0B
$GPGGA,215437.000,3748.5392,N,12217.8499,W,2,04,1.4,-1.0,M,-25.1,M,13.8,0000*57
$GPGSA,A,3,08,01,28,15,,,,,,,,,3.3,1.4,3.0*33
$GPRMC,215437.000,A,3748.5392,N,12217.8499,W,0.29,252.37,170712,,,D*79
$GPVTG,252.37,T,,M,0.29,N,0.5,K,D*07
$GPGGA,215438.000,3748.5392,N,12217.8504,W,2,04,1.4,-0.8,M,-25.1,M,14.8,0000*53
$GPGSA,A,3,08,01,28,15,,,,,,,,,3.3,1.4,3.0*33
$GPRMC,215438.000,A,3748.5392,N,12217.8504,W,0.11,0.22,170712,,,D*79
$GPVTG,0.22,T,,M,0.11,N,0.2,K,D*0A
$GPGGA,215439.000,3748.5391,N,12217.8508,W,2,04,1.4,-0.4,M,-25.1,M,15.8,0000*50
$GPGSA,A,3,08,01,28,15,,,,,,,,,3.3,1.4,3.0*33
$GPGSV,3,1,11,28,50,054,42,15,32,274,34,08,31,130,32,01,17,047,27*78
$GPGSV,3,2,11,17,80,063,42,27,39,315,27,26,35,222,26,09,23,315,25*74
$GPGSV,3,3,11,04,19,161,17,11,03,038,16,48,44,197,28*43
$GPRMC,215439.000,A,3748.5391,N,12217.8508,W,0.14,289.39,170712,,,D*7B
$GPVTG,289.39,T,,M,0.14,N,0.3,K,D*07
$GPGGA,215440.000,3748.5391,N,12217.8510,W,2,04,1.4,0.1,M,-25.1,M,16.8,0000*7C
$GPGSA,A,3,08,01,28,15,,,,,,,,,3.3,1.4,3.0*33
$GPRMC,215440.000,A,3748.5391,N,12217.8510,W,0.71,43.99,170712,,,D*41
$GPVTG,43.99,T,,M,0.71,N,1.3,K,D*3B
$GPGGA,215441.000,3748.5393,N,12217.8505,W,2,04,1.4,-0.6,M,-25.1,M,17.8,0000*50
$GPGSA,A,3,08,01,28,15,,,,,,,,,3.3,1.4,3.0*33
$GPRMC,215441.000,A,3748.5393,N,12217.8505,W,1.10,92.14,170712,,,D*49
$GPVTG,92.14,T,,M,1.10,N,2.0,K,D*34
$GPGGA,215442.000,3748.5396,N,12217.8496,W,1,04,1.4,-2.2,M,-25.1,M,,0000*48
$GPGSA,A,3,08,01,28,15,,,,,,,,,3.3,1.4,3.0*33
$GPRMC,215442.000,A,3748.5396,N,12217.8496,W,1.34,92.90,170712,,,A*4B
$GPVTG,92.90,T,,M,1.34,N,2.5,K,A*3E
$GPGGA,215443.000,3748.5396,N,12217.8495,W,1,04,1.4,-2.8,M,-25.1,M,,0000*40
$GPGSA,A,3,08,01,28,15,,,,,,,,,3.3,1.4,3.0*33
$GPRMC,215443.000,A,3748.5396,N,12217.8495,W,0.64,101.80,170712,,,A*77
$GPVTG,101.80,T,,M,0.64,N,1.2,K,A*04
$GPGGA,215444.000,3748.5394,N,12217.8491,W,1,04,1.4,-1.8,M,-25.1,M,,0000*42
$GPGSA,A,3,08,01,28,15,,,,,,,,,3.3,1.4,3.0*33
$GPGSV,3,1,11,28,50,054,38,15,32,274,22,08,31,130,40,01,17,047,21*71
$GPGSV,3,2,11,17,80,063,40,27,39,315,37,26,35,222,18,09,23,315,40*79
$GPGSV,3,3,11,04,19,161,25,11,03,038,14,48,44,197,24*4C
$GPRMC,215444.000,A,3748.5394,N,12217.8491,W,0.41,119.88,170712,,,A*70
$GPVTG,119.88,T,,M,0.41,N,0.8,K,A*09
$GPGGA,215445.000,3748.5390,N,12217.8485,W,1,04,1.4,0.7,M,-25.1,M,,0000*61
$GPGSA,A,3,08,01,28,15,,,,,,,,,3.3,1.4,3.0*33
$GPRMC,215445.000,A,3748.5390,N,12217.8485,W,0.59,118.07,170712,,,A*7F
$GPVTG,118.07,T,,M,0.59,N,1.1,K,A*0E
$GPGGA,215446.000,3748.5388,N,12217.8482,W,1,04,1.4,2.0,M,-25.1,M,,0000*69
$GPGSA,A,3,08,01,28,15,,,,,,,,,3.3,1.4,3.0*33
$GPRMC,215446.000,A,3748.5388,N,12217.8482,W,0.21,110.11,170712,,,A*72
$GPVTG,110.11,T,,M,0.21,N,0.4,K,A*0A
$GPGGA,215447.000,3748.5386,N,12217.8479,W,1,04,1.4,3.7,M,-25.1,M,,0000*64
$GPGSA,A,3,08,01,28,15,,,,,,,,,3.3,1.4,3.0*33
$GPRMC,215447.000,A,3748.5386,N,12217.8479,W,0.95,91.92,170712,,,A*45
$GPVTG,91.92,T,,M,0.95,N,1.8,K,A*3B
$GPGGA,215448.000,3748.5384,N,12217.8476,W,1,04,1.4,5.0,M,-25.1,M,,0000*67
$GPGSA,A,3,08,01,28,15,,,,,,,,,3.3,1.4,3.0*33
$GPRMC,215448.000,A,3748.5384,N,12217.8476,W,0.42,122.73,170712,,,A*7B
$GPVTG,122.73,T,,M,0.42,N,0.8,K,A*06
$GPGGA,215449.000,3748.5382,N,12217.8472,W,1,04,1.4,6.4,M,-25.1,M,,0000*63
$GPGSA,A,3,08,01,28,15,,,,,,,,,3.3,1.4,3.0*33
$GPGSV,3,1,10,17,80,062,40,28,50,054,39,27,39,315,37,26,35,222,19*74
$GPGSV,3,2,10,15,32,274,22,08,30,130,39,09,23,315,40,04,19,161,*7F
$GPGSV,3,3,10,01,16,047,23,11,03,038,*74
$GPRMC,215449.000,A,3748.5382,N,12217.8472,W,0.51,105.26,170712,,,A*7F
$GPGGA,215450.000,3748.5380,N,12217.8468,W,1,04,1.4,8.3,M,-25.1,M,,0000*6B
$GPGSA,A,3,08,01,28,15,,,,,,,,,3.3,1.4,3.0*33
$GPRMC,215450.000,A,3748.5380,N,12217.8468,W,0.28,166.31,170712,,,A*73
$GPVTG,166.31,T,,M,0.28,N,0.5,K,A*01
$GPGGA,215451.000,3748.5377,N,12217.8462,W,1,04,1.4,10.2,M,-25.1,M,,0000*50
$GPGSA,A,3,08,01,28,15,,,,,,,,,3.3,1.4,3.0*33
$GPRMC,215451.000,A,3748.5377,N,12217.8462,W,0.29,170.00,170712,,,A*74
$GPVTG,170.00,T,,M,0.29,N,0.5,K,A*05
$GPGGA,215452.000,3748.5377,N,12217.8472,W,1,04,1.4,9.8,M,-25.1,M,,0000*60
$GPGSA,A,3,08,01,28,15,,,,,,,,,3.3,1.4,3.0*33
$GPRMC,215452.000,A,3748.5377,N,12217.8472,W,0.67,236.60,170712,,,A*7B
$GPVTG,236.60,T,,M,0.67,N,1.2,K,A*0E
$GPGGA,215453.000,3748.5375,N,12217.8479,W,1,04,1.4,10.2,M,-25.1,M,,0000*5A
$GPGSA,A,3,08,01,28,15,,,,,,,,,3.3,1.4,3.0*33
$GPRMC,215453.000,A,3748.5375,N,12217.8479,W,0.40,212.61,170712,,,A*71
$GPVTG,212.61,T,,M,0.40,N,0.7,K,A*08
$GPGGA,215454.000,3748.5374,N,12217.8479,W,1,04,1.4,10.8,M,-25.1,M,,0000*56
$GPGSA,A,3,08,01,28,15,,,,,,,,,3.3,1.4,3.0*33
$GPGSV,3,1,10,17,80,062,36,28,50,054,30,27,39,315,37,26,35,222,20*76
$GPGSV,3,2,10,15,32,274,23,08,30,130,33,09,23,315,39,04,19,161,24*7C
$GPGSV,3,3,10,01,16,047,24,11,03,038,15*77
$GPRMC,215454.000,A,3748.5374,N,12217.8479,W,0.19,145.55,170712,,,A*7D
$GPVTG,145.55,T,,M,0.19,N,0.3,K,A*06
$GPGGA,215455.000,3748.5376,N,12217.8481,W,1,04,1.4,10.1,M,-25.1,M,,0000*5B
$GPGSA,A,3,08,01,28,15,,,,,,,,,3.3,1.4,3.0*33
$GPRMC,215455.000,A,3748.5376,N,12217.8481,W,0.62,70.20,170712,,,A*40
$GPVTG,70.20,T,,M,0.62,N,1.2,K,A*3F
$GPGGA,215456.000,3748.5378,N,12217.8486,W,1,04,1.4,8.9,M,-25.1,M,,0000*60
$GPGSA,A,3,08,01,28,15,,,,,,,,,3.3,1.4,3.0*33
$GPRMC,215456.000,A,3748.5378,N,12217.8486,W,0.43,243.19,170712,,,A*71
$GPVTG,243.19,T,,M,0.43,N,0.8,K,A*0F
$GPGGA,215457.000,3748.5376,N,12217.8490,W,1,04,1.4,10.0,M,-25.1,M,,0000*58
$GPGSA,A,3,08,01,28,15,,,,,,,,,3.3,1.4,3.0*33
$GPRMC,215457.000,A,3748.5376,N,12217.8490,W,0.40,172.84,170712,,,A*7F
$GPVTG,172.84,T,,M,0.40,N,0.7,K,A*06
$GPGGA,215458.000,3748.5376,N,12217.8497,W,1,04,1.4,9.7,M,-25.1,M,,0000*6F
$GPGSA,A,3,08,01,28,15,,,,,,,,,3.3,1.4,3.0*33
$GPRMC,215458.000,A,3748.5376,N,12217.8497,W,0.99,261.12,170712,,,A*7D
$GPVTG,261.12,T,,M,0.99,N,1.8,K,A*02
$GPGGA,215459.000,3748.5374,N,12217.8505,W,1,04,1.4,9.5,M,-25.1,M,,0000*64
$GPGSA,A,3,08,01,28,15,,,,,,,,,3.3,1.4,3.0*33
$GPGSV,3,1,10,17,80,062,36,28,50,054,32,27,39,315,34,26,35,222,25*72
$GPGSV,3,2,10,15,32,274,22,08,30,130,31,09,23,315,25,04,19,161,23*75
$GPGSV,3,3,10,01,16,047,24,11,03,038,15*77
$GPRMC,215459.000,A,3748.5374,N,12217.8505,W,1.85,255.93,170712,,,A*76
$GPVTG,255.93,T,,M,1.85,N,3.4,K,A*0E
$GPGGA,215500.000,3748.5372,N,12217.8502,W,1,04,1.4,9.7,M,-25.1,M,,0000*6A
$GPGSA,A,3,08,01,28,15,,,,,,,,,3.3,1.4,3.0*33
$GPRMC,215500.000,A,3748.5372,N,12217.8502,W,0.67,259.01,170712,,,A*70
$GPVTG,259.01,T,,M,0.67,N,1.2,K,A*00
$GPGGA,215501.000,3748.5371,N,12217.8497,W,1,04,1.4,9.1,M,-25.1,M,,0000*63
$GPGSA,A,3,08,01,28,15,,,,,,,,,3.3,1.4,3.0*33
$GPRMC,215501.000,A,3748.5371,N,12217.8497,W,0.28,284.00,170712,,,A*75
$GPVTG,284.00,T,,M,0.28,N,0.5,K,A*0C
$GPGGA,215502.000,3748.5368,N,12217.8501,W,1,04,1.4,8.4,M,-25.1,M,,0000*62
$GPGSA,A,3,08,01,28,15,,,,,,,,,3.3,1.4,3.0*33
$GPRMC,215502.000,A,3748.5368,N,12217.8501,W,0.13,228.56,170712,,,A*7D
$GPVTG,228.56,T,,M,0.13,N,0.2,K,A*06
$GPGGA,215503.000,3748.5364,N,12217.8504,W,1,04,1.4,8.9,M,-25.1,M,,0000*67
$GPGSA,A,3,08,01,28,15,,,,,,,,,3.3,1.4,3.0*33
$GPRMC,215503.000,A,3748.5364,N,12217.8504,W,0.63,118.62,170712,,,A*75
$GPVTG,118.62,T,,M,0.63,N,1.2,K,A*07
$GPGGA,215504.000,3748.5360,N,12217.8508,W,1,04,1.4,9.2,M,-25.1,M,,0000*62
$GPGSA,A,3,08,01,28,15,,,,,,,,,3.3,1.4,3.0*33
$GPGSV,3,1,11,17,80,062,26,28,50,054,27,27,39,315,30,26,35,222,32*74
$GPGSV,3,2,11,15,32,274,25,08,30,130,35,09,23,315,31,04,19,161,27*76
$GPGSV,3,3,11,01,16,047,22,11,03,038,14,48,44,197,25*45
$GPRMC,215504.000,A,3748.5360,N,12217.8508,W,0.58,95.70,170712,,,A*45
$GPVTG,95.70,T,,M,0.58,N,1.1,K,A*3B
$GPGGA,215505.000,3748.5360,N,12217.8509,W,1,04,1.4,11.4,M,-25.1,M,,0000*5D
$GPGSA,A,3,08,01,28,15,,,,,,,,,3.3,1.4,3.0*33
$GPRMC,215505.000,A,3748.5360,N,12217.8509,W,0.91,76.92,170712,,,A*41
$GPVTG,76.92,T,,M,0.91,N,1.7,K,A*39
$GPGGA,215506.000,3748.5358,N,12217.8515,W,1,04,1.4,12.0,M,-25.1,M,,0000*5F
$GPGSA,A,3,08,01,28,15,,,,,,,,,3.3,1.4,3.0*33
$GPRMC,215506.000,A,3748.5358,N,12217.8515,W,0.13,24.71,170712,,,A*44
$GPVTG,24.71,T,,M,0.13,N,0.2,K,A*3D
$GPGGA,215507.000,3748.5355,N,12217.8511,W,1,04,1.4,11.6,M,-25.1,M,,0000*52
$GPGSA,A,3,08,01,28,15,,,,,,,,,3.3,1.4,3.0*33
$GPRMC,215507.000,A,3748.5355,N,12217.8511,W,0.29,11.42,170712,,,A*43
$GPVTG,11.42,T,,M,0.29,N,0.5,K,A*35
$GPGGA,215508.000,3748.5354,N,12217.8509,W,1,04,1.4,10.6,M,-25.1,M,,0000*54
$GPGSA,A,3,08,01,28,15,,,,,,,,,3.3,1.4,3.0*33
$GPRMC,215508.000,A,3748.5354,N,12217.8509,W,0.29,16.89,170712,,,A*44
$GPVTG,16.89,T,,M,0.29,N,0.5,K,A*35
$GPGGA,215509.000,3748.5354,N,12217.8511,W,1,04,1.4,9.1,M,-25.1,M,,0000*63
$GPGSA,A,3,08,01,28,15,,,,,,,,,3.3,1.4,3.0*33
$GPGSV,3,1,10,17,80,062,23,28,50,054,28,27,39,315,26,26,35,222,22*79
$GPGSV,3,2,10,15,32,274,23,08,30,130,30,09,23,315,31,04,19,161,23*70
$GPGSV,3,3,10,01,16,047,30,11,03,038,*76
$GPRMC,215509.000,A,3748.5354,N,12217.8511,W,0.09,298.97,170712,,,A*75
$GPVTG,298.97,T,,M,0.09,N,0.2,K,A*0B
$GPGGA,215510.000,3748.5356,N,12217.8514,W,1,04,1.4,8.2,M,-25.1,M,,0000*6E
$GPGSA,A,3,08,01,28,15,,,,,,,,,3.3,1.4,3.0*33
$GPRMC,215510.000,A,3748.5356,N,12217.8514,W,0.28,306.49,170712,,,A*7C
$GPVTG,306.49,T,,M,0.28,N,0.5,K,A*0A
$GPGGA,215511.000,3748.5358,N,12217.8514,W,1,04,1.4,7.2,M,-25.1,M,,0000*6E
$GPGSA,A,3,08,01,28,15,,,,,,,,,3.3,1.4,3.0*33
$GPRMC,215511.000,A,3748.5358,N,12217.8514,W,0.17,136.14,170712,,,A*76
$GPVTG,136.14,T,,M,0.17,N,0.3,K,A*09
$GPGGA,215512.000,3748.5357,N,12217.8514,W,1,04,1.4,6.2,M,-25.1,M,,0000*63
$GPGSA,A,3,08,01,28,15,,,,,,,,,3.3,1.4,3.0*33
$GPRMC,215512.000,A,3748.5357,N,12217.8514,W,0.35,133.04,170712,,,A*7E
$GPVTG,133.04,T,,M,0.35,N,0.6,K,A*08
$GPGGA,215513.000,3748.5354,N,12217.8516,W,1,04,1.4,4.9,M,-25.1,M,,0000*6A
$GPGSA,A,3,08,01,28,15,,,,,,,,,3.3,1.4,3.0*33
$GPRMC,215513.000,A,3748.5354,N,12217.8516,W,0.41,306.45,170712,,,A*7C
$GPVTG,306.45,T,,M,0.41,N,0.8,K,A*04
$GPGGA,215514.000,3748.5355,N,12217.8514,W,1,04,1.4,4.6,M,-25.1,M,,0000*61
$GPGSA,A,3,08,01,28,15,,,,,,,,,3.3,1.4,3.0*33
$GPGSV,3,1,10,17,80,062,28,28,50,054,38,27,39,315,25,26,35,222,23*71
$GPGSV,3,2,10,15,32,274,24,08,30,130,32,09,23,315,30,04,19,161,23*74
$GPGSV,3,3,10,01,16,047,32,11,03,038,*74
$GPVTG,129.15,T,,M,0.16,N,0.3,K,A*07
$GPGGA,215515.000,3748.5355,N,12217.8509,W,1,04,1.4,4.6,M,-25.1,M,,0000*6C
$GPGSA,A,3,08,01,28,15,,,,,,,,,3.3,1.4,3.0*33
$GPRMC,215515.000,A,3748.5355,N,12217.8509,W,0.59,97.83,170712,,,A*4D
$GPVTG,97.83,T,,M,0.59,N,1.1,K,A*34
$GPGGA,215516.000,3748.5354,N,12217.8511,W,1,04,1.4,4.1,M,-25.1,M,,0000*60
$GPGSA,A,3,08,01,28,15,,,,,,,,,3.3,1.4,3.0*33
$GPRMC,215516.000,A,3748.5354,N,12217.8511,W,0.35,169.88,170712,,,A*77
$GPVTG,169.88,T,,M,0.35,N,0.7,K,A*02
$GPGGA,215517.000,3748.5351,N,12217.8512,W,1,04,1.4,3.1,M,-25.1,M,,0000*60
$GPGSA,A,3,08,01,28,15,,,,,,,,,3.3,1.4,3.0*33
$GPRMC,215517.000,A,3748.5351,N,12217.8512,W,0.07,215.39,170712,,,A*73
$GPVTG,215.39,T,,M,0.07,N,0.1,K,A*07
$GPGGA,215518.000,3748.5351,N,12217.8512,W,1,04,1.4,1.8,M,-25.1,M,,0000*64
$GPGSA,A,3,08,01,28,15,,,,,,,,,3.3,1.4,3.0*33
$GPRMC,215518.000,A,3748.5351,N,12217.8512,W,0.27,327.28,170712,,,A*7E
$GPVTG,327.28,T,,M,0.27,N,0.5,K,A*01
$GPGGA,215519.000,3748.5350,N,12217.8513,W,1,04,1.4,0.9,M,-25.1,M,,0000*65
$GPGSA,A,3,08,01,28,15,,,,,,,,,3.3,1.4,3.0*33
$GPGSV,3,1,10,17,80,062,29,28,50,054,34,27,39,315,23,26,35,221,24*7E
$GPGSV,3,2,10,15,32,274,21,08,30,130,27,09,23,315,23,04,19,161,21*75
$GPGSV,3,3,10,01,16,047,32,11,03,038,*74
$GPRMC,215519.000,A,3748.5350,N,12217.8513,W,0.55,267.92,170712,,,A*7E
$GPVTG,267.92,T,,M,0.55,N,1.0,K,A*04
$GPGGA,215520.000,3748.5350,N,12217.8515,W,1,03,7.6,0.3,M,-25.1,M,,0000*60
$GPGSA,A,2,01,28,15,,,,,,,,,,7.7,7.6,1.0*3C
$GPRMC,215520.000,A,3748.5350,N,12217.8515,W,1.19,271.93,170712,,,A*7D
$GPVTG,271.93,T,,M,1.19,N,2.2,K,N*05
$GPGGA,215521.000,3748.5346,N,12217.8519,W,1,03,7.5,-0.6,M,-25.1,M,,0000*41
$GPGSA,A,2,08,01,28,,,,,,,,,,7.6,7.5,1.0*32
$GPRMC,215521.000,A,3748.5346,N,12217.8519,W,1.74,226.97,170712,,,A*7A
$GPVTG,226.97,T,,M,1.74,N,3.2,K,A*06
$GPGGA,215522.000,3748.5346,N,12217.8516,W,1,05,1.3,-1.9,M,-25.1,M,,0000*45
$GPGSA,A,3,08,01,27,28,15,,,,,,,,3.2,1.3,2.9*38
$GPRMC,215522.000,A,3748.5346,N,12217.8516,W,0.20,109.30,170712,,,A*75
$GPVTG,109.30,T,,M,0.20,N,0.4,K,A*00
$GPGGA,215523.000,3748.5344,N,12217.8514,W,1,05,1.3,-2.7,M,-25.1,M,,0000*49
$GPGSA,A,3,08,01,27,28,15,,,,,,,,3.2,1.3,2.9*38
$GPRMC,215523.000,A,3748.5344,N,12217.8514,W,1.67,122.02,170712,,,A*7E
$GPVTG,122.02,T,,M,1.67,N,3.1,K,A*0C
$GPGGA,215524.000,3748.5342,N,12217.8510,W,1,05,1.3,-3.0,M,-25.1,M,,0000*4A
$GPGSA,A,3,08,01,27,28,15,,,,,,,,3.2,1.3,2.9*38
$GPGSV,3,1,10,17,80,061,29,28,50,054,28,27,39,315,23,26,35,221,24*70
$GPGSV,3,2,10,15,32,274,23,08,30,130,38,09,23,315,26,04,19,161,24*79
$GPGSV,3,3,10,01,16,047,27,11,03,038,*70
$GPRMC,215524.000,A,3748.5342,N,12217.8510,W,1.86,145.98,170712,,,A*76
$GPVTG,145.98,T,,M,1.86,N,3.4,K,A*04
$GPGGA,215525.000,3748.5339,N,12217.8507,W,1,05,1.3,-2.8,M,-25.1,M,,0000*48
$GPGSA,A,3,08,01,27,28,15,,,,,,,,3.2,1.3,2.9*38
$GPRMC,215525.000,A,3748.5339,N,12217.8507,W,1.66,131.23,170712,,,A*70
$GPVTG,131.23,T,,M,1.66,N,3.1,K,A*0C
$GPGGA,215526.000,3748.5335,N,12217.8497,W,1,05,1.3,-3.2,M,-25.1,M,,0000*44
$GPGSA,A,3,08,01,27,28,15,,,,,,,,3.2,1.3,2.9*38
$GPRMC,215526.000,A,3748.5335,N,12217.8497,W,1.68,108.56,170712,,,A*71
$GPVTG,108.56,T,,M,1.68,N,3.1,K,A*0A
$GPGGA,215527.000,3748.5331,N,12217.8490,W,1,05,1.3,-2.8,M,-25.1,M,,0000*4D
$GPGSA,A,3,08,01,27,28,15,,,,,,,,3.2,1.3,2.9*38
$GPRMC,215527.000,A,3748.5331,N,12217.8490,W,1.76,131.73,170712,,,A*71
$GPVTG,131.73,T,,M,1.76,N,3.3,K,A*0A
$GPGGA,215528.000,3748.5329,N,12217.8483,W,1,05,1.3,-2.8,M,-25.1,M,,0000*49
$GPGSA,A,3,08,01,27,28,15,,,,,,,,3.2,1.3,2.9*38
$GPRMC,215528.000,A,3748.5329,N,12217.8483,W,1.71,119.92,170712,,,A*77
$GPVTG,119.92,T,,M,1.71,N,3.2,K,A*09
$GPGGA,215529.000,3748.5327,N,12217.8476,W,1,05,1.3,-3.6,M,-25.1,M,,0000*43
$GPGSA,A,3,08,01,27,28,15,,,,,,,,3.2,1.3,2.9*38
$GPGSV,3,1,10,17,80,061,28,28,50,054,32,27,39,315,23,26,35,221,21*7F
$GPGSV,3,2,10,15,32,274,19,08,30,130,39,09,23,315,24,04,19,161,23*74
$GPGSV,3,3,10,01,16,047,28,11,03,038,*7F
$GPRMC,215529.000,A,3748.5327,N,12217.8476,W,0.63,101.67,170712,,,A*73
$GPVTG,101.67,T,,M,0.63,N,1.2,K,A*0A
$GPGGA,215530.000,3748.5326,N,12217.8475,W,1,05,1.3,-3.4,M,-25.1,M,,0000*4B
$GPGSA,A,3,08,01,27,28,15,,,,,,,,3.2,1.3,2.9*38
$GPRMC,215530.000,A,3748.5326,N,12217.8475,W,0.78,116.89,170712,,,A*75
$GPVTG,116.89,T,,M,0.78,N,1.4,K,A*00
$GPGGA,215531.000,3748.5324,N,12217.8476,W,1,05,1.3,-2.9,M,-25.1,M,,0000*47
$GPGSA,A,3,08,01,27,28,15,,,,,,,,3.2,1.3,2.9*38
$GPRMC,215531.000,A,3748.5324,N,12217.8476,W,0.48,349.29,170712,,,A*74
$GPVTG,349.29,T,,M,0.48,N,0.9,K,A*0D
$GPGGA,215532.000,3748.5324,N,12217.8474,W,1,05,1.3,-2.7,M,-25.1,M,,0000*48
$GPGSA,A,3,08,01,27,28,15,,,,,,,,3.2,1.3,2.9*38
$GPRMC,215532.000,A,3748.5324,N,12217.8474,W,0.54,307.21,170712,,,A*7A
$GPVTG,307.21,T,,M,0.54,N,1.0,K,A*0A
$GPGGA,215533.000,3748.5327,N,12217.8476,W,1,05,1.3,-2.4,M,-25.1,M,,0000*4B
$GPGSA,A,3,08,01,27,28,15,,,,,,,,3.2,1.3,2.9*38
$GPRMC,215533.000,A,3748.5327,N,12217.8476,W,0.54,123.18,170712,,,A*74
$GPVTG,123.18,T,,M,0.54,N,1.0,K,A*04
$GPGGA,215534.000,3748.5329,N,12217.8475,W,1,05,1.3,-2.1,M,-25.1,M,,0000*44
$GPGSA,A,3,08,01,27,28,15,,,,,,,,3.2,1.3,2.9*38
$GPGSV,3,1,10,17,80,061,28,28,50,054,32,27,39,315,32,26,35,221,22*7C
$GPGSV,3,2,10,15,32,274,18,08,30,130,25,09,23,315,34,04,19,161,19*70
$GPGSV,3,3,10,01,16,047,33,11,03,038,*75
$GPRMC,215534.000,A,3748.5329,N,12217.8475,W,0.40,65.02,170712,,,A*43
$GPVTG,65.02,T,,M,0.40,N,0.7,K,A*3F
$GPGGA,215535.000,3748.5330,N,12217.8473,W,1,05,1.3,-1.6,M,-25.1,M,,0000*4F
$GPGSA,A,3,08,01,27,28,15,,,,,,,,3.2,1.3,2.9*38
$GPRMC,215535.000,A,3748.5330,N,12217.8473,W,0.36,109.92,170712,,,A*7F
$GPVTG,109.92,T,,M,0.36,N,0.7,K,A*0C
$GPGGA,215536.000,3748.5332,N,12217.8471,W,1,05,1.3,-0.8,M,-25.1,M,,0000*43
$GPGSA,A,3,08,01,27,28,15,,,,,,,,3.2,1.3,2.9*38
$GPRMC,215536.000,A,3748.5332,N,12217.8471,W,0.61,11.24,170712,,,A*4B
$GPVTG,11.24,T,,M,0.61,N,1.1,K,A*3C
$GPGGA,215537.000,3748.5336,N,12217.8470,W,1,05,1.3,-0.1,M,-25.1,M,,0000*4E
$GPGSA,A,3,08,01,27,28,15,,,,,,,,3.2,1.3,2.9*38
$GPRMC,215537.000,A,3748.5336,N,12217.8470,W,0.37,36.87,170712,,,A*40
$GPVTG,36.87,T,,M,0.37,N,0.7,K,A*34
$GPGGA,215538.000,3748.5334,N,12217.8467,W,1,04,1.6,0.3,M,-25.1,M,,0000*6E
$GPGSA,A,3,08,01,27,28,,,,,,,,,3.6,1.6,3.2*37
$GPRMC,215538.000,A,3748.5334,N,12217.8467,W,0.55,50.85,170712,,,A*4D
$GPVTG,50.85,T,,M,0.55,N,1.0,K,A*34
$GPGGA,215539.000,3748.5330,N,12217.8465,W,1,04,1.6,0.2,M,-25.1,M,,0000*68
$GPGSA,A,3,08,01,27,28,,,,,,,,,3.6,1.6,3.2*37
$GPGSV,3,1,10,17,80,061,28,28,50,054,39,27,39,315,27,26,35,221,20*71
$GPGSV,3,2,10,15,32,274,,08,30,130,21,09,23,315,29,04,19,161,20*7B
$GPRMC,215539.000,A,3748.5330,N,12217.8465,W,0.30,57.80,170712,,,A*4B
$GPVTG,57.80,T,,M,0.30,N,0.5,K,A*31
$GPGGA,215540.000,3748.5330,N,12217.8466,W,1,04,1.6,0.4,M,-25.1,M,,0000*63
$GPGSA,A,3,08,01,27,28,,,,,,,,,3.6,1.6,3.2*37
$GPRMC,215540.000,A,3748.5330,N,12217.8466,W,0.19,140.14,170712,,,A*77
$GPVTG,140.14,T,,M,0.19,N,0.4,K,A*01
$GPGGA,215541.000,3748.5332,N,12217.8467,W,1,04,1.6,0.7,M,-25.1,M,,0000*62
$GPGSA,A,3,08,01,27,28,,,,,,,,,3.6,1.6,3.2*37
$GPRMC,215541.000,A,3748.5332,N,12217.8467,W,0.39,170.19,170712,,,A*79
$GPVTG,170.19,T,,M,0.39,N,0.7,K,A*0E
$GPGGA,215542.000,3748.5331,N,12217.8468,W,1,04,1.6,0.6,M,-25.1,M,,0000*6C
$GPGSA,A,3,08,01,27,28,,,,,,,,,3.6,1.6,3.2*37
$GPRMC,215542.000,A,3748.5331,N,12217.8468,W,0.24,4.83,170712,,,A*7B
$GPVTG,4.83,T,,M,0.24,N,0.4,K,A*00
$GPGGA,215543.000,3748.5335,N,12217.8470,W,1,04,1.6,0.9,M,-25.1,M,,0000*6F
$GPGSA,A,3,08,01,27,28,,,,,,,,,3.6,1.6,3.2*37
$GPRMC,215543.000,A,3748.5335,N,12217.8470,W,1.04,0.77,170712,,,A*7B
$GPVTG,0.77,T,,M,1.04,N,1.9,K,A*00
$GPGGA,215544.000,3748.5336,N,12217.8471,W,1,04,1.6,0.7,M,-25.1,M,,0000*64
$GPGSA,A,3,08,01,27,28,,,,,,,,,3.6,1.6,3.2*37
$GPGSV,3,1,10,17,80,061,32,28,50,054,37,27,39,315,33,26,35,221,20*71
$GPGSV,3,2,10,15,32,274,,08,30,130,22,09,23,315,30,04,19,161,*72
$GPGSV,3,3,10,01,16,047,29,11,03,038,*7E
$GPRMC,215544.000,A,3748.5336,N,12217.8471,W,0.34,20.81,170712,,,A*47
$GPVTG,20.81,T,,M,0.34,N,0.6,K,A*37
$GPGGA,215545.000,3748.5338,N,12217.8473,W,1,04,1.6,0.7,M,-25.1,M,,0000*69
$GPGSA,A,3,08,01,27,28,,,,,,,,,3.6,1.6,3.2*37
$GPRMC,215545.000,A,3748.5338,N,12217.8473,W,0.14,136.84,170712,,,A*7B
$GPVTG,136.84,T,,M,0.14,N,0.3,K,A*03
$GPGGA,215546.000,3748.5338,N,12217.8474,W,1,04,1.6,0.5,M,-25.1,M,,0000*6F
$GPGSA,A,3,08,01,27,28,,,,,,,,,3.6,1.6,3.2*37
$GPRMC,215546.000,A,3748.5338,N,12217.8474,W,0.07,108.27,170712,,,A*79
$GPVTG,108.27,T,,M,0.07,N,0.1,K,A*07
$GPGGA,215547.000,3748.5340,N,12217.8475,W,1,04,1.6,0.4,M,-25.1,M,,0000*61
$GPGSA,A,3,08,01,27,28,,,,,,,,,3.6,1.6,3.2*37
$GPRMC,215547.000,A,3748.5340,N,12217.8475,W,0.13,12.74,170712,,,A*4F
$GPVTG,12.74,T,,M,0.13,N,0.2,K,A*3D
$GPGGA,215548.000,3748.5343,N,12217.8476,W,1,04,1.6,0.5,M,-25.1,M,,0000*6F
$GPGSA,A,3,08,01,27,28,,,,,,,,,3.6,1.6,3.2*37
$GPRMC,215548.000,A,3748.5343,N,12217.8476,W,0.08,68.45,170712,,,A*45
$GPVTG,68.45,T,,M,0.08,N,0.2,K,A*38
$GPGGA,215549.000,3748.5348,N,12217.8477,W,1,04,1.6,0.6,M,-25.1,M,,0000*67
$GPGSA,A,3,08,01,27,28,,,,,,,,,3.6,1.6,3.2*37
$GPGSV,3,1,10,17,80,061,30,28,50,054,36,27,40,315,32,26,35,221,19*77
$GPGSV,3,2,10,15,32,273,,08,30,130,22,09,23,315,31,04,19,161,*74
$GPGSV,3,3,10,01,16,047,28,11,03,038,*7F
$GPRMC,215549.000,A,3748.5348,N,12217.8477,W,0.37,10.91,170712,,,A*44
$GPVTG,10.91,T,,M,0.37,N,0.7,K,A*37
$GPGGA,215550.000,3748.5347,N,12217.8477,W,1,04,1.6,0.3,M,-25.1,M,,0000*65
$GPGSA,A,3,08,01,27,28,,,,,,,,,3.6,1.6,3.2*37
$GPRMC,215550.000,A,3748.5347,N,12217.8477,W,0.31,153.00,170712,,,A*7B
$GPVTG,153.00,T,,M,0.31,N,0.6,K,A*0E
$GPGGA,215551.000,3748.5346,N,12217.8477,W,1,04,1.6,-0.0,M,-25.1,M,,0000*4B
$GPGSA,A,3,08,01,27,28,,,,,,,,,3.6,1.6,3.2*37
$GPRMC,215551.000,A,3748.5346,N,12217.8477,W,0.24,6.77,170712,,,A*7E
$GPVTG,6.77,T,,M,0.24,N,0.4,K,A*09
$GPGGA,215552.000,3748.5347,N,12217.8478,W,1,04,1.6,-0.3,M,-25.1,M,,0000*45
$GPGSA,A,3,08,01,27,28,,,,,,,,,3.6,1.6,3.2*37
$GPRMC,215552.000,A,3748.5347,N,12217.8478,W,0.09,129.09,170712,,,A*79
$GPVTG,129.09,T,,M,0.09,N,0.2,K,A*05
$GPGGA,215553.000,3748.5342,N,12217.8478,W,1,04,1.6,-0.6,M,-25.1,M,,0000*44
$GPGSA,A,3,08,01,27,28,,,,,,,,,3.6,1.6,3.2*37
$GPRMC,215553.000,A,3748.5342,N,12217.8478,W,0.13,133.34,170712,,,A*73
$GPVTG,133.34,T,,M,0.13,N,0.2,K,A*0B
$GPGGA,215554.000,3748.5342,N,12217.8479,W,1,04,1.6,0.0,M,-25.1,M,,0000*69
$GPGSA,A,3,08,01,27,28,,,,,,,,,3.6,1.6,3.2*37
$GPGSV,3,1,10,17,80,061,29,28,50,054,36,27,40,315,31,26,35,221,17*72
$GPGSV,3,2,10,15,32,273,,08,30,130,22,09,23,315,32,04,19,161,*77
$GPGSV,3,3,10,01,16,047,25,11,03,038,*72
$GPRMC,215554.000,A,3748.5342,N,12217.8479,W,0.41,9.24,170712,,,A*7B
$GPVTG,9.24,T,,M,0.41,N,0.8,K,A*0F
$GPGGA,215555.000,3748.5342,N,12217.8480,W,1,04,1.6,0.8,M,-25.1,M,,0000*66
$GPGSA,A,3,08,01,27,28,,,,,,,,,3.6,1.6,3.2*37
$GPRMC,215555.000,A,3748.5342,N,12217.8480,W,0.28,169.81,170712,,,A*7B
$GPVTG,169.81,T,,M,0.28,N,0.5,K,A*05
$GPGGA,215556.000,3748.5341,N,12217.8481,W,1,04,1.6,1.3,M,-25.1,M,,0000*6D
$GPGSA,A,3,08,01,27,28,,,,,,,,,3.6,1.6,3.2*37
$GPRMC,215556.000,A,3748.5341,N,12217.8481,W,0.36,159.42,170712,,,A*79
$GPVTG,159.42,T,,M,0.36,N,0.7,K,A*04
$GPGGA,215557.000,3748.5343,N,12217.8480,W,1,04,1.6,1.6,M,-25.1,M,,0000*6A
$GPGSA,A,3,08,01,27,28,,,,,,,,,3.6,1.6,3.2*37
$GPRMC,215557.000,A,3748.5343,N,12217.8480,W,0.14,24.19,170712,,,A*4E
$GPVTG,24.19,T,,M,0.14,N,0.3,K,A*35
$GPGGA,215558.000,3748.5345,N,12217.8480,W,1,04,1.6,1.8,M,-25.1,M,,0000*6D
$GPGSA,A,3,08,01,27,28,,,,,,,,,3.6,1.6,3.2*37
$GPRMC,215558.000,A,3748.5345,N,12217.8480,W,0.25,153.03,170712,,,A*7F
$GPVTG,153.03,T,,M,0.25,N,0.5,K,A*0B
$GPGGA,215559.000,3748.5340,N,12217.8480,W,1,04,1.6,1.5,M,-25.1,M,,0000*64
$GPGSA,A,3,08,01,27,28,,,,,,,,,3.6,1.6,3.2*37
$GPGSV,3,1,10,17,80,061,29,28,50,054,36,27,40,315,31,26,35,221,*74
$GPGSV,3,2,10,15,32,273,,08,30,130,22,09,23,315,33,04,19,161,*76
$GPGSV,3,3,10,01,16,047,26,11,03,038,*71
$GPRMC,215559.000,A,3748.5340,N,12217.8480,W,0.09,121.97,170712,,,A*7D
$GPVTG,121.97,T,,M,0.09,N,0.2,K,A*0A
$GPGGA,215600.000,3748.5337,N,12217.8480,W,1,04,1.6,1.1,M,-25.1,M,,0000*6F
$GPGSA,A,3,08,01,27,28,,,,,,,,,3.6,1.6,3.2*37
$GPRMC,215600.000,A,3748.5337,N,12217.8480,W,0.14,142.38,170712,,,A*7E
$GPVTG,142.38,T,,M,0.14,N,0.3,K,A*07
$GPGGA,215601.000,3748.5331,N,12217.8480,W,1,04,1.6,0.4,M,-25.1,M,,0000*6C
$GPGSA,A,3,08,01,27,28,,,,,,,,,3.6,1.6,3.2*37
$GPRMC,215601.000,A,3748.5331,N,12217.8480,W,0.47,169.45,170712,,,A*7C
$GPVTG,169.45,T,,M,0.47,N,0.9,K,A*08
$GPGGA,215602.000,3748.5325,N,12217.8480,W,1,04,1.6,-0.2,M,-25.1,M,,0000*41
$GPGSA,A,3,08,01,27,28,,,,,,,,,3.6,1.6,3.2*37
$GPRMC,215602.000,A,3748.5325,N,12217.8480,W,0.44,169.63,170712,,,A*7D
$GPVTG,169.63,T,,M,0.44,N,0.8,K,A*0E
$GPGGA,215603.000,3748.5321,N,12217.8480,W,1,04,1.6,-0.8,M,-25.1,M,,0000*4E
$GPGSA,A,3,08,01,27,28,,,,,,,,,3.6,1.6,3.2*37
$GPRMC,215603.000,A,3748.5321,N,12217.8480,W,0.01,152.12,170712,,,A*77
$GPVTG,152.12,T,,M,0.01,N,0.0,K,A*09
$GPGGA,215604.000,3748.5319,N,12217.8480,W,1,04,1.6,-1.4,M,-25.1,M,,0000*4F
$GPGSA,A,3,08,01,27,28,,,,,,,,,3.6,1.6,3.2*37
$GPGSV,3,1,10,17,80,061,30,28,50,054,36,27,40,315,31,26,35,221,*7C
$GPGSV,3,2,10,15,32,273,,08,30,130,21,09,23,315,33,04,19,161,*75
$GPGSV,3,3,10,01,16,047,30,11,03,038,*76
$GPVTG,170.16,T,,M,0.72,N,1.3,K,A*0B
$GPGGA,215605.000,3748.5320,N,12217.8480,W,1,04,1.6,-1.6,M,-25.1,M,,0000*46
$GPGSA,A,3,08,01,27,28,,,,,,,,,3.6,1.6,3.2*37
$GPRMC,215605.000,A,3748.5320,N,12217.8480,W,0.73,176.21,170712,,,A*73
$GPVTG,176.21,T,,M,0.73,N,1.3,K,A*08
$GPGGA,215606.000,3748.5319,N,12217.8482,W,1,04,1.6,-1.0,M,-25.1,M,,0000*4B
$GPGSA,A,3,08,01,27,28,,,,,,,,,3.6,1.6,3.2*37
$GPRMC,215606.000,A,3748.5319,N,12217.8482,W,0.33,160.52,170712,,,A*7F
$GPVTG,160.52,T,,M,0.33,N,0.6,K,A*0B
$GPGGA,215607.000,3748.5323,N,12217.8482,W,1,04,1.6,-0.8,M,-25.1,M,,0000*4A
$GPGSA,A,3,08,01,27,28,,,,,,,,,3.6,1.6,3.2*37
$GPRMC,215607.000,A,3748.5323,N,12217.8482,W,0.60,176.65,170712,,,A*72
$GPVTG,176.65,T,,M,0.60,N,1.1,K,A*08
$GPGGA,215608.000,3748.5325,N,12217.8482,W,1,04,1.6,-1.0,M,-25.1,M,,0000*4A
$GPGSA,A,3,08,01,27,28,,,,,,,,,3.6,1.6,3.2*37
$GPRMC,215608.000,A,3748.5325,N,12217.8482,W,0.75,173.83,170712,,,A*72
$GPVTG,173.83,T,,M,0.75,N,1.4,K,A*04
$GPGGA,215609.000,3748.5328,N,12217.8482,W,1,04,1.6,-0.6,M,-25.1,M,,0000*41
$GPGSA,A,3,08,01,27,28,,,,,,,,,3.6,1.6,3.2*37
$GPGSV,3,1,10,17,80,061,30,28,50,054,36,27,40,315,30,26,35,221,*7D
$GPGSV,3,2,10,15,32,273,,08,30,130,21,09,23,315,34,04,19,161,*72
$GPGSV,3,3,10,01,16,047,26,11,03,038,*71
$GPRMC,215609.000,A,3748.5328,N,12217.8482,W,0.55,164.58,170712,,,A*7C
$GPVTG,164.58,T,,M,0.55,N,1.0,K,A*02
$GPGGA,215608.000,3748.5328,N,12217.8487,W,1,04,1.6,-1.0,M,-25.1,M,,0000*42
$GPGSA,A,3,08,01,27,28,,,,,,,,,3.6,1.6,3.2*37
$GPRMC,215608.000,A,3748.5328,N,12217.8487,W,0.09,40.22,170712,,,A*4B
$GPVTG,40.22,T,,M,0.09,N,0.2,K,A*32
$GPGGA,215609.000,3748.5326,N,12217.8490,W,1,04,1.6,-1.6,M,-25.1,M,,0000*4D
$GPGSA,A,3,08,01,27,28,,,,,,,,,3.6,1.6,3.2*37
$GPRMC,215609.000,A,3748.5326,N,12217.8490,W,0.17,119.61,170712,,,A*77
$GPVTG,119.61,T,,M,0.17,N,0.3,K,A*06
$GPGGA,215610.000,3748.5326,N,12217.8487,W,1,05,1.3,-1.6,M,-25.1,M,,0000*47
$GPGSA,A,3,08,01,27,15,28,,,,,,,,3.2,1.3,2.9*38
$GPRMC,215610.000,A,3748.5326,N,12217.8487,W,0.66,89.87,170712,,,A*4F
$GPVTG,89.87,T,,M,0.66,N,1.2,K,A*30
$GPGGA,215611.000,3748.5329,N,12217.8487,W,1,05,1.3,-1.6,M,-25.1,M,,0000*49
$GPGSA,A,3,08,01,27,15,28,,,,,,,,3.2,1.3,2.9*38
$GPRMC,215611.000,A,3748.5329,N,12217.8487,W,0.64,85.65,170712,,,A*43
$GPVTG,85.65,T,,M,0.64,N,1.2,K,A*32
$GPGGA,215612.000,3748.5329,N,12217.8487,W,1,05,1.3,-1.0,M,-25.1,M,,0000*4C
$GPGSA,A,3,08,01,27,15,28,,,,,,,,3.2,1.3,2.9*38
$GPGSV,3,1,10,17,80,061,25,28,50,054,29,27,40,315,33,26,35,221,17*72
$GPGSV,3,2,10,15,32,273,19,08,30,130,28,09,23,315,28,04,19,161,17*78
$GPGSV,3,3,10,01,16,047,29,11,03,038,*7E
$GPRMC,215612.000,A,3748.5329,N,12217.8487,W,0.29,311.93,170712,,,A*7E
$GPVTG,311.93,T,,M,0.29,N,0.5,K,A*0A
$GPGGA,215613.000,3748.5327,N,12217.8489,W,1,05,1.3,-2.4,M,-25.1,M,,0000*4A
$GPGSA,A,3,08,01,27,15,28,,,,,,,,3.2,1.3,2.9*38
$GPRMC,215613.000,A,3748.5327,N,12217.8489,W,0.45,215.80,170712,,,A*72
$GPVTG,215.80,T,,M,0.45,N,0.8,K,A*0A
$GPGGA,215614.000,3748.5326,N,12217.8490,W,1,05,1.3,-3.4,M,-25.1,M,,0000*45
$GPGSA,A,3,08,01,27,15,28,,,,,,,,3.2,1.3,2.9*38
$GPRMC,215614.000,A,3748.5326,N,12217.8490,W,0.56,170.18,170712,,,A*7F
$GPVTG,170.18,T,,M,0.56,N,1.0,K,A*00
$GPGGA,215615.000,3748.5327,N,12217.8493,W,1,05,1.3,-3.4,M,-25.1,M,,0000*46
$GPGSA,A,3,08,01,27,15,28,,,,,,,,3.2,1.3,2.9*38
$GPRMC,215615.000,A,3748.5327,N,12217.8493,W,0.05,323.30,170712,,,A*74
$GPVTG,323.30,T,,M,0.05,N,0.1,K,A*08
$GPGGA,215616.000,3748.5328,N,12217.8494,W,1,05,1.3,-2.3,M,-25.1,M,,0000*4B
$GPGSA,A,3,08,01,27,15,28,,,,,,,,3.2,1.3,2.9*38
$GPRMC,215616.000,A,3748.5328,N,12217.8494,W,0.30,161.78,170712,,,A*71
$GPVTG,161.78,T,,M,0.30,N,0.5,K,A*02
$GPGGA,215617.000,3748.5325,N,12217.8490,W,1,05,1.3,-1.7,M,-25.1,M,,0000*44
$GPGSA,A,3,08,01,27,15,28,,,,,,,,3.2,1.3,2.9*38
$GPGSV,3,1,10,17,80,061,23,28,50,054,29,27,40,315,20,26,35,221,19*78
$GPGSV,3,2,10,15,32,273,19,08,30,130,31,09,23,315,23,04,19,161,18*74
$GPGSV,3,3,10,01,16,047,29,11,03,038,*7E
$GPRMC,215617.000,A,3748.5325,N,12217.8490,W,0.82,107.77,170712,,,A*7F
$GPGGA,215618.000,3748.5322,N,12217.8488,W,1,05,1.3,-1.8,M,-25.1,M,,0000*4A
$GPGSA,A,3,08,01,27,15,28,,,,,,,,3.2,1.3,2.9*38
$GPRMC,215618.000,A,3748.5322,N,12217.8488,W,0.97,114.30,170712,,,A*7B
$GPVTG,114.30,T,,M,0.97,N,1.8,K,A*0D
$GPGGA,215619.000,3748.5322,N,12217.8485,W,1,05,1.3,0.3,M,-25.1,M,,0000*61
$GPGSA,A,3,08,01,27,15,28,,,,,,,,3.2,1.3,2.9*38
$GPRMC,215619.000,A,3748.5322,N,12217.8485,W,1.10,54.09,170712,,,A*46
$GPVTG,54.09,T,,M,1.10,N,2.0,K,A*37
$GPGGA,215620.000,3748.5322,N,12217.8481,W,1,06,1.3,2.1,M,-25.1,M,,0000*6C
$GPGSA,A,3,08,01,17,27,15,28,,,,,,,2.3,1.3,1.9*3D
$GPRMC,215620.000,A,3748.5322,N,12217.8481,W,0.25,48.68,170712,,,A*45
$GPVTG,48.68,T,,M,0.25,N,0.5,K,A*3D
$GPGGA,215621.000,3748.5319,N,12217.8477,W,1,06,1.3,-0.4,M,-25.1,M,,0000*46
$GPGSA,A,3,08,01,17,27,15,28,,,,,,,2.3,1.3,1.9*3D
$GPRMC,215621.000,A,3748.5319,N,12217.8477,W,1.00,132.54,170712,,,A*70
$GPVTG,132.54,T,,M,1.00,N,1.8,K,A*04
$GPGGA,215622.000,3748.5316,N,12217.8471,W,1,06,1.3,-2.7,M,-25.1,M,,0000*4D
$GPGSA,A,3,08,01,17,27,15,28,,,,,,,2.3,1.3,1.9*3D
$GPGSV,3,1,10,17,79,060,23,28,49,055,26,27,40,314,21,26,35,221,17*77
$GPGSV,3,2,10,15,32,273,19,08,30,130,32,09,24,316,23,04,20,161,18*79
$GPGSV,3,3,10,01,16,047,26,11,02,038,*70
$GPRMC,215622.000,A,3748.5316,N,12217.8471,W,1.51,116.00,170712,,,A*79
$GPVTG,116.00,T,,M,1.51,N,2.8,K,A*04
$GPGGA,215623.000,3748.5316,N,12217.8469,W,1,06,1.3,-3.1,M,-25.1,M,,0000*42
$GPGSA,A,3,08,01,17,27,15,28,,,,,,,2.3,1.3,1.9*3D
$GPRMC,215623.000,A,3748.5316,N,12217.8469,W,1.54,131.33,170712,,,A*71
$GPVTG,131.33,T,,M,1.54,N,2.9,K,A*05
$GPGGA,215624.000,3748.5312,N,12217.8462,W,1,06,1.3,-3.4,M,-25.1,M,,0000*4F
$GPGSA,A,3,08,01,17,27,15,28,,,,,,,2.3,1.3,1.9*3D
$GPRMC,215624.000,A,3748.5312,N,12217.8462,W,1.72,141.11,170712,,,A*7A
$GPVTG,141.11,T,,M,1.72,N,3.2,K,A*0C
$GPGGA,215625.000,3748.5307,N,12217.8452,W,1,06,1.3,-4.0,M,-25.1,M,,0000*4A
$GPGSA,A,3,08,01,17,27,15,28,,,,,,,2.3,1.3,1.9*3D
$GPRMC,215625.000,A,3748.5307,N,12217.8452,W,1.98,130.79,170712,,,A*70
$GPVTG,130.79,T,,M,1.98,N,3.7,K,A*05
$GPGGA,215626.000,3748.5304,N,12217.8443,W,1,06,1.3,-4.1,M,-25.1,M,,0000*4B
$GPGSA,A,3,08,01,17,27,15,28,,,,,,,2.3,1.3,1.9*3D
$GPRMC,215626.000,A,3748.5304,N,12217.8443,W,1.63,124.18,170712,,,A*76
$GPVTG,124.18,T,,M,1.63,N,3.0,K,A*04
$GPGGA,215627.000,3748.5302,N,12217.8438,W,1,06,1.3,-4.3,M,-25.1,M,,0000*42
$GPGSA,A,3,08,01,17,27,15,28,,,,,,,2.3,1.3,1.9*3D
$GPGSV,3,1,10,17,79,060,23,28,49,055,26,27,40,314,24,26,35,221,17*72
$GPGSV,3,2,10,15,32,273,20,08,30,130,31,09,24,316,29,04,20,161,17*75
$GPGSV,3,3,10,01,16,047,25,11,02,038,*73
$GPRMC,215627.000,A,3748.5302,N,12217.8438,W,2.03,111.09,170712,,,A*7E
$GPVTG,111.09,T,,M,2.03,N,3.8,K,A*0F
$GPGGA,215628.000,3748.5301,N,12217.8435,W,1,06,1.3,-4.8,M,-25.1,M,,0000*48
$GPGSA,A,3,08,01,17,27,15,28,,,,,,,2.3,1.3,1.9*3D
$GPRMC,215628.000,A,3748.5301,N,12217.8435,W,1.88,107.36,170712,,,A*74
$GPVTG,107.36,T,,M,1.88,N,3.5,K,A*09
$GPGGA,215629.000,3748.5298,N,12217.8436,W,1,06,1.3,-5.6,M,-25.1,M,,0000*44
$GPGSA,A,3,08,01,17,27,15,28,,,,,,,2.3,1.3,1.9*3D
$GPRMC,215629.000,A,3748.5298,N,12217.8436,W,1.52,120.38,170712,,,A*7B
$GPVTG,120.38,T,,M,1.52,N,2.8,K,A*09
$GPGGA,215630.000,3748.5294,N,12217.8435,W,1,06,1.3,-6.2,M,-25.1,M,,0000*44
$GPGSA,A,3,08,01,17,27,15,28,,,,,,,2.3,1.3,1.9*3D
$GPRMC,215630.000,A,3748.5294,N,12217.8435,W,1.67,119.99,170712,,,A*7B
$GPVTG,119.99,T,,M,1.67,N,3.1,K,A*06
$GPGGA,215631.000,3748.5289,N,12217.8428,W,1,06,1.3,-5.3,M,-25.1,M,,0000*47
$GPGSA,A,3,08,01,17,27,15,28,,,,,,,2.3,1.3,1.9*3D
$GPRMC,215631.000,A,3748.5289,N,12217.8428,W,1.31,116.94,170712,,,A*7B
$GPVTG,116.94,T,,M,1.31,N,2.4,K,A*03
$GPGGA,215632.000,3748.5284,N,12217.8424,W,1,06,1.3,-5.5,M,-25.1,M,,0000*43
$GPGSA,A,3,08,01,17,27,15,28,,,,,,,2.3,1.3,1.9*3D
$GPGSV,3,1,10,17,79,060,23,28,49,055,23,27,40,314,23,26,35,221,16*71
$GPGSV,3,2,10,15,32,273,19,08,30,130,26,09,24,316,27,04,20,161,16*76
$GPGSV,3,3,10,01,16,047,26,11,02,038,*70
$GPRMC,215632.000,A,3748.5284,N,12217.8424,W,1.55,144.09,170712,,,A*78
$GPVTG,144.09,T,,M,1.55,N,2.9,K,A*0F
$GPGGA,215633.000,3748.5286,N,12217.8416,W,1,06,1.3,-5.0,M,-25.1,M,,0000*44
$GPGSA,A,3,08,01,17,27,15,28,,,,,,,2.3,1.3,1.9*3D
$GPRMC,215633.000,A,3748.5286,N,12217.8416,W,0.88,137.27,170712,,,A*73
$GPVTG,137.27,T,,M,0.88,N,1.6,K,A*0A
$GPGGA,215634.000,3748.5287,N,12217.8415,W,1,06,1.3,-5.9,M,-25.1,M,,0000*48
$GPGSA,A,3,08,01,17,27,15,28,,,,,,,2.3,1.3,1.9*3D
$GPRMC,215634.000,A,3748.5287,N,12217.8415,W,1.31,117.46,170712,,,A*70
$GPVTG,117.46,T,,M,1.31,N,2.4,K,A*0D
$GPGGA,215635.000,3748.5286,N,12217.8408,W,1,06,1.3,-6.4,M,-25.1,M,,0000*4A
$GPGSA,A,3,08,01,17,27,15,28,,,,,,,2.3,1.3,1.9*3D
$GPRMC,215635.000,A,3748.5286,N,12217.8408,W,2.05,109.86,170712,,,A*7B
$GPVTG,109.86,T,,M,2.05,N,3.8,K,A*07
$GPGGA,215636.000,3748.5285,N,12217.8403,W,1,06,1.2,-7.6,M,-25.1,M,,0000*43
$GPGSA,A,3,08,01,17,27,15,28,,,,,,,2.3,1.2,1.9*3C
$GPRMC,215636.000,A,3748.5285,N,12217.8403,W,1.98,113.71,170712,,,A*74
$GPVTG,113.71,T,,M,1.98,N,3.7,K,A*0C
$GPGGA,215637.000,3748.5280,N,12217.8400,W,1,06,1.2,-9.1,M,-25.1,M,,0000*4D
$GPGSA,A,3,08,01,17,27,15,28,,,,,,,2.3,1.2,1.9*3C
$GPGSV,3,1,10,17,79,060,22,28,49,055,24,27,40,314,24,26,35,221,*77
$GPGSV,3,2,10,15,32,273,18,08,30,130,28,09,24,316,27,04,20,161,15*7A
$GPGSV,3,3,10,01,16,047,26,11,02,038,*70
$GPRMC,215637.000,A,3748.5280,N,12217.8400,W,1.39,143.75,170712,,,A*79
$GPVTG,143.75,T,,M,1.39,N,2.6,K,A*06
$GPGGA,215638.000,3748.5276,N,12217.8397,W,1,06,1.2,-10.6,M,-25.1,M,,0000*7D
$GPGSA,A,3,08,01,17,27,15,28,,,,,,,2.3,1.2,1.9*3C
$GPRMC,215638.000,A,3748.5276,N,12217.8397,W,1.25,140.66,170712,,,A*7A
$GPVTG,140.66,T,,M,1.25,N,2.3,K,A*0F
$GPGGA,215639.000,3748.5276,N,12217.8394,W,1,06,1.2,-10.7,M,-25.1,M,,0000*7E
$GPGSA,A,3,08,01,17,27,15,28,,,,,,,2.3,1.2,1.9*3C
$GPRMC,215639.000,A,3748.5276,N,12217.8394,W,1.38,116.09,170712,,,A*7E
$GPVTG,116.09,T,,M,1.38,N,2.6,K,A*0C
$GPGGA,215640.000,3748.5274,N,12217.8393,W,1,06,1.2,-12.2,M,-25.1,M,,0000*72
$GPGSA,A,3,08,01,17,27,15,28,,,,,,,2.3,1.2,1.9*3C
$GPRMC,215640.000,A,3748.5274,N,12217.8393,W,1.37,90.40,170712,,,A*48
$GPVTG,90.40,T,,M,1.37,N,2.5,K,A*32
$GPGGA,215641.000,3748.5271,N,12217.8388,W,1,06,1.2,-13.1,M,-25.1,M,,0000*7E
$GPGSA,A,3,08,01,17,27,15,28,,,,,,,2.3,1.2,1.9*3C
$GPRMC,215641.000,A,3748.5271,N,12217.8388,W,1.44,133.96,170712,,,A*71
$GPVTG,133.96,T,,M,1.44,N,2.7,K,A*07
$GPGGA,215642.000,3748.5266,N,12217.8386,W,1,06,1.2,-14.5,M,-25.1,M,,0000*76
$GPGSA,A,3,08,01,17,27,15,28,,,,,,,2.3,1.2,1.9*3C
$GPGSV,3,1,11,17,79,060,22,28,49,055,27,27,40,314,23,26,35,221,*72
$GPGSV,3,2,11,15,32,273,18,08,30,130,29,09,24,316,27,04,20,161,15*7A
$GPGSV,3,3,11,01,16,047,33,11,02,038,,51,43,156,27*41
$GPRMC,215642.000,A,3748.5266,N,12217.8386,W,1.67,127.17,170712,,,A*77
$GPVTG,127.17,T,,M,1.67,N,3.1,K,A*0D
$GPGGA,215643.000,3748.5265,N,12217.8382,W,1,06,1.2,-14.8,M,-25.1,M,,0000*7D
$GPGSA,A,3,08,01,17,27,15,28,,,,,,,2.3,1.2,1.9*3C
$GPRMC,215643.000,A,3748.5265,N,12217.8382,W,1.52,125.07,170712,,,A*74
$GPVTG,125.07,T,,M,1.52,N,2.8,K,A*00
$GPGGA,215644.000,3748.5263,N,12217.8377,W,1,06,1.2,-15.0,M,-25.1,M,,0000*7F
$GPGSA,A,3,08,01,17,27,15,28,,,,,,,2.3,1.2,1.9*3C
$GPRMC,215644.000,A,3748.5263,N,12217.8377,W,0.82,162.19,170712,,,A*7F
$GPVTG,162.19,T,,M,0.82,N,1.5,K,A*0E
$GPGGA,215645.000,3748.5262,N,12217.8380,W,1,06,1.2,-15.6,M,-25.1,M,,0000*71
$GPGSA,A,3,08,01,17,27,15,28,,,,,,,2.3,1.2,1.9*3C
$GPRMC,215645.000,A,3748.5262,N,12217.8380,W,0.72,181.14,170712,,,A*78
$GPVTG,181.14,T,,M,0.72,N,1.3,K,A*07
$GPGGA,215646.000,3748.5259,N,12217.8374,W,1,06,1.2,-15.5,M,-25.1,M,,0000*72
$GPGSA,A,3,08,01,17,27,15,28,,,,,,,2.3,1.2,1.9*3C
$GPRMC,215646.000,A,3748.5259,N,12217.8374,W,1.10,171.51,170712,,,A*73
$GPVTG,171.51,T,,M,1.10,N,2.0,K,A*0C
$GPGGA,215647.000,3748.5257,N,12217.8369,W,1,06,1.2,-16.6,M,-25.1,M,,0000*71
$GPGSA,A,3,08,01,17,27,15,28,,,,,,,2.3,1.2,1.9*3C
$GPGSV,3,1,11,17,79,060,22,28,49,055,26,27,40,314,20,26,35,221,*70
$GPGSV,3,2,11,15,32,273,18,08,30,130,29,09,24,316,23,04,20,161,16*7D
$GPGSV,3,3,11,01,16,047,33,11,02,038,,51,43,156,27*41
$GPRMC,215647.000,A,3748.5257,N,12217.8369,W,0.96,165.82,170712,,,A*74
$GPGGA,215648.000,3748.5254,N,12217.8361,W,1,06,1.2,-14.8,M,-25.1,M,,0000*79
$GPGSA,A,3,08,01,17,27,15,28,,,,,,,2.3,1.2,1.9*3C
$GPRMC,215648.000,A,3748.5254,N,12217.8361,W,1.64,116.76,170712,,,A*73
$GPVTG,116.76,T,,M,1.64,N,3.0,K,A*0A
$GPGGA,215649.000,3748.5256,N,12217.8349,W,1,06,1.2,-14.5,M,-25.1,M,,0000*7D
$GPGSA,A,3,08,01,17,27,15,28,,,,,,,2.3,1.2,1.9*3C
$GPRMC,215649.000,A,3748.5256,N,12217.8349,W,1.62,120.90,170712,,,A*71
$GPVTG,120.90,T,,M,1.62,N,3.0,K,A*01
$GPGGA,215650.000,3748.5253,N,12217.8338,W,1,06,1.2,-14.1,M,-25.1,M,,0000*72
$GPGSA,A,3,08,01,17,27,15,28,,,,,,,2.3,1.2,1.9*3C
$GPRMC,215650.000,A,3748.5253,N,12217.8338,W,1.99,124.36,170712,,,A*76
$GPVTG,124.36,T,,M,1.99,N,3.7,K,A*0A
$GPGGA,215651.000,3748.5252,N,12217.8331,W,1,06,1.2,-13.7,M,-25.1,M,,0000*7A
$GPGSA,A,3,08,01,17,27,15,28,,,,,,,2.3,1.2,1.9*3C
$GPRMC,215651.000,A,3748.5252,N,12217.8331,W,1.68,118.07,170712,,,A*7C
$GPVTG,118.07,T,,M,1.68,N,3.1,K,A*0F
$GPGGA,215652.000,3748.5254,N,12217.8324,W,1,06,1.2,-13.6,M,-25.1,M,,0000*7A
$GPGSA,A,3,08,01,17,27,15,28,,,,,,,2.3,1.2,1.9*3C
$GPGSV,3,1,11,17,79,060,22,28,49,055,26,27,40,314,24,26,35,221,*74
$GPGSV,3,2,11,15,32,273,26,08,30,130,21,09,24,316,30,04,20,161,17*7B
$GPGSV,3,3,11,01,16,047,29,11,02,038,,51,43,156,30*4C
$GPRMC,215652.000,A,3748.5254,N,12217.8324,W,1.03,74.51,170712,,,A*48
$GPVTG,74.51,T,,M,1.03,N,1.9,K,A*30
$GPGGA,215653.000,3748.5256,N,12217.8311,W,1,06,1.2,-11.9,M,-25.1,M,,0000*72
$GPGSA,A,3,08,01,17,27,15,28,,,,,,,2.3,1.2,1.9*3C
$GPRMC,215653.000,A,3748.5256,N,12217.8311,W,1.11,73.36,170712,,,A*48
$GPVTG,73.36,T,,M,1.11,N,2.1,K,A*3E
$GPGGA,215654.000,3748.5255,N,12217.8308,W,1,06,1.2,-11.2,M,-25.1,M,,0000*75
$GPGSA,A,3,08,01,17,27,15,28,,,,,,,2.3,1.2,1.9*3C
$GPRMC,215654.000,A,3748.5255,N,12217.8308,W,1.42,47.09,170712,,,A*49
$GPVTG,47.09,T,,M,1.42,N,2.6,K,A*34
$GPGGA,215655.000,3748.5251,N,12217.8299,W,1,06,1.2,-10.6,M,-25.1,M,,0000*7C
$GPGSA,A,3,08,01,17,27,15,28,,,,,,,2.3,1.2,1.9*3C
$GPRMC,215655.000,A,3748.5251,N,12217.8299,W,1.05,87.20,170712,,,A*41
$GPVTG,87.20,T,,M,1.05,N,1.9,K,A*3C
$GPGGA,215656.000,3748.5243,N,12217.8292,W,1,06,1.2,-11.1,M,-25.1,M,,0000*71
$GPGSA,A,3,08,01,17,27,15,28,,,,,,,2.3,1.2,1.9*3C
$GPRMC,215656.000,A,3748.5243,N,12217.8292,W,1.70,141.70,170712,,,A*76
$GPVTG,141.70,T,,M,1.70,N,3.2,K,A*09
$GPGGA,215657.000,3748.5238,N,12217.8289,W,1,06,1.2,-11.7,M,-25.1,M,,0000*70
$GPGSA,A,3,08,01,17,27,15,28,,,,,,,2.3,1.2,1.9*3C
$GPGSV,3,1,11,17,79,060,22,28,49,055,27,27,40,314,23,26,35,221,19*7A
$GPGSV,3,2,11,15,32,273,21,08,30,130,21,09,24,316,26,04,20,161,17*7B
$GPGSV,3,3,11,01,16,047,29,11,02,038,,51,43,156,26*4B
$GPRMC,215657.000,A,3748.5238,N,12217.8289,W,1.47,130.99,170712,,,A*74
$GPVTG,130.99,T,,M,1.47,N,2.7,K,A*08
$GPGGA,215658.000,3748.5237,N,12217.8285,W,1,06,1.2,-10.3,M,-25.1,M,,0000*79
$GPGSA,A,3,08,01,17,27,15,28,,,,,,,2.3,1.2,1.9*3C
$GPRMC,215658.000,A,3748.5237,N,12217.8285,W,1.04,120.74,170712,,,A*7D
$GPVTG,120.74,T,,M,1.04,N,1.9,K,A*00
$GPGGA,215659.000,3748.5231,N,12217.8279,W,1,06,1.2,-10.7,M,-25.1,M,,0000*79
$GPGSA,A,3,08,01,17,27,15,28,,,,,,,2.3,1.2,1.9*3C
$GPRMC,215659.000,A,3748.5231,N,12217.8279,W,1.78,134.60,170712,,,A*72
$GPVTG,134.60,T,,M,1.78,N,3.3,K,A*03
$GPGGA,215700.000,3748.5225,N,12217.8273,W,1,06,1.2,-11.4,M,-25.1,M,,0000*79
$GPGSA,A,3,08,01,17,27,15,28,,,,,,,2.3,1.2,1.9*3C
$GPRMC,215700.000,A,3748.5225,N,12217.8273,W,1.50,110.28,170712,,,A*70
$GPVTG,110.28,T,,M,1.50,N,2.8,K,A*09
$GPGGA,215701.000,3748.5224,N,12217.8270,W,1,06,1.2,-11.7,M,-25.1,M,,0000*79
$GPGSA,A,3,08,01,17,27,15,28,,,,,,,2.3,1.2,1.9*3C
$GPRMC,215701.000,A,3748.5224,N,12217.8270,W,1.67,118.11,170712,,,A*75
$GPVTG,118.11,T,,M,1.67,N,3.1,K,A*07
$GPGGA,215702.000,3748.5223,N,12217.8259,W,1,06,1.2,-10.6,M,-25.1,M,,0000*76
$GPGSA,A,3,08,01,17,27,15,28,,,,,,,2.3,1.2,1.9*3C
$GPGSV,3,1,10,17,79,060,23,28,49,055,27,27,40,314,23,26,35,221,18*7B
$GPGSV,3,2,10,15,32,273,21,08,30,130,21,09,24,316,26,04,20,161,18*75
$GPGSV,3,3,10,01,16,047,29,11,02,038,*7F
$GPRMC,215702.000,A,3748.5223,N,12217.8259,W,1.64,103.27,170712,,,A*76
$GPGGA,215703.000,3748.5214,N,12217.8253,W,1,06,1.2,-10.1,M,-25.1,M,,0000*7E
$GPGSA,A,3,08,01,17,27,15,28,,,,,,,2.3,1.2,1.9*3C
$GPRMC,215703.000,A,3748.5214,N,12217.8253,W,2.53,146.21,170712,,,A*79
$GPVTG,146.21,T,,M,2.53,N,4.7,K,A*0A
$GPGGA,215704.000,3748.5212,N,12217.8254,W,1,06,1.2,-10.2,M,-25.1,M,,0000*7B
$GPGSA,A,3,08,01,17,27,15,28,,,,,,,2.3,1.2,1.9*3C
$GPRMC,215704.000,A,3748.5212,N,12217.8254,W,1.68,148.48,170712,,,A*75
$GPVTG,148.48,T,,M,1.68,N,3.1,K,A*01
$GPGGA,215705.000,3748.5211,N,12217.8252,W,1,06,1.2,-10.2,M,-25.1,M,,0000*7F
$GPGSA,A,3,08,01,17,27,15,28,,,,,,,2.3,1.2,1.9*3C
$GPRMC,215705.000,A,3748.5211,N,12217.8252,W,1.90,129.29,170712,,,A*76
$GPVTG,129.29,T,,M,1.90,N,3.5,K,A*02
$GPGGA,215706.000,3748.5209,N,12217.8245,W,1,06,1.2,-10.0,M,-25.1,M,,0000*71
$GPGSA,A,3,08,01,17,27,15,28,,,,,,,2.3,1.2,1.9*3C
$GPRMC,215706.000,A,3748.5209,N,12217.8245,W,2.09,136.48,170712,,,A*70
$GPVTG,136.48,T,,M,2.09,N,3.9,K,A*04
$GPGGA,215707.000,3748.5206,N,12217.8244,W,1,06,1.2,-10.4,M,-25.1,M,,0000*7A
$GPGSA,A,3,08,01,17,27,15,28,,,,,,,2.3,1.2,1.9*3C
$GPGSV,3,1,10,17,79,060,23,28,49,055,33,27,40,314,24,26,35,221,17*76
$GPGSV,3,2,10,15,32,273,22,08,30,130,33,09,24,316,27,04,20,161,20*7F
$GPGSV,3,3,10,01,16,047,36,11,02,038,17*77
$GPRMC,215707.000,A,3748.5206,N,12217.8244,W,2.49,143.81,170712,,,A*7C
$GPVTG,143.81,T,,M,2.49,N,4.6,K,A*0F
$GPGGA,215708.000,3748.5200,N,12217.8240,W,1,06,1.2,-11.2,M,-25.1,M,,0000*70
$GPGSA,A,3,08,01,17,27,15,28,,,,,,,2.3,1.2,1.9*3C
$GPRMC,215708.000,A,3748.5200,N,12217.8240,W,1.59,145.10,170712,,,A*7D
$GPVTG,145.10,T,,M,1.59,N,2.9,K,A*0A
$GPGGA,215709.000,3748.5197,N,12217.8239,W,1,06,1.2,-13.5,M,-25.1,M,,0000*77
$GPGSA,A,3,08,01,17,27,15,28,,,,,,,2.3,1.2,1.9*3C
$GPRMC,215709.000,A,3748.5197,N,12217.8239,W,1.45,145.38,170712,,,A*78
$GPVTG,145.38,T,,M,1.45,N,2.7,K,A*03
$GPGGA,215710.000,3748.5194,N,12217.8230,W,1,06,1.2,-13.3,M,-25.1,M,,0000*73
$GPGSA,A,3,08,01,17,27,15,28,,,,,,,2.3,1.2,1.9*3C
$GPRMC,215710.000,A,3748.5194,N,12217.8230,W,2.03,130.47,170712,,,A*71
$GPVTG,130.47,T,,M,2.03,N,3.8,K,A*06
$GPGGA,215711.000,3748.5189,N,12217.8223,W,1,06,1.2,-12.9,M,-25.1,M,,0000*77
$GPGSA,A,3,08,01,17,27,15,28,,,,,,,2.3,1.2,1.9*3C
$GPRMC,215711.000,A,3748.5189,N,12217.8223,W,2.44,119.38,170712,,,A*7E
$GPVTG,119.38,T,,M,2.44,N,4.5,K,A*0C
$GPGGA,215712.000,3748.5186,N,12217.8215,W,1,06,1.2,-12.5,M,-25.1,M,,0000*72
$GPGSA,A,3,08,01,17,27,15,28,,,,,,,2.3,1.2,1.9*3C
$GPGSV,3,1,11,17,79,060,28,28,49,055,30,27,40,314,23,26,35,221,25*79
$GPGSV,3,2,11,15,32,273,23,08,30,130,38,09,24,316,26,04,20,161,25*70
$GPGSV,3,3,11,01,16,047,26,11,02,038,17,51,43,156,30*45
$GPRMC,215712.000,A,3748.5186,N,12217.8215,W,2.06,107.65,170712,,,A*76
$GPVTG,107.65,T,,M,2.06,N,3.8,K,A*07
$GPGGA,215713.000,3748.5182,N,12217.8207,W,1,06,1.2,-11.5,M,-25.1,M,,0000*77
$GPGSA,A,3,08,01,17,27,15,28,,,,,,,2.3,1.2,1.9*3C
$GPRMC,215713.000,A,3748.5182,N,12217.8207,W,2.00,130.32,170712,,,A*70
$GPVTG,130.32,T,,M,2.00,N,3.7,K,A*08
$GPGGA,215714.000,3748.5179,N,12217.8200,W,1,05,1.9,-11.9,M,-25.1,M,,0000*77
$GPGSA,A,3,08,17,27,15,28,,,,,,,,3.7,1.9,3.2*3A
$GPRMC,215714.000,A,3748.5179,N,12217.8200,W,2.33,120.96,170712,,,A*7B
$GPVTG,120.96,T,,M,2.33,N,4.3,K,A*04
$GPGGA,215715.000,3748.5176,N,12217.8194,W,1,06,1.2,-11.3,M,-25.1,M,,0000*75
$GPGSA,A,3,08,01,17,27,15,28,,,,,,,2.3,1.2,1.9*3C
$GPRMC,215715.000,A,3748.5176,N,12217.8194,W,1.70,131.06,170712,,,A*76
$GPVTG,131.06,T,,M,1.70,N,3.1,K,A*0C
$GPGGA,215716.000,3748.5167,N,12217.8187,W,1,06,1.2,-11.2,M,-25.1,M,,0000*75
$GPGSA,A,3,08,01,17,27,15,28,,,,,,,2.3,1.2,1.9*3C
$GPRMC,215716.000,A,3748.5167,N,12217.8187,W,2.52,156.09,170712,,,A*7A
$GPVTG,156.09,T,,M,2.52,N,4.7,K,A*00
$GPGGA,215717.000,3748.5166,N,12217.8177,W,1,06,1.2,-11.2,M,-25.1,M,,0000*7A
$GPGSA,A,3,08,01,17,27,15,28,,,,,,,2.3,1.2,1.9*3C
$GPGSV,3,1,11,17,79,060,24,28,49,055,28,27,40,314,24,26,35,221,18*75
$GPGSV,3,2,11,15,32,273,22,08,30,130,34,09,24,316,23,04,20,161,22*7F
$GPGSV,3,3,11,01,16,047,20,11,02,038,,51,43,156,31*44
$GPRMC,215717.000,A,3748.5166,N,12217.8177,W,1.83,128.83,170712,,,A*71
$GPGGA,215718.000,3748.5163,N,12217.8174,W,1,06,1.2,-12.8,M,-25.1,M,,0000*7A
$GPGSA,A,3,08,01,17,27,15,28,,,,,,,2.3,1.2,1.9*3C
$GPRMC,215718.000,A,3748.5163,N,12217.8174,W,1.62,141.45,170712,,,A*72
$GPVTG,141.45,T,,M,1.62,N,3.0,K,A*0E
$GPGGA,215719.000,3748.5161,N,12217.8168,W,1,06,1.2,-13.4,M,-25.1,M,,0000*79
$GPGSA,A,3,08,01,17,27,15,28,,,,,,,2.3,1.2,1.9*3C
$GPRMC,215719.000,A,3748.5161,N,12217.8168,W,1.96,119.92,170712,,,A*70
$GPVTG,119.92,T,,M,1.96,N,3.6,K,A*04
$GPGGA,215720.000,3748.5158,N,12217.8160,W,1,06,1.2,-12.6,M,-25.1,M,,0000*72
$GPGSA,A,3,08,01,17,27,15,28,,,,,,,2.3,1.2,1.9*3C
$GPRMC,215720.000,A,3748.5158,N,12217.8160,W,1.77,125.20,170712,,,A*71
$GPVTG,125.20,T,,M,1.77,N,3.3,K,A*08
$GPGGA,215721.000,3748.5154,N,12217.8153,W,1,06,1.2,-12.2,M,-25.1,M,,0000*7B
$GPGSA,A,3,08,01,17,27,15,28,,,,,,,2.3,1.2,1.9*3C
$GPRMC,215721.000,A,3748.5154,N,12217.8153,W,1.91,120.37,170712,,,A*77
$GPVTG,120.37,T,,M,1.91,N,3.5,K,A*05
$GPGGA,215722.000,3748.5154,N,12217.8149,W,1,06,1.2,-14.4,M,-25.1,M,,0000*73
$GPGSA,A,3,08,01,17,27,15,28,,,,,,,2.3,1.2,1.9*3C
$GPGSV,3,1,11,17,79,060,27,28,49,055,28,27,40,314,26,26,35,221,25*7A
$GPGSV,3,2,11,15,32,273,23,08,30,130,37,09,24,316,26,04,20,161,23*79
$GPGSV,3,3,11,01,16,047,20,11,02,038,,51,43,156,29*4D
$GPRMC,215722.000,A,3748.5154,N,12217.8149,W,1.61,114.86,170712,,,A*7D
$GPVTG,114.86,T,,M,1.61,N,3.0,K,A*02
$GPGGA,215723.000,3748.5149,N,12217.8144,W,1,06,1.2,-13.5,M,-25.1,M,,0000*75
$GPGSA,A,3,08,01,17,27,15,28,,,,,,,2.3,1.2,1.9*3C
$GPRMC,215723.000,A,3748.5149,N,12217.8144,W,1.98,113.85,170712,,,A*7F
$GPVTG,113.85,T,,M,1.98,N,3.7,K,A*07
$GPGGA,215724.000,3748.5147,N,12217.8132,W,1,06,1.2,-11.8,M,-25.1,M,,0000*72
$GPGSA,A,3,08,01,17,27,15,28,,,,,,,2.3,1.2,1.9*3C
$GPRMC,215724.000,A,3748.5147,N,12217.8132,W,2.33,103.64,170712,,,A*7B
$GPVTG,103.64,T,,M,2.33,N,4.3,K,A*08
$GPGGA,215725.000,3748.5148,N,12217.8122,W,1,06,1.2,-12.4,M,-25.1,M,,0000*72
$GPGSA,A,3,08,01,17,27,15,28,,,,,,,2.3,1.2,1.9*3C
$GPRMC,215725.000,A,3748.5148,N,12217.8122,W,2.36,94.60,170712,,,A*4A
$GPVTG,94.60,T,,M,2.36,N,4.4,K,A*31
$GPGGA,215726.000,3748.5149,N,12217.8109,W,1,06,1.2,-12.0,M,-25.1,M,,0000*7D
$GPGSA,A,3,08,01,17,27,15,28,,,,,,,2.3,1.2,1.9*3C
$GPRMC,215726.000,A,3748.5149,N,12217.8109,W,2.15,105.51,170712,,,A*7B
$GPVTG,105.51,T,,M,2.15,N,4.0,K,A*0F
$GPGGA,215727.000,3748.5147,N,12217.8099,W,1,06,1.2,-11.8,M,-25.1,M,,0000*71
$GPGSA,A,3,08,01,17,27,15,28,,,,,,,2.3,1.2,1.9*3C
$GPGSV,3,1,11,17,79,060,23,28,49,055,26,27,40,314,23,26,35,221,20*70
$GPGSV,3,2,11,15,32,273,27,08,30,130,36,09,24,316,23,04,20,161,22*78
$GPGSV,3,3,11,01,16,047,20,11,02,038,,51,43,156,25*41
$GPRMC,215727.000,A,3748.5147,N,12217.8099,W,1.84,132.09,170712,,,A*7E
$GPVTG,132.09,T,,M,1.84,N,3.4,K,A*0E
$GPGGA,215728.000,3748.5141,N,12217.8097,W,1,06,1.2,-11.3,M,-25.1,M,,0000*7D
$GPGSA,A,3,08,01,17,27,15,28,,,,,,,2.3,1.2,1.9*3C
$GPRMC,215728.000,A,3748.5141,N,12217.8097,W,2.26,133.93,170712,,,A*70
$GPVTG,133.93,T,,M,2.26,N,4.2,K,A*06
$GPGGA,215729.000,3748.5134,N,12217.8091,W,1,06,1.2,-9.1,M,-25.1,M,,0000*43
$GPGSA,A,3,08,01,17,27,15,28,,,,,,,2.3,1.2,1.9*3C
$GPRMC,215729.000,A,3748.5134,N,12217.8091,W,2.38,133.77,170712,,,A*70
$GPVTG,133.77,T,,M,2.38,N,4.4,K,A*05
$GPGGA,215730.000,3748.5128,N,12217.8086,W,1,06,1.2,-8.7,M,-25.1,M,,0000*47
$GPGSA,A,3,08,01,17,27,15,28,,,,,,,2.3,1.2,1.9*3C
$GPRMC,215730.000,A,3748.5128,N,12217.8086,W,2.13,153.84,170712,,,A*70
$GPVTG,153.84,T,,M,2.13,N,3.9,K,A*0C
$GPGGA,215731.000,3748.5122,N,12217.8081,W,1,06,1.2,-6.9,M,-25.1,M,,0000*4B
$GPGSA,A,3,08,01,17,27,15,28,,,,,,,2.3,1.2,1.9*3C
$GPRMC,215731.000,A,3748.5122,N,12217.8081,W,2.01,145.40,170712,,,A*70
$GPVTG,145.40,T,,M,2.01,N,3.7,K,A*0E
$GPGGA,215732.000,3748.5114,N,12217.8077,W,1,06,1.2,-6.3,M,-25.1,M,,0000*4E
$GPGSA,A,3,08,01,17,27,15,28,,,,,,,2.3,1.2,1.9*3C
$GPGSV,3,1,11,17,79,060,23,28,49,055,26,27,40,314,23,26,35,221,23*73
$GPGSV,3,2,11,15,32,273,27,08,30,130,35,09,24,316,21,04,20,161,28*73
$GPGSV,3,3,11,01,16,047,20,11,02,038,,51,43,156,25*41
$GPVTG,133.63,T,,M,2.23,N,4.1,K,A*0F
$GPGGA,215733.000,3748.5112,N,12217.8067,W,1,06,1.2,-7.6,M,-25.1,M,,0000*4C
$GPGSA,A,3,08,01,17,27,15,28,,,,,,,2.3,1.2,1.9*3C
$GPRMC,215733.000,A,3748.5112,N,12217.8067,W,2.27,136.98,170712,,,A*7C
$GPVTG,136.98,T,,M,2.27,N,4.2,K,A*09
$GPGGA,215734.000,3748.5110,N,12217.8058,W,1,06,1.2,-8.1,M,-25.1,M,,0000*4D
$GPGSA,A,3,08,01,17,27,15,28,,,,,,,2.3,1.2,1.9*3C
$GPRMC,215734.000,A,3748.5110,N,12217.8058,W,1.94,132.36,170712,,,A*7E
$GPVTG,132.36,T,,M,1.94,N,3.6,K,A*01
$GPGGA,215735.000,3748.5107,N,12217.8051,W,1,06,1.2,-8.1,M,-25.1,M,,0000*43
$GPGSA,A,3,08,01,17,27,15,28,,,,,,,2.3,1.2,1.9*3C
$GPRMC,215735.000,A,3748.5107,N,12217.8051,W,2.00,134.43,170712,,,A*7A
$GPVTG,134.43,T,,M,2.00,N,3.7,K,A*0A
$GPGGA,215736.000,3748.5103,N,12217.8046,W,1,06,1.2,-8.0,M,-25.1,M,,0000*43
$GPGSA,A,3,08,01,17,27,15,28,,,,,,,2.3,1.2,1.9*3C
$GPRMC,215736.000,A,3748.5103,N,12217.8046,W,2.13,121.33,170712,,,A*7A
$GPVTG,121.33,T,,M,2.13,N,3.9,K,A*05
$GPGGA,215737.000,3748.5099,N,12217.8039,W,1,06,1.2,-8.5,M,-25.1,M,,0000*4D
$GPGSA,A,3,08,01,17,27,15,28,,,,,,,2.3,1.2,1.9*3C
$GPGSV,3,1,11,17,79,060,24,28,49,055,32,27,40,314,30,26,35,221,22*72
$GPGSV,3,2,11,15,32,273,27,08,30,130,35,09,24,316,27,04,20,161,32*7E
$GPGSV,3,3,11,01,16,047,20,11,02,038,,51,43,156,32*47
$GPRMC,215737.000,A,3748.5099,N,12217.8039,W,2.22,132.48,170712,,,A*7D
$GPVTG,132.48,T,,M,2.22,N,4.1,K,A*06
$GPGGA,215738.000,3748.5094,N,12217.8032,W,1,06,1.2,-7.7,M,-25.1,M,,0000*49
$GPGSA,A,3,08,01,17,27,15,28,,,,,,,2.3,1.2,1.9*3C
$GPRMC,215738.000,A,3748.5094,N,12217.8032,W,1.94,119.78,170712,,,A*70
$GPVTG,119.78,T,,M,1.94,N,3.6,K,A*02
$GPGGA,215739.000,3748.5087,N,12217.8025,W,1,06,1.2,-6.8,M,-25.1,M,,0000*42
$GPGSA,A,3,08,01,17,27,15,28,,,,,,,2.3,1.2,1.9*3C
$GPRMC,215739.000,A,3748.5087,N,12217.8025,W,2.39,128.53,170712,,,A*7A
$GPVTG,128.53,T,,M,2.39,N,4.4,K,A*08
$GPGGA,215740.000,3748.5083,N,12217.8019,W,1,06,1.2,-7.5,M,-25.1,M,,0000*4B
$GPGSA,A,3,08,01,17,27,15,28,,,,,,,2.3,1.2,1.9*3C
$GPRMC,215740.000,A,3748.5083,N,12217.8019,W,1.67,134.30,170712,,,A*7F
$GPVTG,134.30,T,,M,1.67,N,3.1,K,A*0A
$GPGGA,215741.000,3748.5081,N,12217.8013,W,1,06,1.2,-6.4,M,-25.1,M,,0000*42
$GPGSA,A,3,08,01,17,27,15,28,,,,,,,2.3,1.2,1.9*3C
$GPRMC,215741.000,A,3748.5081,N,12217.8013,W,1.60,116.74,170712,,,A*71
$GPVTG,116.74,T,,M,1.60,N,3.0,K,A*0C
$GPGGA,215742.000,3748.5076,N,12217.8008,W,1,06,1.2,-5.3,M,-25.1,M,,0000*47
$GPGSA,A,3,08,01,17,27,15,28,,,,,,,2.3,1.2,1.9*3C
$GPGSV,3,1,11,17,79,060,28,28,49,055,33,27,40,314,23,26,35,221,22*7D
$GPGSV,3,2,11,15,32,273,22,08,30,130,35,09,24,316,27,04,20,161,29*71
$GPGSV,3,3,11,01,16,047,22,11,02,038,,51,43,156,28*4E
$GPRMC,215742.000,A,3748.5076,N,12217.8008,W,1.61,133.72,170712,,,A*70
$GPVTG,133.72,T,,M,1.61,N,3.0,K,A*0C
$GPGGA,215743.000,3748.5072,N,12217.8001,W,1,06,1.2,-5.3,M,-25.1,M,,0000*4B
$GPGSA,A,3,08,01,17,27,15,28,,,,,,,2.3,1.2,1.9*3C
$GPRMC,215743.000,A,3748.5072,N,12217.8001,W,1.78,135.16,170712,,,A*70
$GPVTG,135.16,T,,M,1.78,N,3.3,K,A*03
$GPGGA,215744.000,3748.5068,N,12217.7995,W,1,06,1.2,-6.4,M,-25.1,M,,0000*48
$GPGSA,A,3,08,01,17,27,15,28,,,,,,,2.3,1.2,1.9*3C
$GPRMC,215744.000,A,3748.5068,N,12217.7995,W,1.57,123.08,170712,,,A*72
$GPVTG,123.08,T,,M,1.57,N,2.9,K,A*0D
$GPGGA,215745.000,3748.5062,N,12217.7985,W,1,06,1.2,-6.4,M,-25.1,M,,0000*42
$GPGSA,A,3,08,01,17,27,15,28,,,,,,,2.3,1.2,1.9*3C
$GPRMC,215745.000,A,3748.5062,N,12217.7985,W,3.06,140.01,170712,,,A*72
$GPVTG,140.01,T,,M,3.06,N,5.7,K,A*0E
$GPGGA,215746.000,3748.5056,N,12217.7975,W,1,06,1.2,-5.7,M,-25.1,M,,0000*49
$GPGSA,A,3,08,01,17,27,15,28,,,,,,,2.3,1.2,1.9*3C
$GPRMC,215746.000,A,3748.5056,N,12217.7975,W,1.62,124.51,170712,,,A*7E
$GPVTG,124.51,T,,M,1.62,N,3.0,K,A*08
$GPGGA,215747.000,3748.5055,N,12217.7971,W,1,06,1.2,-5.7,M,-25.1,M,,0000*4F
$GPGSA,A,3,08,01,17,27,15,28,,,,,,,2.3,1.2,1.9*3C
$GPGSV,3,1,10,17,79,060,27,28,49,055,33,27,40,314,25,26,35,221,28*7F
$GPGSV,3,2,10,15,32,273,22,08,30,130,36,09,24,316,27,04,20,161,30*7B
$GPGSV,3,3,10,01,16,047,26,11,02,038,*70
$GPRMC,215747.000,A,3748.5055,N,12217.7971,W,1.61,114.60,170712,,,A*7A
$GPGGA,215748.000,3748.5051,N,12217.7965,W,1,06,1.2,-4.8,M,-25.1,M,,0000*4F
$GPGSA,A,3,08,01,17,27,15,28,,,,,,,2.3,1.2,1.9*3C
$GPRMC,215748.000,A,3748.5051,N,12217.7965,W,1.31,140.66,170712,,,A*76
$GPVTG,140.66,T,,M,1.31,N,2.4,K,A*0D
$GPGGA,215749.000,3748.5047,N,12217.7955,W,1,06,1.2,-3.9,M,-25.1,M,,0000*4C
$GPGSA,A,3,08,01,17,27,15,28,,,,,,,2.3,1.2,1.9*3C
$GPRMC,215749.000,A,3748.5047,N,12217.7955,W,1.60,123.45,170712,,,A*73
$GPVTG,123.45,T,,M,1.60,N,3.0,K,A*08
$GPGGA,215750.000,3748.5043,N,12217.7950,W,1,06,1.2,-4.0,M,-25.1,M,,0000*4B
$GPGSA,A,3,08,01,17,27,15,28,,,,,,,2.3,1.2,1.9*3C
$GPRMC,215750.000,A,3748.5043,N,12217.7950,W,1.62,132.63,170712,,,A*7C
$GPVTG,132.63,T,,M,1.62,N,3.0,K,A*0E
$GPGGA,215751.000,3748.5039,N,12217.7947,W,1,06,1.2,-4.5,M,-25.1,M,,0000*44
$GPGSA,A,3,08,01,17,27,15,28,,,,,,,2.3,1.2,1.9*3C
$GPRMC,215751.000,A,3748.5039,N,12217.7947,W,1.18,143.75,170712,,,A*7A
$GPVTG,143.75,T,,M,1.18,N,2.2,K,A*01
$GPGGA,215752.000,3748.5037,N,12217.7937,W,1,06,1.2,-4.3,M,-25.1,M,,0000*48
$GPGSA,A,3,08,01,17,27,15,28,,,,,,,2.3,1.2,1.9*3C
$GPGSV,3,1,11,17,79,060,28,28,49,055,33,27,40,314,25,26,35,221,29*70
$GPGSV,3,2,11,15,32,273,25,08,30,130,36,09,24,316,27,04,20,161,26*7A
$GPGSV,3,3,11,01,16,047,35,11,02,038,,51,43,156,35*44
$GPRMC,215752.000,A,3748.5037,N,12217.7937,W,1.56,151.68,170712,,,A*75
$GPVTG,151.68,T,,M,1.56,N,2.9,K,A*0F
$GPGGA,215753.000,3748.5036,N,12217.7934,W,1,06,1.2,-4.5,M,-25.1,M,,0000*4D
$GPGSA,A,3,08,01,17,27,15,28,,,,,,,2.3,1.2,1.9*3C
$GPRMC,215753.000,A,3748.5036,N,12217.7934,W,0.92,140.73,170712,,,A*75
$GPVTG,140.73,T,,M,0.92,N,1.7,K,A*01
$GPGGA,215754.000,3748.5034,N,12217.7929,W,1,06,1.2,-4.5,M,-25.1,M,,0000*44
$GPGSA,A,3,08,01,17,27,15,28,,,,,,,2.3,1.2,1.9*3C
$GPRMC,215754.000,A,3748.5034,N,12217.7929,W,1.09,116.04,170712,,,A*7C
$GPVTG,116.04,T,,M,1.09,N,2.0,K,A*05
$GPGGA,215755.000,3748.5039,N,12217.7915,W,1,06,1.2,-5.8,M,-25.1,M,,0000*4B
$GPGSA,A,3,08,01,17,27,15,28,,,,,,,2.3,1.2,1.9*3C
$GPRMC,215755.000,A,3748.5039,N,12217.7915,W,1.39,119.53,170712,,,A*71
$GPVTG,119.53,T,,M,1.39,N,2.6,K,A*0D
$GPGGA,215756.000,3748.5037,N,12217.7906,W,1,06,1.2,-6.3,M,-25.1,M,,0000*4C
$GPGSA,A,3,08,01,17,27,15,28,,,,,,,2.3,1.2,1.9*3C
$GPRMC,215756.000,A,3748.5037,N,12217.7906,W,1.15,139.56,170712,,,A*77
$GPVTG,139.56,T,,M,1.15,N,2.1,K,A*03
$GPGGA,215757.000,3748.5031,N,12217.7900,W,1,06,1.2,-7.1,M,-25.1,M,,0000*4E
$GPGSA,A,3,08,01,17,27,15,28,,,,,,,2.3,1.2,1.9*3C
$GPGSV,3,1,10,17,79,060,25,28,49,055,27,27,40,314,23,26,35,221,30*77
$GPGSV,3,2,10,15,32,273,24,08,30,130,25,09,24,316,25,04,20,161,30*7D
$GPGSV,3,3,10,01,16,047,31,11,02,038,*76
$GPRMC,215757.000,A,3748.5031,N,12217.7900,W,2.01,165.66,170712,,,A*7A
$GPVTG,165.66,T,,M,2.01,N,3.7,K,A*08
$GPGGA,215758.000,3748.5025,N,12217.7886,W,1,06,1.2,-7.2,M,-25.1,M,,0000*48
$GPGSA,A,3,08,01,17,27,15,28,,,,,,,2.3,1.2,1.9*3C
$GPRMC,215758.000,A,3748.5025,N,12217.7886,W,2.03,189.79,170712,,,A*71
$GPVTG,189.79,T,,M,2.03,N,3.8,K,A*09
$GPGGA,215759.000,3748.5021,N,12217.7885,W,1,06,1.2,-5.9,M,-25.1,M,,0000*47
$GPGSA,A,3,08,01,17,27,15,28,,,,,,,2.3,1.2,1.9*3C
$GPRMC,215759.000,A,3748.5021,N,12217.7885,W,1.75,217.15,170712,,,A*7B
$GPVTG,217.15,T,,M,1.75,N,3.2,K,A*0F
$GPGGA,215800.000,3748.5017,N,12217.7887,W,1,06,1.2,-5.5,M,-25.1,M,,0000*4F
$GPGSA,A,3,08,01,17,27,15,28,,,,,,,2.3,1.2,1.9*3C
$GPRMC,215800.000,A,3748.5017,N,12217.7887,W,1.41,226.87,170712,,,A*71
$GPVTG,226.87,T,,M,1.41,N,2.6,K,A*04
$GPGGA,215801.000,3748.5010,N,12217.7896,W,1,06,1.2,-7.5,M,-25.1,M,,0000*4B
$GPGSA,A,3,08,01,17,27,15,28,,,,,,,2.3,1.2,1.9*3C
$GPRMC,215801.000,A,3748.5010,N,12217.7896,W,1.69,236.22,170712,,,A*73
$GPVTG,236.22,T,,M,1.69,N,3.1,K,A*06
$GPGGA,215802.000,3748.5010,N,12217.7904,W,1,06,1.2,-7.7,M,-25.1,M,,0000*40
$GPGSA,A,3,08,01,17,27,15,28,,,,,,,2.3,1.2,1.9*3C
$GPGSV,3,1,11,17,79,060,24,28,49,055,25,27,40,314,29,26,35,221,40*78
$GPGSV,3,2,11,15,32,273,33,08,30,130,30,09,24,316,24,04,20,161,40*78
$GPGSV,3,3,11,01,16,047,24,11,02,038,,51,43,156,32*43
$GPRMC,215802.000,A,3748.5010,N,12217.7904,W,1.53,242.05,170712,,,A*75
$GPGGA,215803.000,3748.5012,N,12217.7910,W,1,06,1.2,-6.6,M,-25.1,M,,0000*46
$GPGSA,A,3,08,01,17,27,15,28,,,,,,,2.3,1.2,1.9*3C
$GPRMC,215803.000,A,3748.5012,N,12217.7910,W,1.77,208.36,170712,,,A*7B
$GPVTG,208.36,T,,M,1.77,N,3.3,K,A*03
$GPGGA,215804.000,3748.5007,N,12217.7915,W,1,06,1.2,-6.3,M,-25.1,M,,0000*45
$GPGSA,A,3,08,01,17,27,15,28,,,,,,,2.3,1.2,1.9*3C
$GPRMC,215804.000,A,3748.5007,N,12217.7915,W,2.31,207.18,170712,,,A*7F
$GPVTG,207.18,T,,M,2.31,N,4.3,K,A*06
$GPGGA,215805.000,3748.5002,N,12217.7921,W,1,06,1.2,-6.3,M,-25.1,M,,0000*46
$GPGSA,A,3,08,01,17,27,15,28,,,,,,,2.3,1.2,1.9*3C
$GPRMC,215805.000,A,3748.5002,N,12217.7921,W,2.44,211.01,170712,,,A*71
$GPVTG,211.01,T,,M,2.44,N,4.5,K,A*0D
$GPGGA,215806.000,3748.5001,N,12217.7928,W,1,06,1.2,-5.7,M,-25.1,M,,0000*48
$GPGSA,A,3,08,01,17,27,15,28,,,,,,,2.3,1.2,1.9*3C
$GPRMC,215806.000,A,3748.5001,N,12217.7928,W,2.58,207.48,170712,,,A*7F
$GPVTG,207.48,T,,M,2.58,N,4.8,K,A*07
$GPGGA,215807.000,3748.5002,N,12217.7930,W,1,06,1.2,-4.1,M,-25.1,M,,0000*44
$GPGSA,A,3,08,01,17,27,15,28,,,,,,,2.3,1.2,1.9*3C
$GPGSV,3,1,11,17,79,060,25,28,49,055,30,27,40,314,27,26,35,221,28*7D
$GPGSV,3,2,11,15,32,273,32,08,30,130,24,09,24,316,25,04,20,161,38*72
$GPGSV,3,3,11,01,16,047,29,11,02,038,,51,43,156,32*4E
$GPRMC,215807.000,A,3748.5002,N,12217.7930,W,2.12,207.98,170712,,,A*77
$GPVTG,207.98,T,,M,2.12,N,3.9,K,A*02
$GPGGA,215808.000,3748.4996,N,12217.7938,W,1,06,1.2,-4.1,M,-25.1,M,,0000*46
$GPGSA,A,3,08,01,17,27,15,28,,,,,,,2.3,1.2,1.9*3C
$GPRMC,215808.000,A,3748.4996,N,12217.7938,W,1.93,209.77,170712,,,A*70
$GPVTG,209.77,T,,M,1.93,N,3.6,K,A*08
$GPGGA,215809.000,3748.4990,N,12217.7941,W,1,06,1.2,-3.5,M,-25.1,M,,0000*4C
$GPGSA,A,3,08,01,17,27,15,28,,,,,,,2.3,1.2,1.9*3C
$GPRMC,215809.000,A,3748.4990,N,12217.7941,W,1.33,213.08,170712,,,A*70
$GPVTG,213.08,T,,M,1.33,N,2.5,K,A*03
$GPGGA,215810.000,3748.4982,N,12217.7946,W,1,06,1.2,-3.8,M,-25.1,M,,0000*4D
$GPGSA,A,3,08,01,17,27,15,28,,,,,,,2.3,1.2,1.9*3C
$GPRMC,215810.000,A,3748.4982,N,12217.7946,W,1.42,211.49,170712,,,A*7D
$GPVTG,211.49,T,,M,1.42,N,2.6,K,A*01
$GPGGA,215811.000,3748.4974,N,12217.7952,W,1,06,1.2,-4.1,M,-25.1,M,,0000*4E
$GPGSA,A,3,08,01,17,27,15,28,,,,,,,2.3,1.2,1.9*3C
$GPRMC,215811.000,A,3748.4974,N,12217.7952,W,2.86,209.96,170712,,,A*70
