$ADVER,3080,2.3
$GPRMC,185924.246,A,3748.7966,N,12217.8612,W,0.15,63.04,060412,,,A*47
$GPGGA,185925.246,3748.7977,N,12217.8606,W,1,04,2.0,-8.4,M,-25.1,M,,0000*49
$GPGSA,A,3,31,32,11,14,,,,,,,,,4.8,2.0,4.3*3D
$GPGSV,3,1,12,31,64,107,35,32,55,318,37,11,45,243,32,14,32,050,35*75
$GPGSV,3,2,12,01,54,282,34,20,28,305,32,22,21,107,38,23,13,252,*73
$GPGSV,3,3,12,25,09,062,27,30,06,147,,19,04,217,,17,01,319,*76
$GPRMC,185925.246,A,3748.7977,N,12217.8606,W,0.12,151.18,060412,,,A*79
$GPVTG,151.18,T,,M,0.12,N,0.2,K,A*00
$GPGGA,185926.247,3748.7977,N,12217.8606,W,1,04,2.0,-8.2,M,-25.1,M,,0000*4D
$GPGSA,A,3,31,32,11,14,,,,,,,,,4.8,2.0,4.3*3D
$GPRMC,185926.247,A,3748.7977,N,12217.8606,W,0.15,165.52,060412,,,A*75
$GPVTG,165.52,T,,M,0.15,N,0.3,K,A*0F
$GPGGA,185927.000,3748.7977,N,12217.8606,W,1,04,2.0,-8.0,M,-25.1,M,,0000*4F
$GPGSA,A,3,31,32,11,14,,,,,,,,,4.8,2.0,4.3*3D
$GPRMC,185927.000,A,3748.7977,N,12217.8606,W,0.11,142.68,060412,,,A*7D
$GPVTG,142.68,T,,M,0.11,N,0.2,K,A*06
$GPGGA,185928.000,3748.7978,N,12217.8605,W,1,04,2.0,-7.8,M,-25.1,M,,0000*4B
$GPGSA,A,3,31,32,11,14,,,,,,,,,4.8,2.0,4.3*3D
$GPRMC,185928.000,A,3748.7978,N,12217.8605,W,0.13,158.12,060412,,,A*7A
$GPVTG,158.12,T,,M,0.13,N,0.2,K,A*02
$GPGGA,185929.000,3748.7978,N,12217.8605,W,1,04,2.0,-7.5,M,-25.1,M,,0000*47
$GPGSA,A,3,31,32,11,14,,,,,,,,,4.8,2.0,4.3*3D
$GPRMC,185929.000,A,3748.7978,N,12217.8605,W,0.15,163.13,060412,,,A*74
$GPVTG,163.13,T,,M,0.15,N,0.3,K,A*0C
$GPGGA,185930.000,3748.7979,N,12217.8604,W,1,04,2.0,-7.1,M,-25.1,M,,0000*4B
$GPGSA,A,3,31,32,11,14,,,,,,,,,4.7,2.0,4.3*32
$GPGSV,3,1,12,31,64,107,37,32,55,318,37,11,45,243,33,14,32,050,34*77
$GPGSV,3,2,12,01,54,282,35,20,28,305,32,22,21,107,36,23,13,252,*7C
$GPGSV,3,3,12,25,09,062,28,30,06,147,,19,04,217,21,17,01,319,*7A
$GPRMC,185930.000,A,3748.7979,N,12217.8604,W,0.17,152.01,060412,,,A*7F
$GPGGA,185931.000,3748.7980,N,12217.8604,W,1,04,2.0,-6.8,M,-25.1,M,,0000*44
$GPGSA,A,3,31,32,11,14,,,,,,,,,4.7,2.0,4.3*32
$GPRMC,185931.000,A,3748.7980,N,12217.8604,W,0.16,160.43,060412,,,A*7E
$GPVTG,160.43,T,,M,0.16,N,0.3,K,A*09
$GPGGA,185932.000,3748.7980,N,12217.8603,W,1,04,2.0,-6.6,M,-25.1,M,,0000*4E
$GPGSA,A,3,31,32,11,14,,,,,,,,,4.7,2.0,4.3*32
$GPRMC,185932.000,A,3748.7980,N,12217.8603,W,0.15,160.08,060412,,,A*76
$GPVTG,160.08,T,,M,0.15,N,0.3,K,A*05
$GPGGA,185933.000,3748.7981,N,12217.8604,W,1,05,1.9,-6.2,M,-25.1,M,,0000*46
$GPGSA,A,3,31,32,01,11,14,,,,,,,,4.6,1.9,4.3*38
$GPRMC,185933.000,A,3748.7981,N,12217.8604,W,0.14,164.79,060412,,,A*72
$GPVTG,164.79,T,,M,0.14,N,0.3,K,A*06
$GPGGA,185934.000,3748.7982,N,12217.8604,W,1,05,1.9,-6.0,M,-25.1,M,,0000*40
$GPGSA,A,3,31,32,01,11,14,,,,,,,,4.6,1.9,4.3*38
$GPRMC,185934.000,A,3748.7982,N,12217.8604,W,0.11,173.28,060412,,,A*71
$GPVTG,173.28,T,,M,0.11,N,0.2,K,A*00
$GPGGA,185935.000,3748.7982,N,12217.8604,W,1,05,1.9,-5.8,M,-25.1,M,,0000*4A
$GPGSA,A,3,31,32,01,11,14,,,,,,,,4.6,1.9,4.3*38
$GPGSV,3,1,12,31,64,107,37,32,55,318,37,01,54,281,35,11,45,243,34*7B
$GPGSV,3,2,12,14,32,050,34,20,28,305,32,22,21,107,35,23,13,252,*77
$GPGSV,3,3,12,25,09,062,29,30,06,147,21,19,04,217,21,17,01,319,*78
$GPRMC,185935.000,A,3748.7982,N,12217.8604,W,0.13,167.03,060412,,,A*7E
$GPVTG,167.03,T,,M,0.13,N,0.2,K,A*0E
$GPGGA,185936.000,3748.7983,N,12217.8604,W,1,05,1.9,-5.6,M,-25.1,M,,0000*46
$GPGSA,A,3,31,32,01,11,14,,,,,,,,4.6,1.9,4.2*39
$GPRMC,185936.000,A,3748.7983,N,12217.8604,W,0.14,167.19,060412,,,A*70
$GPVTG,167.19,T,,M,0.14,N,0.3,K,A*03
$GPGGA,185937.000,3748.7983,N,12217.8604,W,1,05,1.9,-5.4,M,-25.1,M,,0000*45
$GPGSA,A,3,31,32,01,11,14,,,,,,,,4.6,1.9,4.2*39
$GPRMC,185937.000,A,3748.7983,N,12217.8604,W,0.12,159.70,060412,,,A*75
$GPVTG,159.70,T,,M,0.12,N,0.2,K,A*06
$GPGGA,185938.000,3748.7984,N,12217.8604,W,1,05,1.9,-5.2,M,-25.1,M,,0000*4B
$GPGSA,A,3,31,32,01,11,14,,,,,,,,4.6,1.9,4.2*39
$GPRMC,185938.000,A,3748.7984,N,12217.8604,W,0.13,171.67,060412,,,A*70
$GPVTG,171.67,T,,M,0.13,N,0.2,K,A*0B
$GPGGA,185939.000,3748.7984,N,12217.8604,W,1,05,1.9,-5.0,M,-25.1,M,,0000*48
$GPGSA,A,3,31,32,01,11,14,,,,,,,,4.6,1.9,4.2*39
$GPRMC,185939.000,A,3748.7984,N,12217.8604,W,0.13,161.76,060412,,,A*70
$GPVTG,161.76,T,,M,0.13,N,0.2,K,A*0A
$GPGGA,185940.000,3748.7985,N,12217.8604,W,1,05,1.9,-4.8,M,-25.1,M,,0000*4E
$GPGSA,A,3,31,32,01,11,14,,,,,,,,4.6,1.9,4.2*39
$GPGSV,3,1,12,31,64,107,37,32,55,318,37,01,54,281,35,11,45,243,35*7A
$GPGSV,3,2,12,14,32,050,34,20,28,305,31,22,21,107,35,23,13,252,19*7C
$GPGSV,3,3,12,25,09,062,28,30,06,147,21,19,04,217,22,17,01,319,*7A
$GPRMC,185940.000,A,3748.7985,N,12217.8604,W,0.12,163.25,060412,,,A*7A
$GPVTG,163.25,T,,M,0.12,N,0.2,K,A*0F
$GPGGA,185941.000,3748.7985,N,12217.8604,W,1,05,1.9,-4.6,M,-25.1,M,,0000*41
$GPGSA,A,3,31,32,01,11,14,,,,,,,,4.6,1.9,4.2*39
$GPRMC,185941.000,A,3748.7985,N,12217.8604,W,0.12,169.54,060412,,,A*77
$GPVTG,169.54,T,,M,0.12,N,0.2,K,A*03
$GPGGA,185942.000,3748.7985,N,12217.8604,W,1,05,1.9,-4.5,M,-25.1,M,,0000*41
$GPGSA,A,3,31,32,01,11,14,,,,,,,,4.6,1.9,4.2*39
$GPRMC,185942.000,A,3748.7985,N,12217.8604,W,0.13,158.66,060412,,,A*76
$GPVTG,158.66,T,,M,0.13,N,0.2,K,A*01
$GPGGA,185943.000,3748.7986,N,12217.8603,W,1,05,1.9,-4.3,M,-25.1,M,,0000*42
$GPGSA,A,3,31,32,01,11,14,,,,,,,,4.6,1.9,4.2*39
$GPRMC,185943.000,A,3748.7986,N,12217.8603,W,0.12,166.64,060412,,,A*7D
$GPVTG,166.64,T,,M,0.12,N,0.2,K,A*0F
$GPGGA,185944.000,3748.7986,N,12217.8603,W,1,05,1.9,-4.1,M,-25.1,M,,0000*47
$GPGSA,A,3,31,32,01,11,14,,,,,,,,4.6,1.9,4.2*39
$GPRMC,185944.000,A,3748.7986,N,12217.8603,W,0.12,165.56,060412,,,A*78
$GPVTG,165.56,T,,M,0.12,N,0.2,K,A*0D
$GPGGA,185945.000,3748.7986,N,12217.8603,W,1,05,1.9,-4.0,M,-25.1,M,,0000*47
$GPGSA,A,3,31,32,01,11,14,,,,,,,,4.6,1.9,4.2*39
$GPGSV,3,1,12,31,64,107,38,32,55,318,37,01,54,281,35,11,45,243,35*75
$GPGSV,3,2,12,14,32,050,34,20,28,305,31,22,21,107,35,23,13,252,19*7C
$GPGSV,3,3,12,25,09,062,29,30,06,147,22,19,04,217,22,17,01,319,*78
$GPVTG,164.12,T,,M,0.14,N,0.3,K,A*0B
$GPGGA,185946.000,3748.7986,N,12217.8603,W,1,05,1.9,-4.0,M,-25.1,M,,0000*44
$GPGSA,A,3,31,32,01,11,14,,,,,,,,4.6,1.9,4.2*39
$GPRMC,185946.000,A,3748.7986,N,12217.8603,W,0.14,165.81,060412,,,A*76
$GPVTG,165.81,T,,M,0.14,N,0.3,K,A*00
$GPGGA,185947.000,3748.7987,N,12217.8603,W,1,05,1.9,-3.9,M,-25.1,M,,0000*4A
$GPGSA,A,3,31,32,01,11,14,,,,,,,,4.6,1.9,4.2*39
$GPRMC,185947.000,A,3748.7987,N,12217.8603,W,0.11,169.07,060412,,,A*71
$GPVTG,169.07,T,,M,0.11,N,0.2,K,A*06
$GPGGA,185948.000,3748.7987,N,12217.8603,W,1,05,1.9,-3.8,M,-25.1,M,,0000*44
$GPGSA,A,3,31,32,01,11,14,,,,,,,,4.6,1.9,4.2*39
$GPRMC,185948.000,A,3748.7987,N,12217.8603,W,0.11,173.76,060412,,,A*73
$GPVTG,173.76,T,,M,0.11,N,0.2,K,A*0B
$GPGGA,185949.000,3748.7986,N,12217.8604,W,1,05,1.9,-4.1,M,-25.1,M,,0000*4D
$GPGSA,A,3,31,32,01,11,14,,,,,,,,4.6,1.9,4.2*39
$GPRMC,185949.000,A,3748.7986,N,12217.8604,W,0.17,76.23,060412,,,A*46
$GPVTG,76.23,T,,M,0.17,N,0.3,K,A*38
$GPGGA,185950.000,3748.7984,N,12217.8604,W,1,05,1.9,-4.8,M,-25.1,M,,0000*4E
$GPGSA,A,3,31,32,01,11,14,,,,,,,,4.6,1.9,4.2*39
$GPGSV,3,1,12,31,64,106,38,32,55,318,31,01,54,281,25,11,45,243,18*7C
$GPGSV,3,2,12,14,32,050,34,20,28,305,31,22,21,107,35,23,13,252,*74
$GPGSV,3,3,12,25,09,062,29,30,06,147,22,19,04,217,20,17,01,319,*7A
$GPRMC,185950.000,A,3748.7984,N,12217.8604,W,0.23,62.61,060412,,,A*48
$GPVTG,62.61,T,,M,0.23,N,0.4,K,A*3B
$GPGGA,185951.000,3748.7979,N,12217.8607,W,1,05,1.9,-6.5,M,-25.1,M,,0000*41
$GPGSA,A,3,31,32,01,11,14,,,,,,,,4.6,1.9,4.2*39
$GPRMC,185951.000,A,3748.7979,N,12217.8607,W,0.20,187.16,060412,,,A*71
$GPVTG,187.16,T,,M,0.20,N,0.4,K,A*02
$GPGGA,185952.000,3748.7977,N,12217.8607,W,1,05,1.9,-7.0,M,-25.1,M,,0000*48
$GPGSA,A,3,31,32,01,11,14,,,,,,,,4.6,1.9,4.2*39
$GPRMC,185952.000,A,3748.7977,N,12217.8607,W,0.15,105.06,060412,,,A*71
$GPVTG,105.06,T,,M,0.15,N,0.3,K,A*08
$GPGGA,185953.000,3748.7975,N,12217.8608,W,1,05,1.9,-8.1,M,-25.1,M,,0000*4A
$GPGSA,A,3,31,32,01,11,14,,,,,,,,4.6,1.9,4.2*39
$GPRMC,185953.000,A,3748.7975,N,12217.8608,W,0.38,204.52,060412,,,A*71
$GPVTG,204.52,T,,M,0.38,N,0.7,K,A*00
$GPGGA,185954.000,3748.7970,N,12217.8610,W,1,05,1.9,-9.4,M,-25.1,M,,0000*45
$GPGSA,A,3,31,32,01,11,14,,,,,,,,4.6,1.9,4.2*39
$GPRMC,185954.000,A,3748.7970,N,12217.8610,W,0.70,185.01,060412,,,A*7A
$GPVTG,185.01,T,,M,0.70,N,1.3,K,A*05
$GPGGA,185955.000,3748.7968,N,12217.8611,W,1,05,1.9,-10.5,M,-25.1,M,,0000*75
$GPGSA,A,3,31,32,01,11,14,,,,,,,,4.6,1.9,4.2*39
$GPGSV,3,1,12,31,64,106,26,32,55,318,34,01,54,281,33,11,45,243,21*7B
$GPGSV,3,2,12,14,32,050,31,20,28,305,25,22,21,107,26,23,13,252,*76
$GPGSV,3,3,12,25,09,062,26,30,06,147,,19,04,217,19,17,01,319,*7F
$GPRMC,185955.000,A,3748.7968,N,12217.8611,W,0.20,228.20,060412,,,A*71
$GPVTG,228.20,T,,M,0.20,N,0.4,K,A*01
$GPGGA,185956.000,3748.7969,N,12217.8613,W,1,05,1.9,-11.5,M,-25.1,M,,0000*74
$GPGSA,A,3,31,32,01,11,14,,,,,,,,4.6,1.9,4.2*39
$GPRMC,185956.000,A,3748.7969,N,12217.8613,W,0.47,342.14,060412,,,A*7A
$GPVTG,342.14,T,,M,0.47,N,0.9,K,A*07
$GPGGA,185957.000,3748.7973,N,12217.8614,W,1,05,1.9,-11.4,M,-25.1,M,,0000*78
$GPGSA,A,3,31,32,01,11,14,,,,,,,,4.6,1.9,4.2*39
$GPRMC,185957.000,A,3748.7973,N,12217.8614,W,0.56,321.62,060412,,,A*73
$GPVTG,321.62,T,,M,0.56,N,1.0,K,A*0B
$GPGGA,185958.000,3748.7977,N,12217.8613,W,1,05,1.9,-10.2,M,-25.1,M,,0000*73
$GPGSA,A,3,31,32,01,11,14,,,,,,,,4.6,1.9,4.2*39
$GPRMC,185958.000,A,3748.7977,N,12217.8613,W,0.38,300.52,060412,,,A*77
$GPVTG,300.52,T,,M,0.38,N,0.7,K,A*05
$GPGGA,185959.000,3748.7977,N,12217.8613,W,1,05,1.9,-7.8,M,-25.1,M,,0000*4E
$GPGSA,A,3,31,32,01,11,14,,,,,,,,4.6,1.9,4.2*39
$GPRMC,185959.000,A,3748.7977,N,12217.8613,W,0.59,208.12,060412,,,A*7C
$GPVTG,208.12,T,,M,0.59,N,1.1,K,A*08
$GPGGA,190000.000,3748.7981,N,12217.8610,W,1,05,1.9,-7.0,M,-25.1,M,,0000*4D
$GPGSA,A,3,31,32,01,11,14,,,,,,,,4.6,1.9,4.2*39
$GPGSV,3,1,12,31,64,106,23,32,55,318,27,01,54,281,29,11,45,243,28*7E
$GPGSV,3,2,12,14,32,050,23,20,28,305,27,22,21,107,25,23,13,252,*74
$GPGSV,3,3,12,25,09,062,25,30,06,147,,19,04,217,34,17,01,319,*73
$GPVTG,297.67,T,,M,0.61,N,1.1,K,A*07
$GPGGA,190001.000,3748.7986,N,12217.8607,W,1,04,2.6,-7.3,M,-25.1,M,,0000*43
$GPGSA,A,3,32,01,11,14,,,,,,,,,2.8,2.6,1.0*38
$GPRMC,190001.000,A,3748.7986,N,12217.8607,W,0.10,177.76,060412,,,A*73
$GPVTG,177.76,T,,M,0.10,N,0.2,K,A*0E
$GPGGA,190002.000,3748.7981,N,12217.8610,W,1,04,2.6,-7.5,M,-25.1,M,,0000*47
$GPGSA,A,3,32,01,11,14,,,,,,,,,2.8,2.6,1.0*38
$GPRMC,190002.000,A,3748.7981,N,12217.8610,W,0.09,303.04,060412,,,A*7D
$GPVTG,303.04,T,,M,0.09,N,0.2,K,A*02
$GPGGA,190003.000,3748.7989,N,12217.8613,W,1,04,2.6,-5.8,M,-25.1,M,,0000*42
$GPGSA,A,3,32,01,11,14,,,,,,,,,2.8,2.6,1.0*38
$GPRMC,190003.000,A,3748.7989,N,12217.8613,W,0.57,347.14,060412,,,A*7D
$GPVTG,347.14,T,,M,0.57,N,1.1,K,A*0A
$GPGGA,190004.000,3748.7994,N,12217.8620,W,1,05,1.9,-4.6,M,-25.1,M,,0000*4B
$GPGSA,A,3,32,01,11,14,31,,,,,,,,4.6,1.9,4.2*39
$GPRMC,190004.000,A,3748.7994,N,12217.8620,W,1.27,4.08,060412,,,A*79
$GPVTG,4.08,T,,M,1.27,N,2.4,K,A*03
$GPGGA,190005.000,3748.7995,N,12217.8623,W,1,05,1.9,-6.0,M,-25.1,M,,0000*4C
$GPGSA,A,3,32,01,11,14,31,,,,,,,,4.6,1.9,4.2*39
$GPGSV,3,1,12,31,64,106,26,32,55,318,20,01,54,281,28,11,45,243,28*7D
$GPGSV,3,2,12,14,32,050,19,20,28,305,27,22,21,107,31,23,13,252,19*70
$GPGSV,3,3,12,25,09,062,24,30,06,147,25,19,04,217,32,17,01,319,*73
$GPRMC,190005.000,A,3748.7995,N,12217.8623,W,1.17,10.74,060412,,,A*47
$GPVTG,10.74,T,,M,1.17,N,2.2,K,A*38
$GPGGA,190006.000,3748.7995,N,12217.8622,W,1,05,1.9,-3.4,M,-25.1,M,,0000*4F
$GPGSA,A,3,32,01,11,14,31,,,,,,,,4.6,1.9,4.2*39
$GPRMC,190006.000,A,3748.7995,N,12217.8622,W,1.45,12.08,060412,,,A*4B
$GPVTG,12.08,T,,M,1.45,N,2.7,K,A*33
$GPGGA,190007.000,3748.7998,N,12217.8621,W,1,05,1.9,-3.0,M,-25.1,M,,0000*44
$GPGSA,A,3,32,01,11,14,31,,,,,,,,4.6,1.9,4.2*39
$GPRMC,190007.000,A,3748.7998,N,12217.8621,W,0.60,52.49,060412,,,A*43
$GPVTG,52.49,T,,M,0.60,N,1.1,K,A*31
$GPGGA,190008.000,3748.7994,N,12217.8608,W,1,05,1.9,-2.8,M,-25.1,M,,0000*45
$GPGSA,A,3,32,01,11,14,31,,,,,,,,4.6,1.9,4.2*39
$GPRMC,190008.000,A,3748.7994,N,12217.8608,W,0.92,111.72,060412,,,A*78
$GPVTG,111.72,T,,M,0.92,N,1.7,K,A*04
$GPGGA,190009.000,3748.7990,N,12217.8602,W,1,05,1.9,-5.1,M,-25.1,M,,0000*44
$GPGSA,A,3,32,01,11,14,31,,,,,,,,4.6,1.9,4.2*39
$GPRMC,190009.000,A,3748.7990,N,12217.8602,W,1.67,113.31,060412,,,A*79
$GPVTG,113.31,T,,M,1.67,N,3.1,K,A*0E
$GPGGA,190010.000,3748.7977,N,12217.8587,W,1,05,1.9,-6.1,M,-25.1,M,,0000*48
$GPGSA,A,3,32,01,11,14,31,,,,,,,,4.6,1.9,4.2*39
$GPGSV,3,1,12,31,64,106,30,32,55,318,19,01,54,281,25,11,45,243,25*70
$GPGSV,3,2,12,14,32,050,24,20,28,305,19,22,21,107,38,23,13,252,18*7B
$GPGSV,3,3,12,25,09,062,30,30,06,147,34,19,04,217,07,17,01,319,*70
$GPRMC,190010.000,A,3748.7977,N,12217.8587,W,2.73,125.69,060412,,,A*78
$GPVTG,125.69,T,,M,2.73,N,5.1,K,A*06
$GPGGA,190011.000,3748.7973,N,12217.8571,W,1,04,2.0,-3.5,M,-25.1,M,,0000*4E
$GPGSA,A,3,32,11,14,31,,,,,,,,,4.7,2.0,4.2*33
$GPRMC,190011.000,A,3748.7973,N,12217.8571,W,2.53,121.35,060412,,,A*7B
$GPVTG,121.35,T,,M,2.53,N,4.7,K,A*0E
$GPGGA,190012.000,3748.7971,N,12217.8563,W,1,05,1.9,-2.4,M,-25.1,M,,0000*47
$GPGSA,A,3,32,01,11,14,31,,,,,,,,4.6,1.9,4.2*39
$GPRMC,190012.000,A,3748.7971,N,12217.8563,W,1.60,109.45,060412,,,A*77
$GPVTG,109.45,T,,M,1.60,N,3.0,K,A*00
$GPGGA,190013.000,3748.7970,N,12217.8552,W,1,05,1.9,-2.6,M,-25.1,M,,0000*47
$GPGSA,A,3,32,01,11,14,31,,,,,,,,4.6,1.9,4.2*39
$GPRMC,190013.000,A,3748.7970,N,12217.8552,W,1.67,113.14,060412,,,A*7D
$GPVTG,113.14,T,,M,1.67,N,3.1,K,A*09
$GPGGA,190014.000,3748.7967,N,12217.8549,W,1,03,3.1,-3.0,M,-25.1,M,,0000*47
$GPGSA,A,2,11,14,31,,,,,,,,,,3.3,3.1,1.0*37
$GPRMC,190014.000,A,3748.7967,N,12217.8549,W,1.41,88.45,060412,,,A*45
$GPVTG,88.45,T,,M,1.41,N,2.6,K,A*3C
$GPGGA,190015.000,3748.7968,N,12217.8541,W,1,04,2.7,-4.4,M,-25.1,M,,0000*42
$GPGSA,A,3,01,11,14,31,,,,,,,,,5.8,2.7,5.1*38
$GPGSV,3,1,12,31,64,106,29,32,55,318,17,01,54,281,17,11,45,243,24*76
$GPGSV,3,2,12,14,32,050,23,20,28,305,18,22,21,107,33,23,13,252,21*7C
$GPGSV,3,3,12,25,09,062,20,30,06,147,23,19,04,217,,17,01,319,*70
$GPRMC,190015.000,A,3748.7968,N,12217.8541,W,1.07,64.93,060412,,,A*48
$GPGGA,190016.000,3748.7968,N,12217.8536,W,1,04,2.7,-5.8,M,-25.1,M,,0000*4C
$GPGSA,A,3,01,11,14,31,,,,,,,,,5.8,2.7,5.1*38
$GPRMC,190016.000,A,3748.7968,N,12217.8536,W,1.27,64.07,060412,,,A*44
$GPVTG,64.07,T,,M,1.27,N,2.4,K,A*3A
$GPGGA,190017.000,3748.7967,N,12217.8529,W,1,04,2.7,-6.5,M,-25.1,M,,0000*42
$GPGSA,A,3,01,11,14,31,,,,,,,,,5.8,2.7,5.1*38
$GPRMC,190017.000,A,3748.7967,N,12217.8529,W,1.63,69.37,060412,,,A*4A
$GPVTG,69.37,T,,M,1.63,N,3.0,K,A*31
$GPGGA,190018.000,3748.7960,N,12217.8520,W,1,05,1.9,-7.6,M,-25.1,M,,0000*4D
$GPGSA,A,3,32,01,11,14,31,,,,,,,,4.6,1.9,4.2*39
$GPRMC,190018.000,A,3748.7960,N,12217.8520,W,1.38,82.05,060412,,,A*41
$GPVTG,82.05,T,,M,1.38,N,2.6,K,A*3C
$GPGGA,190019.000,3748.7950,N,12217.8514,W,1,05,1.9,-6.9,M,-25.1,M,,0000*46
$GPGSA,A,3,32,01,11,14,31,,,,,,,,4.6,1.9,4.2*39
$GPRMC,190019.000,A,3748.7950,N,12217.8514,W,2.04,114.61,060412,,,A*74
$GPVTG,114.61,T,,M,2.04,N,3.8,K,A*03
$GPGGA,190020.000,3748.7934,N,12217.8510,W,1,05,1.9,-5.9,M,-25.1,M,,0000*49
$GPGSA,A,3,32,01,11,14,31,,,,,,,,4.6,1.9,4.2*39
$GPGSV,3,1,12,31,64,106,34,32,55,318,18,01,54,281,22,11,45,243,29*7E
$GPGSV,3,2,12,14,32,050,25,20,28,305,18,22,21,107,34,23,13,252,28*74
$GPGSV,3,3,12,25,09,062,22,30,06,147,28,19,04,217,,17,01,319,*79
$GPRMC,190020.000,A,3748.7934,N,12217.8510,W,2.53,129.39,060412,,,A*79
$GPVTG,129.39,T,,M,2.53,N,4.7,K,A*0A
$GPGGA,190021.000,3748.7926,N,12217.8501,W,1,04,2.8,-4.5,M,-25.1,M,,0000*45
$GPGSA,A,3,01,11,14,31,,,,,,,,,5.8,2.8,5.1*37
$GPRMC,190021.000,A,3748.7926,N,12217.8501,W,3.33,144.50,060412,,,A*78
$GPVTG,144.50,T,,M,3.33,N,6.2,K,A*0E
$GPGGA,190022.000,3748.7908,N,12217.8489,W,1,04,2.2,-5.3,M,-25.1,M,,0000*46
$GPGSA,A,3,32,01,11,31,,,,,,,,,2.4,2.2,1.0*37
$GPRMC,190022.000,A,3748.7908,N,12217.8489,W,3.86,141.16,060412,,,A*7F
$GPVTG,141.16,T,,M,3.86,N,7.1,K,A*05
$GPGGA,190023.000,3748.7897,N,12217.8483,W,1,05,1.9,-3.0,M,-25.1,M,,0000*46
$GPGSA,A,3,32,01,11,14,31,,,,,,,,4.5,1.9,4.1*39
$GPRMC,190023.000,A,3748.7897,N,12217.8483,W,3.74,141.99,060412,,,A*79
$GPVTG,141.99,T,,M,3.74,N,6.9,K,A*06
$GPGGA,190024.000,3748.7887,N,12217.8477,W,1,05,1.9,-0.9,M,-25.1,M,,0000*41
$GPGSA,A,3,32,01,11,14,31,,,,,,,,4.5,1.9,4.1*39
$GPRMC,190024.000,A,3748.7887,N,12217.8477,W,3.05,132.51,060412,,,A*72
$GPVTG,132.51,T,,M,3.05,N,5.7,K,A*0D
$GPGGA,190025.000,3748.7875,N,12217.8468,W,1,05,1.9,0.6,M,-25.1,M,,0000*61
$GPGSA,A,3,32,01,11,14,31,,,,,,,,4.5,1.9,4.1*39
$GPGSV,3,1,12,31,64,106,27,32,55,318,19,01,54,281,27,11,45,243,30*70
$GPGSV,3,2,12,14,32,050,19,20,28,305,20,22,21,107,26,23,13,252,33*79
$GPGSV,3,3,12,25,09,062,21,30,06,147,24,19,04,217,27,17,01,319,*73
$GPRMC,190025.000,A,3748.7875,N,12217.8468,W,3.02,141.89,060412,,,A*76
$GPVTG,141.89,T,,M,3.02,N,5.6,K,A*0A
$GPGGA,190026.000,3748.7867,N,12217.8461,W,1,05,1.9,1.9,M,-25.1,M,,0000*66
$GPGSA,A,3,32,01,11,14,31,,,,,,,,4.5,1.9,4.1*39
$GPRMC,190026.000,A,3748.7867,N,12217.8461,W,2.84,125.68,060412,,,A*7D
$GPVTG,125.68,T,,M,2.84,N,5.3,K,A*0D
$GPGGA,190027.000,3748.7868,N,12217.8459,W,1,05,1.9,3.5,M,-25.1,M,,0000*6D
$GPGSA,A,3,32,01,11,14,31,,,,,,,,4.5,1.9,4.1*39
$GPRMC,190027.000,A,3748.7868,N,12217.8459,W,1.70,112.90,060412,,,A*73
$GPVTG,112.90,T,,M,1.70,N,3.1,K,A*02
$GPGGA,190028.000,3748.7875,N,12217.8459,W,1,04,2.2,3.7,M,-25.1,M,,0000*65
$GPGSA,A,3,32,01,11,31,,,,,,,,,2.4,2.2,1.0*37
$GPRMC,190028.000,A,3748.7875,N,12217.8459,W,1.96,110.54,060412,,,A*72
$GPVTG,110.54,T,,M,1.96,N,3.6,K,A*07
$GPGGA,190029.000,3748.7867,N,12217.8452,W,1,05,1.9,5.7,M,-25.1,M,,0000*63
$GPGSA,A,3,32,01,11,14,31,,,,,,,,4.5,1.9,4.1*39
$GPRMC,190029.000,A,3748.7867,N,12217.8452,W,2.45,116.73,060412,,,A*75
$GPVTG,116.73,T,,M,2.45,N,4.5,K,A*0D
$GPGGA,190030.000,3748.7866,N,12217.8448,W,1,05,1.9,10.1,M,-25.1,M,,0000*53
$GPGSA,A,3,32,01,11,14,31,,,,,,,,4.5,1.9,4.1*39
$GPGSV,3,1,12,31,64,106,27,32,55,318,19,01,54,281,22,11,45,243,30*75
$GPGSV,3,2,12,14,32,050,19,20,28,305,21,22,21,107,25,23,13,252,32*7A
$GPGSV,3,3,12,25,09,062,20,30,06,147,23,19,04,217,28,17,01,319,*7A
$GPRMC,190030.000,A,3748.7866,N,12217.8448,W,1.76,92.59,060412,,,A*41
$GPGGA,190031.000,3748.7860,N,12217.8438,W,1,05,1.9,10.5,M,-25.1,M,,0000*57
$GPGSA,A,3,32,01,11,14,31,,,,,,,,4.5,1.9,4.1*39
$GPRMC,190031.000,A,3748.7860,N,12217.8438,W,1.31,100.63,060412,,,A*71
$GPVTG,100.63,T,,M,1.31,N,2.4,K,A*0C
$GPGGA,190032.000,3748.7857,N,12217.8430,W,1,05,1.9,8.5,M,-25.1,M,,0000*61
$GPGSA,A,3,32,01,11,14,31,,,,,,,,4.5,1.9,4.1*39
$GPRMC,190032.000,A,3748.7857,N,12217.8430,W,1.13,79.52,060412,,,A*43
$GPVTG,79.52,T,,M,1.13,N,2.1,K,A*34
$GPGGA,190033.000,3748.7857,N,12217.8419,W,1,05,1.9,7.8,M,-25.1,M,,0000*69
$GPGSA,A,3,32,01,11,14,31,,,,,,,,4.5,1.9,4.1*39
$GPRMC,190033.000,A,3748.7857,N,12217.8419,W,1.59,63.56,060412,,,A*48
$GPVTG,63.56,T,,M,1.59,N,2.9,K,A*3D
$GPGGA,190034.000,3748.7858,N,12217.8409,W,1,04,2.2,8.9,M,-25.1,M,,0000*67
$GPGSA,A,3,32,01,11,31,,,,,,,,,2.4,2.2,1.0*37
$GPRMC,190034.000,A,3748.7858,N,12217.8409,W,2.14,63.71,060412,,,A*4E
$GPVTG,63.71,T,,M,2.14,N,4.0,K,A*3D
$GPGGA,190035.000,3748.7862,N,12217.8400,W,1,05,1.9,10.4,M,-25.1,M,,0000*5B
$GPGSA,A,3,32,01,11,14,31,,,,,,,,4.5,1.9,4.1*39
$GPGSV,3,1,12,31,64,106,27,32,55,318,19,01,54,281,22,11,45,243,28*7C
$GPGSV,3,2,12,14,32,050,18,20,28,305,21,22,21,107,30,23,13,252,26*7A
$GPGSV,3,3,12,25,09,062,17,30,06,147,30,19,04,217,18,17,01,319,*7F
$GPRMC,190035.000,A,3748.7862,N,12217.8400,W,1.98,81.26,060412,,,A*46
$GPVTG,81.26,T,,M,1.98,N,3.7,K,A*34
$GPGGA,190036.000,3748.7862,N,12217.8397,W,1,05,1.9,13.0,M,-25.1,M,,0000*56
$GPGSA,A,3,32,01,11,14,31,,,,,,,,4.5,1.9,4.1*39
$GPRMC,190036.000,A,3748.7862,N,12217.8397,W,2.02,76.35,060412,,,A*46
$GPVTG,76.35,T,,M,2.02,N,3.7,K,A*3E
$GPGGA,190037.000,3748.7874,N,12217.8394,W,1,05,1.9,14.9,M,-25.1,M,,0000*5D
$GPGSA,A,3,32,01,11,14,31,,,,,,,,4.5,1.9,4.1*39
$GPRMC,190037.000,A,3748.7874,N,12217.8394,W,2.29,47.35,060412,,,A*48
$GPVTG,47.35,T,,M,2.29,N,4.2,K,A*37
$GPGGA,190038.000,3748.7886,N,12217.8391,W,1,05,1.9,14.0,M,-25.1,M,,0000*53
$GPGSA,A,3,32,01,11,14,31,,,,,,,,4.5,1.9,4.1*39
$GPRMC,190038.000,A,3748.7886,N,12217.8391,W,1.98,37.23,060412,,,A*46
$GPVTG,37.23,T,,M,1.98,N,3.7,K,A*3C
$GPGGA,190039.000,3748.7877,N,12217.8384,W,1,05,1.9,15.5,M,-25.1,M,,0000*5C
$GPGSA,A,3,32,01,11,14,31,,,,,,,,4.5,1.9,4.1*39
$GPRMC,190039.000,A,3748.7877,N,12217.8384,W,1.60,110.65,060412,,,A*7C
$GPVTG,110.65,T,,M,1.60,N,3.0,K,A*0A
$GPGGA,190040.000,3748.7864,N,12217.8377,W,1,05,1.9,16.7,M,-25.1,M,,0000*5D
$GPGSA,A,3,32,01,11,14,31,,,,,,,,4.5,1.9,4.1*39
$GPGSV,3,1,12,31,64,106,27,32,55,318,19,01,54,281,27,11,45,243,33*73
$GPGSV,3,2,12,14,32,050,18,20,28,305,22,22,21,107,25,23,13,252,32*78
$GPGSV,3,3,12,25,09,062,18,30,06,147,30,19,04,217,18,17,01,319,*70
$GPRMC,190040.000,A,3748.7864,N,12217.8377,W,2.30,126.55,060412,,,A*7C
$GPVTG,126.55,T,,M,2.30,N,4.3,K,A*0E
$GPGGA,190041.000,3748.7860,N,12217.8373,W,1,04,2.2,15.9,M,-25.1,M,,0000*58
$GPGSA,A,3,32,01,11,31,,,,,,,,,2.4,2.2,1.0*37
$GPRMC,190041.000,A,3748.7860,N,12217.8373,W,2.03,114.56,060412,,,A*7F
$GPVTG,114.56,T,,M,2.03,N,3.8,K,A*00
$GPGGA,190042.000,3748.7855,N,12217.8367,W,1,05,1.9,16.6,M,-25.1,M,,0000*5D
$GPGSA,A,3,32,01,11,14,31,,,,,,,,4.5,1.9,4.1*39
$GPRMC,190042.000,A,3748.7855,N,12217.8367,W,1.56,115.29,060412,,,A*75
$GPVTG,115.29,T,,M,1.56,N,2.9,K,A*0A
$GPGGA,190043.000,3748.7845,N,12217.8366,W,1,05,1.9,18.9,M,-25.1,M,,0000*5D
$GPGSA,A,3,32,01,11,14,31,,,,,,,,4.5,1.9,4.1*39
$GPRMC,190043.000,A,3748.7845,N,12217.8366,W,1.66,123.34,060412,,,A*7E
$GPVTG,123.34,T,,M,1.66,N,3.1,K,A*09
$GPGGA,190044.000,3748.7842,N,12217.8360,W,2,05,1.9,20.4,M,-25.1,M,,0000*5E
$GPGSA,A,3,32,01,11,14,31,,,,,,,,4.5,1.9,4.1*39
$GPRMC,190044.000,A,3748.7842,N,12217.8360,W,1.75,115.36,060412,,,D*78
$GPVTG,115.36,T,,M,1.75,N,3.2,K,D*0A
$GPGGA,190045.000,3748.7844,N,12217.8354,W,2,05,1.9,20.9,M,-25.1,M,,0000*53
$GPGSA,A,3,32,01,11,14,31,,,,,,,,4.5,1.9,4.1*39
$GPGSV,3,1,12,31,64,106,28,32,55,318,20,01,54,281,27,11,45,243,33*76
$GPGSV,3,2,12,14,32,050,23,20,28,305,23,22,21,107,28,23,13,252,32*7C
$GPGSV,3,3,12,25,09,062,18,30,06,147,32,19,04,217,18,17,01,319,*72
$GPRMC,190045.000,A,3748.7844,N,12217.8354,W,2.32,111.65,060412,,,D*7A
$GPGGA,190046.000,3748.7844,N,12217.8345,W,2,05,1.9,20.3,M,-25.1,M,,0000*5A
$GPGSA,A,3,32,01,11,14,31,,,,,,,,4.5,1.9,4.1*39
$GPRMC,190046.000,A,3748.7844,N,12217.8345,W,2.49,104.52,060412,,,D*75
$GPVTG,104.52,T,,M,2.49,N,4.6,K,D*07
$GPGGA,190047.000,3748.7841,N,12217.8334,W,2,05,1.9,19.8,M,-25.1,M,2.8,0000*7D
$GPGSA,A,3,32,01,11,14,31,,,,,,,,4.5,1.9,4.1*39
$GPRMC,190047.000,A,3748.7841,N,12217.8334,W,2.72,104.76,060412,,,D*79
$GPVTG,104.76,T,,M,2.72,N,5.0,K,D*0E
$GPGGA,190048.000,3748.7840,N,12217.8321,W,2,04,4.0,18.7,M,-25.1,M,3.8,0000*75
$GPGSA,A,3,32,01,14,31,,,,,,,,,9.0,4.0,8.1*31
$GPRMC,190048.000,A,3748.7840,N,12217.8321,W,2.75,91.22,060412,,,D*48
$GPVTG,91.22,T,,M,2.75,N,5.1,K,D*34
$GPGGA,190049.000,3748.7829,N,12217.8308,W,2,04,2.2,18.4,M,-25.1,M,4.8,0000*70
$GPGSA,A,3,32,01,11,31,,,,,,,,,2.4,2.2,1.0*37
$GPRMC,190049.000,A,3748.7829,N,12217.8308,W,2.92,117.14,060412,,,D*7E
$GPVTG,117.14,T,,M,2.92,N,5.4,K,D*02
$GPGGA,190050.000,3748.7825,N,12217.8292,W,2,05,1.9,17.6,M,-25.1,M,,0000*50
$GPGSA,A,3,32,01,11,14,31,,,,,,,,4.5,1.9,4.1*39
$GPGSV,3,1,12,31,64,105,28,32,55,319,20,01,54,280,26,11,45,242,30*76
$GPGSV,3,2,12,14,32,051,19,20,28,305,23,22,20,108,30,23,13,252,32*73
$GPGSV,3,3,12,25,09,062,19,30,06,147,31,19,04,217,17,17,02,318,*7D
$GPRMC,190050.000,A,3748.7825,N,12217.8292,W,2.56,101.15,060412,,,D*76
$GPVTG,101.15,T,,M,2.56,N,4.7,K,D*0E
$GPGGA,190051.000,3748.7819,N,12217.8287,W,2,05,1.9,19.4,M,-25.1,M,,0000*56
$GPGSA,A,3,32,01,11,14,31,,,,,,,,4.5,1.9,4.1*39
$GPRMC,190051.000,A,3748.7819,N,12217.8287,W,2.14,85.70,060412,,,D*44
$GPVTG,85.70,T,,M,2.14,N,4.0,K,D*31
$GPGGA,190052.000,3748.7812,N,12217.8276,W,2,05,1.9,18.7,M,-25.1,M,2.8,0000*76
$GPGSA,A,3,32,01,11,14,31,,,,,,,,4.5,1.9,4.1*39
$GPRMC,190052.000,A,3748.7812,N,12217.8276,W,2.17,102.39,060412,,,D*72
$GPVTG,102.39,T,,M,2.17,N,4.0,K,D*01
$GPGGA,190053.000,3748.7800,N,12217.8263,W,2,05,1.9,15.9,M,-25.1,M,3.8,0000*72
$GPGSA,A,3,32,01,11,14,31,,,,,,,,4.5,1.9,4.1*39
$GPRMC,190053.000,A,3748.7800,N,12217.8263,W,1.99,90.34,060412,,,D*46
$GPVTG,90.34,T,,M,1.99,N,3.7,K,D*33
$GPGGA,190054.000,3748.7794,N,12217.8252,W,2,05,1.9,12.8,M,-25.1,M,4.8,0000*74
$GPGSA,A,3,32,01,11,14,31,,,,,,,,4.5,1.9,4.1*39
$GPRMC,190054.000,A,3748.7794,N,12217.8252,W,1.97,60.68,060412,,,D*49
$GPVTG,60.68,T,,M,1.97,N,3.6,K,D*3A
$GPGGA,190055.000,3748.7794,N,12217.8249,W,2,05,1.9,13.1,M,-25.1,M,5.8,0000*76
$GPGSA,A,3,32,01,11,14,31,,,,,,,,4.5,1.9,4.1*39
$GPGSV,3,1,12,31,64,105,28,32,55,319,20,01,54,280,22,11,45,242,29*7A
$GPGSV,3,2,12,14,32,051,20,20,28,305,22,22,20,108,30,23,13,252,29*72
$GPGSV,3,3,12,25,09,062,26,30,06,147,29,19,04,217,25,17,02,318,*79
$GPRMC,190055.000,A,3748.7794,N,12217.8249,W,1.43,70.87,060412,,,D*4B
$GPVTG,70.87,T,,M,1.43,N,2.6,K,D*32
$GPGGA,190056.000,3748.7792,N,12217.8244,W,2,05,1.9,12.8,M,-25.1,M,,0000*55
$GPGSA,A,3,32,01,11,14,31,,,,,,,,4.5,1.9,4.1*39
$GPRMC,190056.000,A,3748.7792,N,12217.8244,W,1.85,96.94,060412,,,D*43
$GPVTG,96.94,T,,M,1.85,N,3.4,K,D*31
$GPGGA,190057.000,3748.7788,N,12217.8238,W,2,05,1.9,12.7,M,-25.1,M,,0000*5B
$GPGSA,A,3,32,01,11,14,31,,,,,,,,4.5,1.9,4.1*39
$GPRMC,190057.000,A,3748.7788,N,12217.8238,W,2.46,122.78,060412,,,D*72
$GPVTG,122.78,T,,M,2.46,N,4.6,K,D*04
$GPGGA,190058.000,3748.7782,N,12217.8233,W,2,05,1.9,13.1,M,-25.1,M,2.8,0000*76
$GPGSA,A,3,32,01,11,14,31,,,,,,,,4.5,1.9,4.1*39
$GPRMC,190058.000,A,3748.7782,N,12217.8233,W,2.12,122.53,060412,,,D*74
$GPVTG,122.53,T,,M,2.12,N,3.9,K,D*04
$GPGGA,190059.000,3748.7771,N,12217.8219,W,2,05,1.9,10.5,M,-25.1,M,,0000*50
$GPGSA,A,3,32,01,11,14,31,,,,,,,,4.5,1.9,4.1*39
$GPRMC,190059.000,A,3748.7771,N,12217.8219,W,2.99,131.03,060412,,,D*75
$GPVTG,131.03,T,,M,2.99,N,5.5,K,D*0A
$GPGGA,190100.000,3748.7758,N,12217.8209,W,2,05,1.9,10.4,M,-25.1,M,2.8,0000*72
$GPGSA,A,3,32,01,11,14,31,,,,,,,,4.5,1.9,4.1*39
$GPGSV,3,1,12,31,64,105,29,32,55,319,20,01,54,280,27,11,45,242,31*77
$GPGSV,3,2,12,14,32,051,19,20,28,305,22,22,20,108,25,23,13,252,31*75
$GPGSV,3,3,12,25,09,062,24,30,06,147,15,19,04,217,20,17,02,318,*71
$GPVTG,136.15,T,,M,3.02,N,5.6,K,D*0A
$GPGGA,190101.000,3748.7752,N,12217.8201,W,2,05,1.9,9.6,M,-25.1,M,1.8,0000*48
$GPGSA,A,3,32,01,11,14,31,,,,,,,,4.5,1.9,4.1*39
$GPRMC,190101.000,A,3748.7752,N,12217.8201,W,2.64,132.02,060412,,,D*71
$GPVTG,132.02,T,,M,2.64,N,4.9,K,D*07
$GPGGA,190102.000,3748.7747,N,12217.8198,W,2,05,1.9,11.0,M,-25.1,M,1.8,0000*73
$GPGSA,A,3,32,01,11,14,31,,,,,,,,4.5,1.9,4.1*39
$GPRMC,190102.000,A,3748.7747,N,12217.8198,W,1.82,119.76,060412,,,D*74
$GPVTG,119.76,T,,M,1.82,N,3.4,K,D*0C
$GPGGA,190103.000,3748.7743,N,12217.8191,W,2,05,1.9,12.3,M,-25.1,M,1.8,0000*7F
$GPGSA,A,3,32,01,11,14,31,,,,,,,,4.5,1.9,4.1*39
$GPRMC,190103.000,A,3748.7743,N,12217.8191,W,2.72,128.29,060412,,,D*7C
$GPVTG,128.29,T,,M,2.72,N,5.0,K,D*0A
$GPGGA,190104.000,3748.7745,N,12217.8184,W,2,05,1.9,14.5,M,-25.1,M,1.8,0000*7A
$GPGSA,A,3,32,01,11,14,31,,,,,,,,4.5,1.9,4.1*39
$GPRMC,190104.000,A,3748.7745,N,12217.8184,W,2.14,120.84,060412,,,D*76
$GPVTG,120.84,T,,M,2.14,N,4.0,K,D*04
$GPGGA,190105.000,3748.7750,N,12217.8185,W,2,05,1.9,17.6,M,-25.1,M,1.8,0000*7E
$GPGSA,A,3,32,01,11,14,31,,,,,,,,4.5,1.9,4.1*39
$GPGSV,3,1,12,31,64,105,29,32,55,319,21,01,54,280,24,11,45,242,31*75
$GPGSV,3,2,12,14,32,051,20,20,28,305,23,22,20,108,28,23,13,252,31*73
$GPGSV,3,3,12,25,09,062,25,30,06,147,24,19,04,217,20,17,02,318,*72
$GPRMC,190105.000,A,3748.7750,N,12217.8185,W,1.75,90.94,060412,,,D*4D
$GPVTG,90.94,T,,M,1.75,N,3.2,K,D*3E
$GPGGA,190106.000,3748.7754,N,12217.8185,W,2,05,1.9,19.8,M,-25.1,M,2.8,0000*7A
$GPGSA,A,3,32,01,11,14,31,,,,,,,,4.5,1.9,4.1*39
$GPRMC,190106.000,A,3748.7754,N,12217.8185,W,1.50,82.71,060412,,,D*45
$GPVTG,82.71,T,,M,1.50,N,2.8,K,D*3A
$GPGGA,190107.000,3748.7751,N,12217.8182,W,2,05,1.9,19.0,M,-25.1,M,3.8,0000*70
$GPGSA,A,3,32,01,11,14,31,,,,,,,,4.5,1.9,4.1*39
$GPRMC,190107.000,A,3748.7751,N,12217.8182,W,1.01,114.54,060412,,,D*7B
$GPVTG,114.54,T,,M,1.01,N,1.9,K,D*05
$GPGGA,190108.000,3748.7754,N,12217.8174,W,2,05,1.9,18.4,M,-25.1,M,4.8,0000*71
$GPGSA,A,3,32,01,11,14,31,,,,,,,,4.5,1.9,4.1*39
$GPRMC,190108.000,A,3748.7754,N,12217.8174,W,1.71,52.41,060412,,,D*48
$GPVTG,52.41,T,,M,1.71,N,3.2,K,D*3C
$GPGGA,190109.000,3748.7749,N,12217.8163,W,2,05,1.9,18.1,M,-25.1,M,5.8,0000*7E
$GPGSA,A,3,32,01,11,14,31,,,,,,,,4.5,1.9,4.1*39
$GPRMC,190109.000,A,3748.7749,N,12217.8163,W,1.80,83.43,060412,,,D*43
$GPVTG,83.43,T,,M,1.80,N,3.3,K,D*3D
$GPGGA,190110.000,3748.7747,N,12217.8148,W,2,05,1.9,17.3,M,-25.1,M,6.8,0000*7F
$GPGSA,A,3,32,01,11,14,31,,,,,,,,4.5,1.9,4.0*38
$GPGSV,3,1,12,31,64,105,23,32,55,319,20,01,54,280,23,11,45,242,28*71
$GPGSV,3,2,12,14,32,051,15,20,28,305,16,22,20,108,28,23,13,252,27*74
$GPGSV,3,3,12,25,09,062,18,30,06,147,24,19,04,217,13,17,02,318,*7C
$GPRMC,190110.000,A,3748.7747,N,12217.8148,W,1.94,92.20,060412,,,D*4C
$GPVTG,92.20,T,,M,1.94,N,3.6,K,D*38
$GPGGA,190111.000,3748.7745,N,12217.8135,W,2,05,1.9,16.6,M,-25.1,M,7.8,0000*73
$GPGSA,A,3,32,01,11,14,31,,,,,,,,4.5,1.9,4.0*38
$GPRMC,190111.000,A,3748.7745,N,12217.8135,W,2.65,109.62,060412,,,D*7D
$GPVTG,109.62,T,,M,2.65,N,4.9,K,D*08
$GPGGA,190112.000,3748.7733,N,12217.8124,W,2,05,1.9,18.6,M,-25.1,M,8.8,0000*70
$GPGSA,A,3,32,01,11,14,31,,,,,,,,4.5,1.9,4.0*38
$GPRMC,190112.000,A,3748.7733,N,12217.8124,W,2.70,126.13,060412,,,D*70
$GPVTG,126.13,T,,M,2.70,N,5.0,K,D*0F
$GPGGA,190113.000,3748.7730,N,12217.8116,W,2,05,1.9,19.6,M,-25.1,M,9.8,0000*73
$GPGSA,A,3,32,01,11,14,31,,,,,,,,4.5,1.9,4.0*38
$GPRMC,190113.000,A,3748.7730,N,12217.8116,W,2.57,117.17,060412,,,D*70
$GPVTG,117.17,T,,M,2.57,N,4.8,K,D*05
$GPGGA,190114.000,3748.7723,N,12217.8104,W,2,05,1.9,20.1,M,-25.1,M,10.8,0000*40
$GPGSA,A,3,32,01,11,14,31,,,,,,,,4.5,1.9,4.0*38
$GPRMC,190114.000,A,3748.7723,N,12217.8104,W,2.75,106.30,060412,,,D*73
$GPVTG,106.30,T,,M,2.75,N,5.1,K,D*08
$GPGGA,190115.000,3748.7719,N,12217.8092,W,2,05,1.9,20.3,M,-25.1,M,11.8,0000*45
$GPGSA,A,3,32,01,11,14,31,,,,,,,,4.5,1.9,4.0*38
$GPGSV,3,1,12,31,64,105,25,32,55,319,21,01,54,280,24,11,45,242,30*78
$GPGSV,3,2,12,14,32,051,22,20,28,305,22,22,20,108,29,23,13,252,29*78
$GPGSV,3,3,12,25,09,062,25,30,06,147,30,19,04,217,23,17,02,318,*74
$GPVTG,92.38,T,,M,2.52,N,4.7,K,D*3E
$GPGGA,190116.000,3748.7710,N,12217.8078,W,2,05,1.9,21.1,M,-25.1,M,12.8,0000*4B
$GPGSA,A,3,32,01,11,14,31,,,,,,,,4.5,1.9,4.0*38
$GPRMC,190116.000,A,3748.7710,N,12217.8078,W,2.34,105.15,060412,,,D*7A
$GPVTG,105.15,T,,M,2.34,N,4.3,K,D*0A
$GPGGA,190117.000,3748.7700,N,12217.8070,W,2,05,1.9,22.6,M,-25.1,M,13.8,0000*46
$GPGSA,A,3,32,01,11,14,31,,,,,,,,4.4,1.9,4.0*39
$GPRMC,190117.000,A,3748.7700,N,12217.8070,W,2.32,117.09,060412,,,D*7A
$GPVTG,117.09,T,,M,2.32,N,4.3,K,D*02
$GPGGA,190118.000,3748.7685,N,12217.8059,W,2,05,1.9,23.1,M,-25.1,M,14.8,0000*4F
$GPGSA,A,3,32,01,11,14,31,,,,,,,,4.4,1.9,4.0*39
$GPRMC,190118.000,A,3748.7685,N,12217.8059,W,3.02,132.48,060412,,,D*72
$GPVTG,132.48,T,,M,3.02,N,5.6,K,D*06
$GPGGA,190119.000,3748.7672,N,12217.8051,W,2,05,1.9,23.5,M,-25.1,M,15.8,0000*4B
$GPGSA,A,3,32,01,11,14,31,,,,,,,,4.4,1.9,4.0*39
$GPRMC,190119.000,A,3748.7672,N,12217.8051,W,2.54,132.89,060412,,,D*7C
$GPVTG,132.89,T,,M,2.54,N,4.7,K,D*09
$GPGGA,190120.000,3748.7667,N,12217.8045,W,2,05,1.9,24.7,M,-25.1,M,1.8,0000*70
$GPGSA,A,3,32,01,11,14,31,,,,,,,,4.4,1.9,4.0*39
$GPGSV,3,1,12,31,64,105,29,32,55,319,20,01,54,280,24,11,45,242,31*74
$GPGSV,3,2,12,14,32,051,19,20,28,305,23,22,20,108,29,23,13,252,29*71
$GPGSV,3,3,12,25,09,062,23,30,06,147,24,19,04,217,24,17,02,318,*70
$GPRMC,190120.000,A,3748.7667,N,12217.8045,W,2.13,114.80,060412,,,D*79
$GPVTG,114.80,T,,M,2.13,N,3.9,K,D*0E
$GPGGA,190121.000,3748.7659,N,12217.8037,W,2,05,1.9,24.9,M,-25.1,M,1.8,0000*77
$GPGSA,A,3,32,01,11,14,31,,,,,,,,4.4,1.9,4.0*39
$GPRMC,190121.000,A,3748.7659,N,12217.8037,W,2.06,121.10,060412,,,D*7B
$GPVTG,121.10,T,,M,2.06,N,3.8,K,D*04
$GPGGA,190122.000,3748.7659,N,12217.8031,W,2,05,1.9,26.4,M,-25.1,M,1.8,0000*7D
$GPGSA,A,3,32,01,11,14,31,,,,,,,,4.4,1.9,4.0*39
$GPRMC,190122.000,A,3748.7659,N,12217.8031,W,2.02,116.97,060412,,,D*71
$GPVTG,116.97,T,,M,2.02,N,3.7,K,D*04
$GPGGA,190123.000,3748.7668,N,12217.8025,W,2,05,1.9,26.0,M,-25.1,M,1.8,0000*7F
$GPGSA,A,3,32,01,11,14,31,,,,,,,,4.4,1.9,4.0*39
$GPRMC,190123.000,A,3748.7668,N,12217.8025,W,1.70,73.37,060412,,,D*49
$GPVTG,73.37,T,,M,1.70,N,3.1,K,D*3C
$GPGGA,190124.000,3748.7674,N,12217.8020,W,2,04,2.2,26.5,M,-25.1,M,2.8,0000*7F
$GPGSA,A,3,32,01,11,31,,,,,,,,,2.4,2.2,1.0*37
$GPRMC,190124.000,A,3748.7674,N,12217.8020,W,2.21,81.32,060412,,,D*49
$GPVTG,81.32,T,,M,2.21,N,4.1,K,D*34
$GPGGA,190125.000,3748.7677,N,12217.8011,W,2,05,1.9,25.8,M,-25.1,M,3.8,0000*79
$GPGSA,A,3,32,01,11,14,31,,,,,,,,4.4,1.9,4.0*39
$GPGSV,3,1,12,31,64,105,29,32,55,319,21,01,54,280,25,11,45,242,32*77
$GPGSV,3,2,12,14,32,051,25,20,28,305,23,22,20,108,28,23,13,252,28*7E
$GPGSV,3,3,12,25,09,062,23,30,06,147,22,19,04,217,18,17,02,318,*79
$GPRMC,190125.000,A,3748.7677,N,12217.8011,W,2.06,89.57,060412,,,D*47
$GPVTG,89.57,T,,M,2.06,N,3.8,K,D*34
$GPGGA,190126.000,3748.7679,N,12217.8001,W,2,05,1.9,25.2,M,-25.1,M,4.8,0000*78
$GPGSA,A,3,32,01,11,14,31,,,,,,,,4.4,1.9,4.0*39
$GPRMC,190126.000,A,3748.7679,N,12217.8001,W,2.04,97.58,060412,,,D*49
$GPVTG,97.58,T,,M,2.04,N,3.8,K,D*36
$GPGGA,190127.000,3748.7671,N,12217.7988,W,2,05,1.9,24.4,M,-25.1,M,1.8,0000*74
$GPGSA,A,3,32,01,11,14,31,,,,,,,,4.4,1.9,4.0*39
$GPRMC,190127.000,A,3748.7671,N,12217.7988,W,2.25,116.37,060412,,,D*75
$GPVTG,116.37,T,,M,2.25,N,4.2,K,D*09
$GPGGA,190128.000,3748.7662,N,12217.7982,W,2,05,1.9,24.6,M,-25.1,M,1.8,0000*71
$GPGSA,A,3,32,01,11,14,31,,,,,,,,4.4,1.9,4.0*39
$GPRMC,190128.000,A,3748.7662,N,12217.7982,W,2.09,130.87,060412,,,D*73
$GPVTG,130.87,T,,M,2.09,N,3.9,K,D*04
$GPGGA,190129.000,3748.7654,N,12217.7977,W,2,05,1.9,25.5,M,-25.1,M,1.8,0000*7D
$GPGSA,A,3,32,01,11,14,31,,,,,,,,4.4,1.9,4.0*39
$GPRMC,190129.000,A,3748.7654,N,12217.7977,W,2.21,125.34,060412,,,D*7B
$GPVTG,125.34,T,,M,2.21,N,4.1,K,D*0D
$GPGGA,190130.000,3748.7645,N,12217.7968,W,2,05,1.9,25.0,M,-25.1,M,2.8,0000*7D
$GPGSA,A,3,32,01,11,14,31,,,,,,,,4.4,1.9,4.0*39
$GPGSV,3,1,12,31,64,105,29,32,55,319,21,01,54,280,25,11,45,242,32*77
$GPGSV,3,2,12,14,32,051,15,20,28,305,23,22,20,108,28,23,13,252,26*73
$GPGSV,3,3,12,25,09,062,14,30,06,147,25,19,04,217,18,17,02,318,*7A
$GPRMC,190130.000,A,3748.7645,N,12217.7968,W,3.00,122.99,060412,,,D*7F
$GPVTG,122.99,T,,M,3.00,N,5.6,K,D*09
$GPGGA,190131.000,3748.7631,N,12217.7954,W,2,04,2.2,23.9,M,-25.1,M,3.8,0000*77
$GPGSA,A,3,32,01,11,31,,,,,,,,,2.4,2.2,1.0*37
$GPRMC,190131.000,A,3748.7631,N,12217.7954,W,3.23,120.10,060412,,,D*70
$GPVTG,120.10,T,,M,3.23,N,6.0,K,D*0E
$GPGGA,190132.000,3748.7630,N,12217.7946,W,2,04,2.2,23.1,M,-25.1,M,1.8,0000*7C
$GPGSA,A,3,32,01,11,31,,,,,,,,,2.4,2.2,1.0*37
$GPRMC,190132.000,A,3748.7630,N,12217.7946,W,2.47,99.65,060412,,,D*43
$GPVTG,99.65,T,,M,2.47,N,4.6,K,D*38
$GPGGA,190133.000,3748.7631,N,12217.7938,W,2,05,1.9,21.6,M,-25.1,M,2.8,0000*7A
$GPGSA,A,3,32,01,11,14,31,,,,,,,,4.4,1.9,4.0*39
$GPRMC,190133.000,A,3748.7631,N,12217.7938,W,2.16,87.03,060412,,,D*41
$GPVTG,87.03,T,,M,2.16,N,4.0,K,D*35
$GPGGA,190134.000,3748.7625,N,12217.7928,W,2,04,2.2,21.1,M,-25.1,M,1.8,0000*74
$GPGSA,A,3,32,01,11,31,,,,,,,,,2.4,2.2,1.0*37
$GPRMC,190134.000,A,3748.7625,N,12217.7928,W,2.43,89.26,060412,,,D*4B
$GPVTG,89.26,T,,M,2.43,N,4.5,K,D*39
$GPGGA,190135.000,3748.7631,N,12217.7917,W,2,05,1.9,20.3,M,-25.1,M,2.8,0000*75
$GPGSA,A,3,32,01,11,14,31,,,,,,,,4.4,1.9,4.0*39
$GPGSV,3,1,12,31,64,105,29,32,55,319,20,01,54,280,25,11,45,242,32*76
$GPGSV,3,2,12,14,32,051,18,20,28,305,22,22,20,108,23,23,13,252,22*70
$GPGSV,3,3,12,25,09,062,14,30,06,147,31,19,04,217,31,17,02,318,*74
$GPRMC,190135.000,A,3748.7631,N,12217.7917,W,2.66,92.80,060412,,,D*42
$GPGGA,190136.000,3748.7622,N,12217.7902,W,2,05,1.9,18.7,M,-25.1,M,3.8,0000*7E
$GPGSA,A,3,32,01,11,14,31,,,,,,,,4.4,1.9,4.0*39
$GPRMC,190136.000,A,3748.7622,N,12217.7902,W,2.83,111.63,060412,,,D*7B
$GPVTG,111.63,T,,M,2.83,N,5.2,K,D*02
$GPGGA,190137.000,3748.7615,N,12217.7890,W,2,05,1.9,15.4,M,-25.1,M,4.8,0000*78
$GPGSA,A,3,32,01,11,14,31,,,,,,,,4.4,1.9,4.0*39
$GPRMC,190137.000,A,3748.7615,N,12217.7890,W,3.35,122.75,060412,,,D*7F
$GPVTG,122.75,T,,M,3.35,N,6.2,K,D*0A
$GPGGA,190138.000,3748.7606,N,12217.7881,W,2,05,1.9,12.5,M,-25.1,M,5.8,0000*72
$GPGSA,A,3,32,01,11,14,31,,,,,,,,4.4,1.9,4.0*39
$GPRMC,190138.000,A,3748.7606,N,12217.7881,W,3.93,130.40,060412,,,D*7B
$GPVTG,130.40,T,,M,3.93,N,7.3,K,D*03
$GPGGA,190139.000,3748.7598,N,12217.7866,W,2,05,1.9,9.9,M,-25.1,M,6.8,0000*4B
$GPGSA,A,3,32,01,11,14,31,,,,,,,,4.4,1.9,4.0*39
$GPRMC,190139.000,A,3748.7598,N,12217.7866,W,3.58,116.36,060412,,,D*75
$GPVTG,116.36,T,,M,3.58,N,6.6,K,D*05
$GPGGA,190140.000,3748.7592,N,12217.7858,W,2,05,1.9,10.8,M,-25.1,M,7.8,0000*7A
$GPGSA,A,3,32,01,11,14,31,,,,,,,,4.4,1.9,4.0*39
$GPGSV,3,1,12,31,64,105,26,32,55,319,20,01,54,280,26,11,45,242,32*7A
$GPGSV,3,2,12,14,32,051,19,20,28,305,23,22,20,108,21,23,13,252,27*77
$GPGSV,3,3,12,25,09,062,14,30,06,147,21,19,04,217,32,17,02,318,*76
$GPRMC,190140.000,A,3748.7592,N,12217.7858,W,3.02,120.44,060412,,,D*73
$GPVTG,120.44,T,,M,3.02,N,5.6,K,D*09
$GPGGA,190141.000,3748.7585,N,12217.7853,W,2,05,1.9,11.5,M,-25.1,M,8.8,0000*75
$GPGSA,A,3,32,01,11,14,31,,,,,,,,4.4,1.9,4.0*39
$GPRMC,190141.000,A,3748.7585,N,12217.7853,W,2.47,125.85,060412,,,D*77
$GPVTG,125.85,T,,M,2.47,N,4.6,K,D*00
$GPGGA,190142.000,3748.7581,N,12217.7845,W,2,05,1.9,12.6,M,-25.1,M,9.8,0000*74
$GPGSA,A,3,32,01,11,14,31,,,,,,,,4.4,1.9,4.0*39
$GPRMC,190142.000,A,3748.7581,N,12217.7845,W,2.46,127.47,060412,,,D*7A
$GPVTG,127.47,T,,M,2.46,N,4.6,K,D*0D
$GPGGA,190143.000,3748.7583,N,12217.7842,W,2,05,1.9,14.1,M,-25.1,M,10.8,0000*49
$GPGSA,A,3,32,01,11,14,31,,,,,,,,4.4,1.9,4.0*39
$GPRMC,190143.000,A,3748.7583,N,12217.7842,W,2.23,109.01,060412,,,D*73
$GPVTG,109.01,T,,M,2.23,N,4.1,K,D*07
$GPGGA,190144.000,3748.7581,N,12217.7835,W,2,04,2.2,13.5,M,-25.1,M,1.8,0000*76
$GPGSA,A,3,32,01,11,31,,,,,,,,,2.4,2.2,1.0*37
$GPRMC,190144.000,A,3748.7581,N,12217.7835,W,2.31,88.40,060412,,,D*48
$GPVTG,88.40,T,,M,2.31,N,4.3,K,D*3B
$GPGGA,190145.000,3748.7581,N,12217.7827,W,2,04,2.2,13.6,M,-25.1,M,1.8,0000*77
$GPGSA,A,3,32,01,11,31,,,,,,,,,2.4,2.2,1.0*37
$GPGSV,3,1,12,31,64,105,27,32,55,319,20,01,54,280,26,11,45,242,32*7B
$GPGSV,3,2,12,14,32,051,18,20,28,305,23,22,20,108,19,23,13,252,30*7B
$GPGSV,3,3,12,25,09,062,19,30,06,147,31,19,04,217,27,17,02,318,*7E
$GPRMC,190145.000,A,3748.7581,N,12217.7827,W,2.13,91.95,060412,,,D*4A
$GPVTG,91.95,T,,M,2.13,N,3.9,K,D*36
$GPGGA,190146.000,3748.7585,N,12217.7820,W,2,04,2.2,13.8,M,-25.1,M,1.8,0000*79
$GPGSA,A,3,32,01,11,31,,,,,,,,,2.4,2.2,1.0*37
$GPRMC,190146.000,A,3748.7585,N,12217.7820,W,1.99,65.14,060412,,,D*49
$GPVTG,65.14,T,,M,1.99,N,3.7,K,D*3B
$GPGGA,190147.000,3748.7585,N,12217.7812,W,2,04,2.2,13.4,M,-25.1,M,2.8,0000*76
$GPGSA,A,3,32,01,11,31,,,,,,,,,2.4,2.2,1.0*37
$GPRMC,190147.000,A,3748.7585,N,12217.7812,W,2.15,73.58,060412,,,D*41
$GPVTG,73.58,T,,M,2.15,N,4.0,K,D*33
$GPGGA,190148.000,3748.7577,N,12217.7806,W,2,05,1.9,14.9,M,-25.1,M,3.8,0000*73
$GPGSA,A,3,32,01,11,14,31,,,,,,,,4.4,1.9,4.0*39
$GPRMC,190148.000,A,3748.7577,N,12217.7806,W,2.64,99.45,060412,,,D*48
$GPVTG,99.45,T,,M,2.64,N,4.9,K,D*34
$GPGGA,190149.000,3748.7570,N,12217.7799,W,2,05,1.9,17.3,M,-25.1,M,0.8,0000*76
$GPGSA,A,3,32,01,11,14,31,,,,,,,,4.4,1.9,4.0*39
$GPRMC,190149.000,A,3748.7570,N,12217.7799,W,3.10,105.17,060412,,,D*76
$GPVTG,105.17,T,,M,3.10,N,5.7,K,D*0A
$GPGGA,190150.000,3748.7562,N,12217.7791,W,2,05,1.9,18.4,M,-25.1,M,1.8,0000*7C
$GPGSA,A,3,32,01,11,14,31,,,,,,,,4.4,1.9,4.0*39
$GPGSV,3,1,12,31,64,105,27,32,55,319,20,01,54,280,26,11,45,242,32*7B
$GPGSV,3,2,12,14,32,051,17,20,28,305,23,22,20,108,20,23,13,252,30*7E
$GPGSV,3,3,12,25,09,062,25,30,06,147,31,19,04,217,23,17,02,318,*75
$GPVTG,103.16,T,,M,3.08,N,5.7,K,D*04
$GPGGA,190151.000,3748.7552,N,12217.7781,W,2,05,1.9,19.4,M,-25.1,M,1.8,0000*7E
$GPGSA,A,3,32,01,11,14,31,,,,,,,,4.4,1.9,4.0*39
$GPRMC,190151.000,A,3748.7552,N,12217.7781,W,3.24,109.44,060412,,,D*7B
$GPVTG,109.44,T,,M,3.24,N,6.0,K,D*03
$GPGGA,190152.000,3748.7543,N,12217.7772,W,2,05,1.9,21.2,M,-25.1,M,1.8,0000*7C
$GPGSA,A,3,32,01,11,14,31,,,,,,,,4.4,1.9,4.0*39
$GPRMC,190152.000,A,3748.7543,N,12217.7772,W,2.53,97.64,060412,,,D*41
$GPVTG,97.64,T,,M,2.53,N,4.7,K,D*33
$GPGGA,190153.000,3748.7534,N,12217.7763,W,2,05,1.9,23.8,M,-25.1,M,2.8,0000*76
$GPGSA,A,3,32,01,11,14,31,,,,,,,,4.4,1.9,4.0*39
$GPRMC,190153.000,A,3748.7534,N,12217.7763,W,2.21,113.04,060412,,,D*7E
$GPVTG,113.04,T,,M,2.21,N,4.1,K,D*0B
$GPGGA,190154.000,3748.7527,N,12217.7754,W,2,05,1.9,25.4,M,-25.1,M,3.8,0000*7C
$GPGSA,A,3,32,01,11,14,31,,,,,,,,4.4,1.9,4.0*39
$GPRMC,190154.000,A,3748.7527,N,12217.7754,W,2.64,122.65,060412,,,D*7B
$GPVTG,122.65,T,,M,2.64,N,4.9,K,D*07
$GPGGA,190155.000,3748.7521,N,12217.7743,W,2,04,2.2,25.9,M,-25.1,M,1.8,0000*7B
$GPGSA,A,3,32,01,11,31,,,,,,,,,2.4,2.2,1.0*37
$GPGSV,3,1,12,31,64,105,28,32,55,319,20,01,54,280,26,11,45,242,32*74
$GPGSV,3,2,12,14,32,051,17,20,28,305,22,22,20,108,21,23,13,252,24*7B
$GPGSV,3,3,12,25,09,062,28,30,06,147,32,19,04,217,24,17,02,318,*7C
$GPRMC,190155.000,A,3748.7521,N,12217.7743,W,2.83,128.08,060412,,,D*72
$GPVTG,128.08,T,,M,2.83,N,5.2,K,D*05
$GPGGA,190156.000,3748.7514,N,12217.7733,W,2,04,2.2,25.9,M,-25.1,M,1.8,0000*79
$GPGSA,A,3,32,01,11,31,,,,,,,,,2.4,2.2,1.0*37
$GPRMC,190156.000,A,3748.7514,N,12217.7733,W,2.75,115.60,060412,,,D*79
$GPVTG,115.60,T,,M,2.75,N,5.1,K,D*0F
$GPGGA,190157.000,3748.7514,N,12217.7725,W,2,04,2.2,26.3,M,-25.1,M,1.8,0000*76
$GPGSA,A,3,32,01,11,31,,,,,,,,,2.4,2.2,1.0*37
$GPRMC,190157.000,A,3748.7514,N,12217.7725,W,2.06,99.30,060412,,,D*4B
$GPVTG,99.30,T,,M,2.06,N,3.8,K,D*34
$GPGGA,190158.000,3748.7507,N,12217.7714,W,2,04,2.2,26.0,M,-25.1,M,1.8,0000*7A
$GPGSA,A,3,32,01,11,31,,,,,,,,,2.4,2.2,1.0*37
$GPRMC,190158.000,A,3748.7507,N,12217.7714,W,2.45,95.39,060412,,,D*46
$GPVTG,95.39,T,,M,2.45,N,4.5,K,D*3C
$GPGGA,190159.000,3748.7501,N,12217.7708,W,2,05,1.9,26.9,M,-25.1,M,2.8,0000*73
$GPGSA,A,3,32,01,11,14,31,,,,,,,,4.4,1.9,4.0*39
$GPRMC,190159.000,A,3748.7501,N,12217.7708,W,2.09,92.27,060412,,,D*4C
$GPVTG,92.27,T,,M,2.09,N,3.9,K,D*37
$GPGGA,190200.000,3748.7494,N,12217.7700,W,2,05,1.9,28.2,M,-25.1,M,3.8,0000*7D
$GPGSA,A,3,32,01,11,14,31,,,,,,,,4.4,1.9,4.0*39
$GPGSV,3,1,12,31,64,105,28,32,55,319,20,01,54,280,26,11,45,242,32*74
$GPGSV,3,2,12,14,32,051,17,20,28,305,21,22,20,108,21,23,13,252,24*78
$GPGSV,3,3,12,25,09,062,26,30,06,147,25,19,04,217,20,17,02,318,*70
$GPRMC,190200.000,A,3748.7494,N,12217.7700,W,2.14,92.84,060412,,,D*43
$GPVTG,92.84,T,,M,2.14,N,4.0,K,D*3C
$GPGGA,190201.000,3748.7484,N,12217.7686,W,2,05,1.9,27.6,M,-25.1,M,1.8,0000*7B
$GPGSA,A,3,32,01,11,14,31,,,,,,,,4.4,1.9,3.9*37
$GPRMC,190201.000,A,3748.7484,N,12217.7686,W,2.56,99.91,060412,,,D*45
$GPVTG,99.91,T,,M,2.56,N,4.8,K,D*3D
$GPGGA,190202.000,3748.7475,N,12217.7675,W,2,05,1.9,28.6,M,-25.1,M,1.8,0000*75
$GPGSA,A,3,32,01,11,14,31,,,,,,,,4.4,1.9,3.9*37
$GPRMC,190202.000,A,3748.7475,N,12217.7675,W,2.80,101.00,060412,,,D*77
$GPVTG,101.00,T,,M,2.80,N,5.2,K,D*05
$GPGGA,190203.000,3748.7470,N,12217.7665,W,2,05,1.9,29.5,M,-25.1,M,1.8,0000*72
$GPGSA,A,3,32,01,11,14,31,,,,,,,,4.4,1.9,3.9*37
$GPRMC,190203.000,A,3748.7470,N,12217.7665,W,2.58,92.81,060412,,,D*45
$GPVTG,92.81,T,,M,2.58,N,4.8,K,D*39
$GPGGA,190204.000,3748.7470,N,12217.7658,W,2,05,1.9,29.7,M,-25.1,M,2.8,0000*7A
$GPGSA,A,3,32,01,11,14,31,,,,,,,,4.4,1.9,3.9*37
$GPRMC,190204.000,A,3748.7470,N,12217.7658,W,2.50,80.74,060412,,,D*4D
$GPVTG,80.74,T,,M,2.50,N,4.6,K,D*36
$GPGGA,190205.000,3748.7473,N,12217.7651,W,2,05,1.9,29.4,M,-25.1,M,3.8,0000*73
$GPGSA,A,3,32,01,11,14,31,,,,,,,,4.4,1.9,3.9*37
$GPGSV,3,1,12,31,64,105,28,32,55,319,20,01,54,280,25,11,45,242,32*77
$GPGSV,3,2,12,14,32,051,17,20,28,305,22,22,20,108,22,23,13,252,25*79
$GPGSV,3,3,12,25,09,062,14,30,06,147,26,19,04,217,19,17,02,318,*78
$GPVTG,63.81,T,,M,2.35,N,4.4,K,D*30
$GPGGA,190206.000,3748.7474,N,12217.7646,W,2,05,1.9,31.6,M,-25.1,M,4.8,0000*7D
$GPGSA,A,3,32,01,11,14,31,,,,,,,,4.4,1.9,3.9*37
$GPRMC,190206.000,A,3748.7474,N,12217.7646,W,2.19,76.21,060412,,,D*40
$GPVTG,76.21,T,,M,2.19,N,4.1,K,D*35
$GPGGA,190207.000,3748.7466,N,12217.7638,W,2,05,1.9,33.4,M,-25.1,M,5.8,0000*77
$GPGSA,A,3,32,01,11,14,31,,,,,,,,4.4,1.9,3.9*37
$GPRMC,190207.000,A,3748.7466,N,12217.7638,W,2.01,91.77,060412,,,D*48
$GPVTG,91.77,T,,M,2.01,N,3.7,K,D*37
$GPGGA,190208.000,3748.7458,N,12217.7629,W,2,04,2.2,33.3,M,-25.1,M,1.8,0000*7F
$GPGSA,A,3,32,01,11,31,,,,,,,,,2.4,2.2,1.0*37
$GPRMC,190208.000,A,3748.7458,N,12217.7629,W,1.90,110.78,060412,,,D*76
$GPVTG,110.78,T,,M,1.90,N,3.5,K,D*09
$GPGGA,190209.000,3748.7453,N,12217.7623,W,2,04,2.2,33.6,M,-25.1,M,1.8,0000*7A
$GPGSA,A,3,32,01,11,31,,,,,,,,,2.4,2.2,1.0*37
$GPRMC,190209.000,A,3748.7453,N,12217.7623,W,2.05,123.31,060412,,,D*74
$GPVTG,123.31,T,,M,2.05,N,3.8,K,D*06
$GPGGA,190210.000,3748.7439,N,12217.7613,W,2,05,1.9,33.9,M,-25.1,M,1.8,0000*7B
$GPGSA,A,3,32,01,11,14,31,,,,,,,,4.4,1.9,3.9*37
$GPGSV,3,1,12,31,64,105,28,32,55,319,20,01,54,280,25,11,45,242,32*77
$GPGSV,3,2,12,14,32,051,16,20,28,305,22,22,20,108,29,23,13,252,30*77
$GPGSV,3,3,12,25,09,062,16,30,06,147,30,19,04,217,19,17,02,318,*7D
$GPRMC,190210.000,A,3748.7439,N,12217.7613,W,2.27,115.26,060412,,,D*70
$GPVTG,115.26,T,,M,2.27,N,4.2,K,D*08
$GPGGA,190211.000,3748.7423,N,12217.7602,W,2,05,1.9,34.0,M,-25.1,M,1.8,0000*7F
$GPGSA,A,3,32,01,11,14,31,,,,,,,,4.4,1.9,3.9*37
$GPRMC,190211.000,A,3748.7423,N,12217.7602,W,2.40,129.96,060412,,,D*7F
$GPVTG,129.96,T,,M,2.40,N,4.4,K,D*0B
$GPGGA,190212.000,3748.7416,N,12217.7588,W,2,05,1.9,31.9,M,-25.1,M,2.8,0000*74
$GPGSA,A,3,32,01,11,14,31,,,,,,,,4.4,1.9,3.9*37
$GPRMC,190212.000,A,3748.7416,N,12217.7588,W,2.62,104.64,060412,,,D*79
$GPVTG,104.64,T,,M,2.62,N,4.8,K,D*05
$GPGGA,190213.000,3748.7408,N,12217.7578,W,2,05,1.9,31.4,M,-25.1,M,3.8,0000*79
$GPGSA,A,3,32,01,11,14,31,,,,,,,,4.4,1.9,3.9*37
$GPRMC,190213.000,A,3748.7408,N,12217.7578,W,2.21,108.99,060412,,,D*71
$GPVTG,108.99,T,,M,2.21,N,4.1,K,D*05
$GPGGA,190214.000,3748.7401,N,12217.7565,W,2,05,1.9,29.8,M,-25.1,M,1.8,0000*7C
$GPGSA,A,3,32,01,11,14,31,,,,,,,,4.4,1.9,3.9*37
$GPRMC,190214.000,A,3748.7401,N,12217.7565,W,1.93,106.32,060412,,,D*76
$GPVTG,106.32,T,,M,1.93,N,3.6,K,D*00
$GPGGA,190215.000,3748.7400,N,12217.7555,W,2,05,1.9,28.9,M,-25.1,M,1.8,0000*7F
$GPGSA,A,3,32,01,11,14,31,,,,,,,,4.3,1.9,3.9*30
$GPGSV,3,1,12,31,64,105,28,32,55,319,20,01,54,280,25,11,45,242,32*77
$GPGSV,3,2,12,14,32,051,21,20,28,305,21,22,20,108,25,23,13,252,25*78
$GPGSV,3,3,12,25,09,062,17,30,06,147,25,19,04,217,20,17,02,318,*72
$GPRMC,190215.000,A,3748.7400,N,12217.7555,W,1.61,92.88,060412,,,D*45
$GPVTG,92.88,T,,M,1.61,N,3.0,K,D*36
$GPGGA,190216.000,3748.7398,N,12217.7545,W,2,05,1.9,26.9,M,-25.1,M,1.8,0000*75
$GPGSA,A,3,32,01,11,14,31,,,,,,,,4.3,1.9,3.9*30
$GPRMC,190216.000,A,3748.7398,N,12217.7545,W,2.11,104.76,060412,,,D*7A
$GPVTG,104.76,T,,M,2.11,N,3.9,K,D*04
$GPGGA,190217.000,3748.7397,N,12217.7535,W,2,05,1.9,25.0,M,-25.1,M,1.8,0000*76
$GPGSA,A,3,32,01,11,14,31,,,,,,,,4.3,1.9,3.9*30
$GPRMC,190217.000,A,3748.7397,N,12217.7535,W,2.37,99.93,060412,,,D*49
$GPVTG,99.93,T,,M,2.37,N,4.4,K,D*34
$GPGGA,190218.000,3748.7393,N,12217.7524,W,2,05,1.9,22.6,M,-25.1,M,1.8,0000*7C
$GPGSA,A,3,32,01,11,14,31,,,,,,,,4.3,1.9,3.9*30
$GPRMC,190218.000,A,3748.7393,N,12217.7524,W,2.09,88.16,060412,,,D*42
$GPVTG,88.16,T,,M,2.09,N,3.9,K,D*3E
$GPGGA,190219.000,3748.7388,N,12217.7512,W,2,05,1.9,18.7,M,-25.1,M,2.8,0000*79
$GPGSA,A,3,32,01,11,14,31,,,,,,,,4.3,1.9,3.9*30
$GPRMC,190219.000,A,3748.7388,N,12217.7512,W,1.98,91.59,060412,,,D*44
$GPVTG,91.59,T,,M,1.98,N,3.7,K,D*38
$GPGGA,190220.000,3748.7386,N,12217.7501,W,2,05,1.9,17.8,M,-25.1,M,1.8,0000*7C
$GPGSA,A,3,32,01,11,14,31,,,,,,,,4.3,1.9,3.9*30
$GPGSV,3,1,12,31,64,103,28,32,56,319,20,01,54,279,24,11,45,242,32*75
$GPGSV,3,2,12,14,31,051,21,20,29,305,21,22,20,108,25,23,14,253,27*7E
$GPGSV,3,3,12,25,09,061,18,30,07,147,25,19,04,216,11,17,02,318,*7C
$GPVTG,89.64,T,,M,1.98,N,3.7,K,D*3F
$GPGGA,190221.000,3748.7388,N,12217.7491,W,2,05,1.9,15.4,M,-25.1,M,2.8,0000*76
$GPGSA,A,3,32,01,11,14,31,,,,,,,,4.3,1.9,3.9*30
$GPRMC,190221.000,A,3748.7388,N,12217.7491,W,2.35,74.74,060412,,,D*45
$GPVTG,74.74,T,,M,2.35,N,4.3,K,D*3B
$GPGGA,190222.000,3748.7383,N,12217.7478,W,2,05,1.9,12.4,M,-25.1,M,3.8,0000*7F
$GPGSA,A,3,32,01,11,14,31,,,,,,,,4.3,1.9,3.9*30
$GPRMC,190222.000,A,3748.7383,N,12217.7478,W,1.98,90.67,060412,,,D*46
$GPVTG,90.67,T,,M,1.98,N,3.7,K,D*34
$GPGGA,190223.000,3748.7377,N,12217.7468,W,2,05,1.9,10.3,M,-25.1,M,4.8,0000*76
$GPGSA,A,3,32,01,11,14,31,,,,,,,,4.3,1.9,3.9*30
$GPRMC,190223.000,A,3748.7377,N,12217.7468,W,1.91,80.49,060412,,,D*49
$GPVTG,80.49,T,,M,1.91,N,3.5,K,D*32
$GPGGA,190224.000,3748.7371,N,12217.7458,W,2,05,1.9,7.9,M,-25.1,M,5.8,0000*49
$GPGSA,A,3,32,01,11,14,31,,,,,,,,4.3,1.9,3.9*30
$GPRMC,190224.000,A,3748.7371,N,12217.7458,W,1.71,95.05,060412,,,D*49
$GPVTG,95.05,T,,M,1.71,N,3.2,K,D*37
$GPGGA,190225.000,3748.7379,N,12217.7461,W,2,05,1.9,10.8,M,-25.1,M,6.8,0000*7E
$GPGSA,A,3,32,01,11,14,31,,,,,,,,4.3,1.9,3.9*30
$GPGSV,3,1,12,31,64,103,28,32,56,319,21,01,54,279,24,11,45,242,32*74
$GPGSV,3,2,12,14,31,051,20,20,29,305,22,22,20,108,31,23,14,253,27*79
$GPGSV,3,3,12,25,09,061,18,30,07,147,23,19,04,216,15,17,02,318,*7E
$GPRMC,190225.000,A,3748.7379,N,12217.7461,W,1.07,105.14,060412,,,D*73
$GPVTG,105.14,T,,M,1.07,N,2.0,K,D*0D
$GPGGA,190226.000,3748.7380,N,12217.7458,W,2,05,1.9,13.4,M,-25.1,M,7.8,0000*7F
$GPGSA,A,3,32,01,11,14,31,,,,,,,,4.3,1.9,3.9*30
$GPRMC,190226.000,A,3748.7380,N,12217.7458,W,1.81,92.57,060412,,,D*4A
$GPVTG,92.57,T,,M,1.81,N,3.4,K,D*3E
$GPGGA,190227.000,3748.7378,N,12217.7453,W,2,05,1.9,14.1,M,-25.1,M,8.8,0000*7F
$GPGSA,A,3,32,01,11,14,31,,,,,,,,4.3,1.9,3.9*30
$GPRMC,190227.000,A,3748.7378,N,12217.7453,W,1.87,109.11,060412,,,D*70
$GPVTG,109.11,T,,M,1.87,N,3.5,K,D*08
$GPGGA,190228.000,3748.7376,N,12217.7442,W,2,05,1.9,13.4,M,-25.1,M,1.8,0000*75
$GPGSA,A,3,32,01,11,14,31,,,,,,,,4.3,1.9,3.9*30
$GPRMC,190228.000,A,3748.7376,N,12217.7442,W,2.14,115.12,060412,,,D*76
$GPVTG,115.12,T,,M,2.14,N,4.0,K,D*0D
$GPGGA,190229.000,3748.7377,N,12217.7427,W,2,05,1.9,12.6,M,-25.1,M,2.8,0000*76
$GPGSA,A,3,32,01,11,14,31,,,,,,,,4.3,1.9,3.9*30
$GPRMC,190229.000,A,3748.7377,N,12217.7427,W,2.77,99.19,060412,,,D*4E
$GPVTG,99.19,T,,M,2.77,N,5.1,K,D*36
$GPGGA,190230.000,3748.7383,N,12217.7421,W,2,05,1.9,10.4,M,-25.1,M,3.8,0000*72
$GPGSA,A,3,32,01,11,14,31,,,,,,,,4.3,1.9,3.9*30
$GPGSV,3,1,12,31,64,103,27,32,56,319,21,01,54,279,24,11,45,242,25*7D
$GPGSV,3,2,12,14,31,051,20,20,29,305,22,22,20,108,32,23,14,253,28*75
$GPGSV,3,3,12,25,09,061,19,30,07,147,31,19,04,216,21,17,02,318,*7B
$GPRMC,190230.000,A,3748.7383,N,12217.7421,W,1.94,84.60,060412,,,D*47
$GPVTG,84.60,T,,M,1.94,N,3.6,K,D*3B
$GPGGA,190231.000,3748.7384,N,12217.7419,W,2,05,1.9,7.3,M,-25.1,M,4.8,0000*49
$GPGSA,A,3,32,01,11,14,31,,,,,,,,4.3,1.9,3.9*30
$GPRMC,190231.000,A,3748.7384,N,12217.7419,W,1.64,86.17,060412,,,D*47
$GPVTG,86.17,T,,M,1.64,N,3.0,K,D*30
$GPGGA,190232.000,3748.7375,N,12217.7410,W,2,05,1.9,4.4,M,-25.1,M,1.8,0000*4C
$GPGSA,A,3,32,01,11,14,31,,,,,,,,4.3,1.9,3.9*30
$GPRMC,190232.000,A,3748.7375,N,12217.7410,W,1.91,119.84,060412,,,D*74
$GPVTG,119.84,T,,M,1.91,N,3.5,K,D*02
$GPGGA,190233.000,3748.7365,N,12217.7395,W,2,05,1.9,2.7,M,-25.1,M,1.8,0000*43
$GPGSA,A,3,32,01,11,14,31,,,,,,,,4.3,1.9,3.9*30
$GPRMC,190233.000,A,3748.7365,N,12217.7395,W,2.32,114.05,060412,,,D*70
$GPVTG,114.05,T,,M,2.32,N,4.3,K,D*0D
$GPGGA,190234.000,3748.7361,N,12217.7387,W,2,05,1.9,1.0,M,-25.1,M,1.8,0000*47
$GPGSA,A,3,32,01,11,14,31,,,,,,,,4.3,1.9,3.9*30
$GPRMC,190234.000,A,3748.7361,N,12217.7387,W,1.93,109.88,060412,,,D*71
$GPVTG,109.88,T,,M,1.93,N,3.6,K,D*0E
$GPGGA,190235.000,3748.7353,N,12217.7376,W,2,05,1.9,1.5,M,-25.1,M,2.8,0000*4F
$GPGSA,A,3,32,01,11,14,31,,,,,,,,4.3,1.9,3.9*30
$GPGSV,3,1,12,31,64,103,27,32,56,319,20,01,54,279,23,11,45,242,32*7D
$GPGSV,3,2,12,14,31,051,21,20,29,305,21,22,20,108,29,23,14,253,27*72
$GPGSV,3,3,12,25,09,061,19,30,07,147,22,19,04,216,22,17,02,318,*7A
$GPVTG,110.49,T,,M,1.97,N,3.6,K,D*0F
$GPGGA,190236.000,3748.7350,N,12217.7375,W,2,05,1.9,2.6,M,-25.1,M,3.8,0000*4D
$GPGSA,A,3,32,01,11,14,31,,,,,,,,4.3,1.9,3.9*30
$GPRMC,190236.000,A,3748.7350,N,12217.7375,W,1.64,113.74,060412,,,D*7C
$GPVTG,113.74,T,,M,1.64,N,3.0,K,D*08
$GPGGA,190237.000,3748.7345,N,12217.7368,W,2,05,1.9,0.5,M,-25.1,M,4.8,0000*42
$GPGSA,A,3,32,01,11,14,31,,,,,,,,4.3,1.9,3.9*30
$GPRMC,190237.000,A,3748.7345,N,12217.7368,W,2.48,103.35,060412,,,D*7C
$GPVTG,103.35,T,,M,2.48,N,4.6,K,D*00
$GPGGA,190238.000,3748.7345,N,12217.7357,W,2,05,1.9,-1.3,M,-25.1,M,5.8,0000*6A
$GPGSA,A,3,32,01,11,14,31,,,,,,,,4.3,1.9,3.9*30
$GPRMC,190238.000,A,3748.7345,N,12217.7357,W,2.00,72.72,060412,,,D*47
$GPVTG,72.72,T,,M,2.00,N,3.7,K,D*3E
$GPGGA,190239.000,3748.7345,N,12217.7351,W,2,05,1.9,0.0,M,-25.1,M,6.8,0000*41
$GPGSA,A,3,32,01,11,14,31,,,,,,,,4.3,1.9,3.9*30
$GPRMC,190239.000,A,3748.7345,N,12217.7351,W,0.97,58.46,060412,,,D*43
$GPVTG,58.46,T,,M,0.97,N,1.8,K,D*30
$GPGGA,190240.000,3748.7340,N,12217.7351,W,2,05,1.9,0.4,M,-25.1,M,7.8,0000*4F
$GPGSA,A,3,32,01,11,14,31,,,,,,,,4.3,1.9,3.9*30
$GPGSV,3,1,12,31,64,103,26,32,56,319,22,01,54,279,23,11,45,242,25*78
$GPGSV,3,2,12,14,31,051,21,20,29,305,20,22,20,108,29,23,14,253,19*7E
$GPGSV,3,3,12,25,09,061,20,30,07,147,23,19,04,216,13,17,02,318,*73
$GPRMC,190240.000,A,3748.7340,N,12217.7351,W,0.81,107.70,060412,,,D*71
$GPVTG,107.70,T,,M,0.81,N,1.5,K,D*04
$GPGGA,190241.000,3748.7325,N,12217.7339,W,2,05,1.9,0.9,M,-25.1,M,8.8,0000*41
$GPGSA,A,3,32,01,11,14,31,,,,,,,,4.3,1.9,3.9*30
$GPRMC,190241.000,A,3748.7325,N,12217.7339,W,2.06,119.54,060412,,,D*79
$GPVTG,119.54,T,,M,2.06,N,3.8,K,D*0F
$GPGGA,190242.000,3748.7319,N,12217.7325,W,2,05,1.9,2.5,M,-25.1,M,9.8,0000*4F
$GPGSA,A,3,32,01,11,14,31,,,,,,,,4.3,1.9,3.9*30
$GPRMC,190242.000,A,3748.7319,N,12217.7325,W,1.86,105.12,060412,,,D*7C
$GPVTG,105.12,T,,M,1.86,N,3.4,K,D*07
$GPGGA,190243.000,3748.7313,N,12217.7311,W,2,05,1.9,1.7,M,-25.1,M,10.8,0000*7A
$GPGSA,A,3,32,01,11,14,31,,,,,,,,4.3,1.9,3.9*30
$GPRMC,190243.000,A,3748.7313,N,12217.7311,W,2.68,114.65,060412,,,D*73
$GPVTG,114.65,T,,M,2.68,N,5.0,K,D*06
$GPGGA,190244.000,3748.7308,N,12217.7296,W,2,05,1.9,0.1,M,-25.1,M,1.8,0000*4E
$GPGSA,A,3,32,01,11,14,31,,,,,,,,4.3,1.9,3.9*30
$GPRMC,190244.000,A,3748.7308,N,12217.7296,W,2.60,116.99,060412,,,D*79
$GPVTG,116.99,T,,M,2.60,N,4.8,K,D*06
$GPGGA,190245.000,3748.7307,N,12217.7285,W,2,05,1.9,-0.9,M,-25.1,M,2.8,0000*64
$GPGSA,A,3,32,01,11,14,31,,,,,,,,4.3,1.9,3.9*30
$GPGSV,3,1,12,31,64,103,27,32,56,319,21,01,54,279,23,11,45,242,27*78
$GPGSV,3,2,12,14,31,051,22,20,29,305,20,22,20,108,25,23,14,253,19*71
$GPGSV,3,3,12,25,09,061,20,30,07,147,22,19,04,216,13,17,02,318,*72
$GPRMC,190245.000,A,3748.7307,N,12217.7285,W,2.17,109.40,060412,,,D*7F
$GPVTG,109.40,T,,M,2.17,N,4.0,K,D*04
$GPGGA,190246.000,3748.7302,N,12217.7273,W,2,05,1.9,-1.5,M,-25.1,M,1.8,0000*65
$GPGSA,A,3,32,01,11,14,31,,,,,,,,4.3,1.9,3.9*30
$GPRMC,190246.000,A,3748.7302,N,12217.7273,W,1.96,108.70,060412,,,D*78
$GPVTG,108.70,T,,M,1.96,N,3.6,K,D*0D
$GPGGA,190247.000,3748.7299,N,12217.7264,W,2,05,1.9,-3.7,M,-25.1,M,2.8,0000*62
$GPGSA,A,3,32,01,11,14,31,,,,,,,,4.3,1.9,3.9*30
$GPRMC,190247.000,A,3748.7299,N,12217.7264,W,1.99,87.94,060412,,,D*4F
$GPVTG,87.94,T,,M,1.99,N,3.7,K,D*3F
$GPGGA,190248.000,3748.7298,N,12217.7253,W,2,05,1.9,-5.0,M,-25.1,M,3.8,0000*68
$GPGSA,A,3,32,01,11,14,31,,,,,,,,4.3,1.9,3.9*30
$GPRMC,190248.000,A,3748.7298,N,12217.7253,W,2.63,64.97,060412,,,D*4D
$GPVTG,64.97,T,,M,2.63,N,4.9,K,D*3E
$GPGGA,190249.000,3748.7289,N,12217.7247,W,2,05,1.9,-4.4,M,-25.1,M,4.8,0000*6E
$GPGSA,A,3,32,01,11,14,31,,,,,,,,4.3,1.9,3.9*30
$GPRMC,190249.000,A,3748.7289,N,12217.7247,W,2.28,108.89,060412,,,D*72
$GPVTG,108.89,T,,M,2.28,N,4.2,K,D*0E
$GPGGA,190250.000,3748.7288,N,12217.7242,W,2,04,2.2,-4.4,M,-25.1,M,1.8,0000*6E
$GPGSA,A,3,32,01,11,31,,,,,,,,,2.4,2.2,1.0*37
$GPGSV,3,1,12,31,64,103,28,32,56,319,22,01,54,279,23,11,45,242,32*70
$GPGSV,3,2,12,14,31,051,16,20,29,305,19,22,20,108,32,23,14,253,19*7A
$GPGSV,3,3,12,25,09,061,21,30,07,147,22,19,04,216,14,17,02,318,*74
$GPRMC,190250.000,A,3748.7288,N,12217.7242,W,1.69,108.41,060412,,,D*7C
$GPVTG,108.41,T,,M,1.69,N,3.1,K,D*08
$GPGGA,190251.000,3748.7277,N,12217.7237,W,2,05,1.9,-3.7,M,-25.1,M,2.8,0000*63
$GPGSA,A,3,32,01,11,14,31,,,,,,,,4.3,1.9,3.9*30
$GPRMC,190251.000,A,3748.7277,N,12217.7237,W,2.03,106.80,060412,,,D*73
$GPVTG,106.80,T,,M,2.03,N,3.8,K,D*0D
$GPGGA,190252.000,3748.7264,N,12217.7229,W,2,05,1.9,-3.1,M,-25.1,M,3.8,0000*6A
$GPGSA,A,3,32,01,11,14,31,,,,,,,,4.3,1.9,3.9*30
$GPRMC,190252.000,A,3748.7264,N,12217.7229,W,2.40,119.24,060412,,,D*7A
$GPVTG,119.24,T,,M,2.40,N,4.4,K,D*01
$GPGGA,190253.000,3748.7252,N,12217.7220,W,2,05,1.9,-2.8,M,-25.1,M,4.8,0000*68
$GPGSA,A,3,32,01,11,14,31,,,,,,,,4.3,1.9,3.9*30
$GPRMC,190253.000,A,3748.7252,N,12217.7220,W,2.24,113.88,060412,,,D*79
$GPVTG,113.88,T,,M,2.24,N,4.1,K,D*0A
$GPGGA,190254.000,3748.7243,N,12217.7210,W,2,05,1.9,-3.7,M,-25.1,M,5.8,0000*63
$GPGSA,A,3,32,01,11,14,31,,,,,,,,4.3,1.9,3.9*30
$GPRMC,190254.000,A,3748.7243,N,12217.7210,W,2.52,118.77,060412,,,D*77
$GPVTG,118.77,T,,M,2.52,N,4.7,K,D*06
$GPGGA,190255.000,3748.7242,N,12217.7201,W,2,05,1.9,-2.9,M,-25.1,M,6.8,0000*6F
$GPGSA,A,3,32,01,11,14,31,,,,,,,,4.3,1.9,3.9*30
$GPGSV,3,1,12,31,64,103,28,32,56,319,21,01,54,279,24,11,45,242,32*74
$GPGSV,3,2,12,14,31,051,20,20,29,305,23,22,20,108,32,23,14,253,23*7F
$GPGSV,3,3,12,25,09,061,25,30,07,147,23,19,04,216,14,17,02,318,*71
$GPRMC,190255.000,A,3748.7242,N,12217.7201,W,2.76,107.50,060412,,,D*7A
$GPGGA,190256.000,3748.7233,N,12217.7191,W,2,05,1.9,-0.7,M,-25.1,M,1.8,0000*6B
$GPGSA,A,3,32,01,11,14,31,,,,,,,,4.3,1.9,3.8*31
$GPRMC,190256.000,A,3748.7233,N,12217.7191,W,2.14,110.23,060412,,,D*73
$GPVTG,110.23,T,,M,2.14,N,4.0,K,D*0A
$GPGGA,190257.000,3748.7231,N,12217.7179,W,2,05,1.9,-1.5,M,-25.1,M,1.8,0000*6D
$GPGSA,A,3,32,01,11,14,31,,,,,,,,4.3,1.9,3.8*31
$GPRMC,190257.000,A,3748.7231,N,12217.7179,W,2.08,96.31,060412,,,D*47
$GPVTG,96.31,T,,M,2.08,N,3.8,K,D*34
$GPGGA,190258.000,3748.7228,N,12217.7161,W,2,05,1.9,-3.0,M,-25.1,M,1.8,0000*64
$GPGSA,A,3,32,01,11,14,31,,,,,,,,4.3,1.9,3.8*31
$GPRMC,190258.000,A,3748.7228,N,12217.7161,W,2.70,78.58,060412,,,D*49
$GPVTG,78.58,T,,M,2.70,N,5.0,K,D*3A
$GPGGA,190259.000,3748.7227,N,12217.7142,W,2,05,1.9,-6.1,M,-25.1,M,2.8,0000*6C
$GPGSA,A,3,32,01,11,14,31,,,,,,,,4.3,1.9,3.8*31
$GPRMC,190259.000,A,3748.7227,N,12217.7142,W,2.41,72.27,060412,,,D*46
$GPVTG,72.27,T,,M,2.41,N,4.5,K,D*3E
$GPGGA,190300.000,3748.7229,N,12217.7131,W,2,05,1.9,-8.0,M,-25.1,M,3.8,0000*65
$GPGSA,A,3,32,01,11,14,31,,,,,,,,4.3,1.9,3.8*31
$GPGSV,3,1,12,31,64,103,29,32,56,319,21,01,54,279,23,11,45,242,22*73
$GPGSV,3,2,12,14,31,051,30,20,29,305,17,22,20,108,37,23,14,253,25*7A
$GPGSV,3,3,12,25,09,061,35,30,07,147,25,19,04,216,15,17,02,318,*77
$GPRMC,190300.000,A,3748.7229,N,12217.7131,W,2.14,44.13,060412,,,D*43
$GPVTG,44.13,T,,M,2.14,N,4.0,K,D*39
$GPGGA,190301.000,3748.7239,N,12217.7129,W,2,05,1.9,-8.4,M,-25.1,M,4.8,0000*6F
$GPGSA,A,3,32,01,11,14,31,,,,,,,,4.3,1.9,3.8*31
$GPRMC,190301.000,A,3748.7239,N,12217.7129,W,2.27,8.87,060412,,,D*7F
$GPVTG,8.87,T,,M,2.27,N,4.2,K,D*0E
$GPGGA,190302.000,3748.7243,N,12217.7121,W,2,05,1.9,-10.2,M,-25.1,M,5.8,0000*57
$GPGSA,A,3,32,01,11,14,31,,,,,,,,4.3,1.9,3.8*31
$GPRMC,190302.000,A,3748.7243,N,12217.7121,W,2.08,15.40,060412,,,D*43
$GPVTG,15.40,T,,M,2.08,N,3.8,K,D*39
$GPGGA,190303.000,3748.7251,N,12217.7116,W,2,05,1.9,-10.9,M,-25.1,M,6.8,0000*59
$GPGSA,A,3,32,01,11,14,31,,,,,,,,4.3,1.9,3.8*31
$GPRMC,190303.000,A,3748.7251,N,12217.7116,W,2.21,11.12,060412,,,D*4D
$GPVTG,11.12,T,,M,2.21,N,4.1,K,D*3F
$GPGGA,190304.000,3748.7257,N,12217.7106,W,2,05,1.9,-11.8,M,-25.1,M,7.8,0000*58
$GPGSA,A,3,32,01,11,14,31,,,,,,,,4.3,1.9,3.8*31
$GPRMC,190304.000,A,3748.7257,N,12217.7106,W,2.39,10.92,060412,,,D*4D
$GPVTG,10.92,T,,M,2.39,N,4.4,K,D*3A
$GPGGA,190305.000,3748.7265,N,12217.7096,W,2,05,1.9,-11.9,M,-25.1,M,8.8,0000*5E
$GPGSA,A,3,32,01,11,14,31,,,,,,,,4.3,1.9,3.8*31
$GPGSV,3,1,12,31,64,103,30,32,56,319,21,01,54,279,22,11,45,242,21*79
$GPGSV,3,2,12,14,31,051,29,20,29,305,16,22,20,108,36,23,14,253,20*77
$GPGSV,3,3,12,25,09,061,33,30,07,147,32,19,04,216,15,17,02,318,*77
$GPRMC,190305.000,A,3748.7265,N,12217.7096,W,1.86,18.77,060412,,,D*41
$GPVTG,18.77,T,,M,1.86,N,3.4,K,D*39
