$ADVER,3080,2.3
$GPRMC,201901.487,A,3748.7992,N,12217.8645,W,0.00,,070711,,,A*67
$GPGGA,201902.487,3748.7927,N,12217.8635,W,1,09,0.9,29.1,M,-25.1,M,,0000*50
$GPGSA,A,3,28,08,10,13,07,05,03,23,19,,,,1.6,0.9,1.4*30
$GPRMC,201902.487,A,3748.7927,N,12217.8635,W,0.00,,070711,,,A*6D
$GPVTG,,T,,M,0.00,N,0.0,K,N*1C
$GPGGA,201903.487,3748.7932,N,12217.8640,W,1,09,0.9,19.8,M,-25.1,M,,0000*5D
$GPGSA,A,3,28,08,10,13,07,03,05,23,19,,,,1.6,0.9,1.4*30
$GPRMC,201903.487,A,3748.7932,N,12217.8640,W,0.00,,070711,,,A*6A
$GPVTG,,T,,M,0.00,N,0.0,K,N*1C
$GPGGA,201904.287,3748.7984,N,12217.8609,W,1,05,2.2,-1.4,M,-25.1,M,,0000*41
$GPGSA,A,3,13,28,10,07,08,,,,,,,,5.8,2.2,5.3*3F
$GPRMC,201904.287,A,3748.7984,N,12217.8609,W,0.24,167.02,070711,,,A*71
$GPVTG,167.02,T,,M,0.24,N,0.4,K,A*0D
$GPGGA,201904.587,3748.7921,N,12217.8637,W,1,09,0.9,28.5,M,-25.1,M,,0000*56
$GPGSA,A,3,13,28,23,10,05,07,08,03,19,,,,1.6,0.9,1.4*30
$GPGSV,3,1,12,07,63,039,33,08,60,330,38,28,49,234,41,13,37,144,35*73
$GPGSV,3,2,12,19,31,065,25,10,24,230,36,05,23,285,21,03,12,041,25*7C
$GPGSV,3,3,12,23,08,143,22,06,02,033,,26,14,317,31,11,05,117,*75
$GPRMC,201904.587,A,3748.7921,N,12217.8637,W,0.19,94.66,070711,,,A*45
$GPVTG,94.66,T,,M,0.19,N,0.4,K,A*3C
$GPGGA,201905.000,3748.7914,N,12217.8637,W,1,09,0.9,39.0,M,-25.1,M,,0000*5E
$GPRMC,201905.000,A,3748.7914,N,12217.8637,W,0.14,78.60,070711,,,A*41
$GPVTG,78.60,T,,M,0.14,N,0.3,K,A*32
$GPGGA,201906.000,3748.7931,N,12217.8627,W,1,09,0.9,29.6,M,-25.1,M,,0000*5C
$GPGSA,A,3,13,28,23,10,05,07,08,03,19,,,,1.6,0.9,1.4*30
$GPRMC,201906.000,A,3748.7931,N,12217.8627,W,0.12,57.96,070711,,,A*46
$GPVTG,57.96,T,,M,0.12,N,0.2,K,A*31
$GPGGA,201907.000,3748.7942,N,12217.8619,W,1,09,0.9,23.4,M,-25.1,M,,0000*5C
$GPGSA,A,3,13,28,23,10,05,07,08,03,19,,,,1.6,0.9,1.4*30
$GPRMC,201907.000,A,3748.7942,N,12217.8619,W,0.14,351.14,070711,,,A*77
$GPVTG,351.14,T,,M,0.14,N,0.3,K,A*09
$GPGGA,201908.000,3748.7961,N,12217.8622,W,1,09,0.9,14.0,M,-25.1,M,,0000*5A
$GPGSA,A,3,13,28,23,10,05,07,08,03,19,,,,1.6,0.9,1.4*30
$GPRMC,201908.000,A,3748.7961,N,12217.8622,W,0.53,52.29,070711,,,A*4C
$GPVTG,52.29,T,,M,0.53,N,1.0,K,A*36
$GPGGA,201909.000,3748.7969,N,12217.8620,W,1,09,0.9,9.0,M,-25.1,M,,0000*6D
$GPGSA,A,3,13,28,23,10,05,07,08,03,19,,,,1.6,0.9,1.4*30
$GPGSV,3,1,12,07,63,039,23,08,60,330,36,28,49,234,40,13,37,144,35*7D
$GPGSV,3,2,12,19,31,065,26,10,24,230,34,05,23,285,37,03,12,041,21*7E
$GPGSV,3,3,12,23,08,143,32,06,02,033,,26,14,317,30,11,05,117,*75
$GPRMC,201909.000,A,3748.7969,N,12217.8620,W,0.39,16.28,070711,,,A*4A
$GPVTG,16.28,T,,M,0.39,N,0.7,K,A*3D
$GPGGA,201910.000,3748.7977,N,12217.8621,W,1,09,0.9,6.7,M,-25.1,M,,0000*63
$GPGSA,A,3,13,28,23,10,05,07,08,03,19,,,,1.6,0.9,1.4*30
$GPRMC,201910.000,A,3748.7977,N,12217.8621,W,0.17,297.95,070711,,,A*7D
$GPVTG,297.95,T,,M,0.17,N,0.3,K,A*08
$GPGGA,201911.000,3748.7981,N,12217.8623,W,1,09,0.9,4.8,M,-25.1,M,,0000*64
$GPGSA,A,3,13,28,23,10,05,07,08,03,19,,,,1.6,0.9,1.4*30
$GPRMC,201911.000,A,3748.7981,N,12217.8623,W,0.28,309.85,070711,,,A*7C
$GPVTG,309.85,T,,M,0.28,N,0.5,K,A*05
$GPGGA,201912.000,3748.7983,N,12217.8624,W,1,09,0.9,3.4,M,-25.1,M,,0000*69
$GPGSA,A,3,13,28,23,10,05,07,08,03,19,,,,1.6,0.9,1.4*30
$GPRMC,201912.000,A,3748.7983,N,12217.8624,W,0.22,186.19,070711,,,A*70
$GPVTG,186.19,T,,M,0.22,N,0.4,K,A*0E
$GPGGA,201913.000,3748.7985,N,12217.8623,W,1,09,0.9,2.8,M,-25.1,M,,0000*64
$GPGSA,A,3,13,28,23,10,05,07,08,03,19,,,,1.6,0.9,1.4*30
$GPRMC,201913.000,A,3748.7985,N,12217.8623,W,0.18,120.67,070711,,,A*7C
$GPVTG,120.67,T,,M,0.18,N,0.3,K,A*05
$GPGGA,201914.000,3748.7983,N,12217.8626,W,1,09,0.9,1.6,M,-25.1,M,,0000*6D
$GPGSA,A,3,13,28,23,10,05,07,08,03,19,,,,1.6,0.9,1.4*30
$GPGSV,3,1,12,07,63,039,26,08,60,330,23,28,49,234,35,13,37,144,36*7D
$GPGSV,3,2,12,19,31,065,25,10,24,230,33,05,23,285,28,26,14,317,25*71
$GPGSV,3,3,12,03,12,041,26,23,08,143,36,11,05,117,24,06,02,033,*71
$GPVTG,24.82,T,,M,0.23,N,0.4,K,A*34
$GPGGA,201915.000,3748.7974,N,12217.8634,W,1,09,0.9,5.3,M,-25.1,M,,0000*66
$GPGSA,A,3,13,28,23,10,05,07,08,03,19,,,,1.6,0.9,1.4*30
$GPRMC,201915.000,A,3748.7974,N,12217.8634,W,0.26,348.28,070711,,,A*78
$GPVTG,348.28,T,,M,0.26,N,0.5,K,A*09
$GPGGA,201916.000,3748.7972,N,12217.8640,W,1,07,0.9,7.4,M,-25.1,M,,0000*6B
$GPGSA,A,3,13,23,10,05,08,03,19,,,,,,2.0,0.9,1.8*34
$GPRMC,201916.000,A,3748.7972,N,12217.8640,W,0.05,30.90,070711,,,A*40
$GPVTG,30.90,T,,M,0.05,N,0.1,K,A*33
$GPGGA,201917.000,3748.7973,N,12217.8636,W,1,08,0.9,6.2,M,-25.1,M,,0000*62
$GPGSA,A,3,13,28,23,10,05,08,03,19,,,,,1.8,0.9,1.6*3B
$GPRMC,201917.000,A,3748.7973,N,12217.8636,W,0.60,175.33,070711,,,A*7B
$GPVTG,175.33,T,,M,0.60,N,1.1,K,A*08
$GPGGA,201918.000,3748.7973,N,12217.8631,W,1,09,0.9,5.4,M,-25.1,M,,0000*6E
$GPGSA,A,3,13,28,23,10,05,07,08,03,19,,,,1.6,0.9,1.4*30
$GPRMC,201918.000,A,3748.7973,N,12217.8631,W,1.17,164.58,070711,,,A*7F
$GPVTG,164.58,T,,M,1.17,N,2.2,K,A*04
$GPGGA,201919.000,3748.7975,N,12217.8626,W,1,09,0.9,4.2,M,-25.1,M,,0000*68
$GPGSA,A,3,13,28,23,10,05,07,08,03,19,,,,1.6,0.9,1.4*30
$GPGSV,3,1,12,07,63,039,20,08,60,330,24,28,49,234,30,13,37,144,30*7F
$GPGSV,3,2,12,19,31,065,28,10,24,230,21,05,23,285,25,26,14,317,26*71
$GPGSV,3,3,12,03,12,041,24,23,08,143,30,11,05,117,14,06,02,033,*76
$GPRMC,201919.000,A,3748.7975,N,12217.8626,W,0.32,142.24,070711,,,A*77
$GPVTG,142.24,T,,M,0.32,N,0.6,K,A*0B
$GPGGA,201920.000,3748.7979,N,12217.8620,W,1,09,0.9,3.0,M,-25.1,M,,0000*6D
$GPGSA,A,3,13,28,23,10,05,07,08,03,19,,,,1.6,0.9,1.4*30
$GPRMC,201920.000,A,3748.7979,N,12217.8620,W,0.43,63.42,070711,,,A*43
$GPVTG,63.42,T,,M,0.43,N,0.8,K,A*31
$GPGGA,201921.000,3748.7983,N,12217.8617,W,1,09,0.9,2.2,M,-25.1,M,,0000*6E
$GPGSA,A,3,13,28,23,10,05,07,08,03,19,,,,1.6,0.9,1.4*30
$GPRMC,201921.000,A,3748.7983,N,12217.8617,W,0.10,302.16,070711,,,A*70
$GPVTG,302.16,T,,M,0.10,N,0.2,K,A*08
$GPGGA,201922.000,3748.7986,N,12217.8616,W,1,09,0.9,1.6,M,-25.1,M,,0000*6E
$GPGSA,A,3,13,28,23,10,05,07,08,03,19,,,,1.6,0.9,1.4*30
$GPRMC,201922.000,A,3748.7986,N,12217.8616,W,0.23,276.95,070711,,,A*7E
$GPVTG,276.95,T,,M,0.23,N,0.4,K,A*07
$GPGGA,201923.000,3748.7986,N,12217.8616,W,1,09,0.9,2.2,M,-25.1,M,,0000*68
$GPGSA,A,3,13,28,23,10,05,07,08,03,19,,,,1.6,0.9,1.4*30
$GPRMC,201923.000,A,3748.7986,N,12217.8616,W,0.06,191.08,070711,,,A*76
$GPVTG,191.08,T,,M,0.06,N,0.1,K,A*0B
$GPGGA,201924.000,3748.7986,N,12217.8615,W,1,09,0.9,2.8,M,-25.1,M,,0000*66
$GPGSA,A,3,13,28,23,10,05,07,08,03,19,,,,1.6,0.9,1.4*30
$GPGSV,3,1,12,07,63,039,24,08,60,330,20,28,49,234,30,13,37,144,29*77
$GPGSV,3,2,12,19,31,065,29,10,24,230,22,05,23,285,25,26,14,317,25*70
$GPGSV,3,3,12,03,12,041,29,23,08,143,26,11,05,117,14,06,02,033,*7C
$GPRMC,201924.000,A,3748.7986,N,12217.8615,W,0.13,105.61,070711,,,A*74
$GPVTG,105.61,T,,M,0.13,N,0.2,K,A*0E
$GPGGA,201925.000,3748.7985,N,12217.8614,W,1,08,1.0,5.3,M,-25.1,M,,0000*60
$GPGSA,A,3,13,28,10,05,07,08,03,19,,,,,1.9,1.0,1.6*34
$GPRMC,201925.000,A,3748.7985,N,12217.8614,W,0.21,178.89,070711,,,A*7A
$GPVTG,178.89,T,,M,0.21,N,0.4,K,A*05
$GPGGA,201926.000,3748.7988,N,12217.8616,W,1,09,0.9,4.5,M,-25.1,M,,0000*62
$GPGSA,A,3,13,28,23,10,05,07,08,03,19,,,,1.6,0.9,1.4*30
$GPRMC,201926.000,A,3748.7988,N,12217.8616,W,0.05,19.89,070711,,,A*46
$GPVTG,19.89,T,,M,0.05,N,0.1,K,A*30
$GPGGA,201927.000,3748.7987,N,12217.8617,W,1,09,0.9,4.6,M,-25.1,M,,0000*6E
$GPGSA,A,3,13,28,23,10,05,07,08,03,19,,,,1.6,0.9,1.4*30
$GPRMC,201927.000,A,3748.7987,N,12217.8617,W,0.51,160.82,070711,,,A*7C
$GPVTG,160.82,T,,M,0.51,N,0.9,K,A*0D
$GPGGA,201928.000,3748.7985,N,12217.8618,W,1,09,0.9,4.9,M,-25.1,M,,0000*63
$GPGSA,A,3,13,28,23,10,05,07,08,03,19,,,,1.6,0.9,1.4*30
$GPRMC,201928.000,A,3748.7985,N,12217.8618,W,0.40,211.44,070711,,,A*71
$GPVTG,211.44,T,,M,0.40,N,0.7,K,A*0C
$GPGGA,201929.000,3748.7986,N,12217.8621,W,1,09,0.9,5.2,M,-25.1,M,,0000*61
$GPGSA,A,3,13,28,23,10,05,07,08,03,19,,,,1.6,0.9,1.4*30
$GPGSV,3,1,12,07,63,039,24,08,60,330,28,28,49,234,27,13,37,144,28*78
$GPGSV,3,2,12,19,31,065,23,10,24,230,29,05,23,285,30,26,14,317,36*77
$GPGSV,3,3,12,03,12,041,21,23,08,143,26,11,05,117,22,06,02,033,*71
$GPRMC,201929.000,A,3748.7986,N,12217.8621,W,0.25,174.76,070711,,,A*7B
$GPVTG,174.76,T,,M,0.25,N,0.5,K,A*0C
$GPGGA,201930.000,3748.7986,N,12217.8620,W,1,09,0.9,5.9,M,-25.1,M,,0000*63
$GPGSA,A,3,13,28,23,10,05,07,08,03,19,,,,1.6,0.9,1.4*30
$GPRMC,201930.000,A,3748.7986,N,12217.8620,W,0.10,177.98,070711,,,A*77
$GPVTG,177.98,T,,M,0.10,N,0.2,K,A*0E
$GPGGA,201931.000,3748.7986,N,12217.8621,W,1,09,0.9,5.7,M,-25.1,M,,0000*6D
$GPGSA,A,3,13,28,23,10,05,07,08,03,19,,,,1.6,0.9,1.4*30
$GPRMC,201931.000,A,3748.7986,N,12217.8621,W,1.10,140.04,070711,,,A*77
$GPVTG,140.04,T,,M,1.10,N,2.0,K,A*0E
$GPGGA,201932.000,3748.7986,N,12217.8621,W,1,09,0.9,5.8,M,-25.1,M,,0000*61
$GPGSA,A,3,13,28,23,10,05,07,08,03,19,,,,1.6,0.9,1.4*30
$GPRMC,201932.000,A,3748.7986,N,12217.8621,W,0.45,176.34,070711,,,A*73
$GPVTG,176.34,T,,M,0.45,N,0.8,K,A*03
$GPGGA,201933.000,3748.7987,N,12217.8625,W,1,09,0.9,5.3,M,-25.1,M,,0000*6E
$GPGSA,A,3,13,28,23,10,05,07,08,03,19,,,,1.6,0.9,1.4*30
$GPRMC,201933.000,A,3748.7987,N,12217.8625,W,0.26,305.72,070711,,,A*76
$GPVTG,305.72,T,,M,0.26,N,0.5,K,A*0F
$GPGGA,201934.000,3748.7986,N,12217.8625,W,1,09,0.9,4.9,M,-25.1,M,,0000*63
$GPGSA,A,3,13,28,23,10,05,07,08,03,19,,,,1.6,0.9,1.4*30
$GPGSV,3,1,12,07,63,039,25,08,60,330,29,28,49,234,31,13,37,144,28*7F
$GPGSV,3,2,12,19,31,065,21,10,24,230,36,05,23,285,26,26,14,317,33*79
$GPGSV,3,3,12,03,12,041,22,23,08,143,26,11,05,117,23,06,02,033,*73
$GPVTG,237.70,T,,M,0.33,N,0.6,K,A*0A
$GPGGA,201935.000,3748.7984,N,12217.8622,W,1,09,0.9,4.8,M,-25.1,M,,0000*66
$GPGSA,A,3,13,28,23,10,05,07,08,03,19,,,,1.6,0.9,1.4*30
$GPRMC,201935.000,A,3748.7984,N,12217.8622,W,0.15,23.56,070711,,,A*45
$GPVTG,23.56,T,,M,0.15,N,0.3,K,A*38
$GPGGA,201936.000,3748.7982,N,12217.8625,W,1,09,0.9,5.9,M,-25.1,M,,0000*64
$GPGSA,A,3,13,28,23,10,05,07,08,03,19,,,,1.6,0.9,1.4*30
$GPRMC,201936.000,A,3748.7982,N,12217.8625,W,0.10,275.61,070711,,,A*77
$GPVTG,275.61,T,,M,0.10,N,0.2,K,A*09
$GPGGA,201937.000,3748.7979,N,12217.8629,W,1,09,0.9,6.9,M,-25.1,M,,0000*6E
$GPGSA,A,3,13,28,23,10,05,07,08,03,19,,,,1.6,0.9,1.4*30
$GPRMC,201937.000,A,3748.7979,N,12217.8629,W,0.09,61.38,070711,,,A*4D
$GPVTG,61.38,T,,M,0.09,N,0.2,K,A*3A
$GPGGA,201938.000,3748.7982,N,12217.8633,W,1,09,0.9,6.3,M,-25.1,M,,0000*64
$GPGSA,A,3,13,28,23,10,05,07,08,03,19,,,,1.6,0.9,1.4*30
$GPRMC,201938.000,A,3748.7982,N,12217.8633,W,0.13,290.53,070711,,,A*77
$GPVTG,290.53,T,,M,0.13,N,0.2,K,A*00
$GPGGA,201939.000,3748.7983,N,12217.8634,W,1,09,0.9,6.1,M,-25.1,M,,0000*61
$GPGSA,A,3,13,28,23,10,05,07,08,03,19,,,,1.6,0.9,1.4*30
$GPGSV,3,1,12,07,63,039,25,08,60,330,31,28,49,234,33,13,37,144,30*7D
$GPGSV,3,2,12,19,31,065,24,10,24,230,38,05,23,285,39,26,14,317,28*76
$GPGSV,3,3,12,03,12,041,29,23,08,143,32,11,05,117,19,06,02,033,*74
$GPRMC,201939.000,A,3748.7983,N,12217.8634,W,0.27,136.43,070711,,,A*79
$GPVTG,136.43,T,,M,0.27,N,0.5,K,A*0E
$GPGGA,201940.000,3748.7983,N,12217.8637,W,1,09,0.9,6.3,M,-25.1,M,,0000*6E
$GPGSA,A,3,13,28,23,10,05,07,08,03,19,,,,1.6,0.9,1.4*30
$GPRMC,201940.000,A,3748.7983,N,12217.8637,W,0.09,41.82,070711,,,A*44
$GPVTG,41.82,T,,M,0.09,N,0.2,K,A*39
$GPGGA,201941.000,3748.7983,N,12217.8638,W,1,09,0.9,5.8,M,-25.1,M,,0000*68
$GPGSA,A,3,13,28,23,10,05,07,08,03,19,,,,1.6,0.9,1.4*30
$GPRMC,201941.000,A,3748.7983,N,12217.8638,W,0.15,157.63,070711,,,A*7E
$GPVTG,157.63,T,,M,0.15,N,0.3,K,A*0C
$GPGGA,201942.000,3748.7978,N,12217.8642,W,1,09,0.9,6.8,M,-25.1,M,,0000*61
$GPGSA,A,3,13,28,23,10,05,07,08,03,19,,,,1.6,0.9,1.4*30
$GPRMC,201942.000,A,3748.7978,N,12217.8642,W,0.92,115.66,070711,,,A*78
$GPVTG,115.66,T,,M,0.92,N,1.7,K,A*05
$GPGGA,201943.000,3748.7974,N,12217.8642,W,1,09,0.9,8.4,M,-25.1,M,,0000*6E
$GPGSA,A,3,13,28,23,10,05,07,08,03,19,,,,1.6,0.9,1.4*30
$GPRMC,201943.000,A,3748.7974,N,12217.8642,W,0.21,348.67,070711,,,A*76
$GPVTG,348.67,T,,M,0.21,N,0.4,K,A*04
$GPGGA,201944.000,3748.7974,N,12217.8639,W,1,09,0.9,8.5,M,-25.1,M,,0000*64
$GPGSA,A,3,13,28,23,10,05,07,08,03,19,,,,1.6,0.9,1.4*30
$GPGSV,3,1,12,07,63,039,27,08,60,330,28,28,49,234,28,13,37,144,38*75
$GPGSV,3,2,12,19,31,065,37,10,24,230,26,05,23,285,26,26,14,317,23*7E
$GPGSV,3,3,12,03,12,041,37,23,08,143,38,11,05,117,30,06,02,033,*7A
$GPRMC,201944.000,A,3748.7974,N,12217.8639,W,0.55,159.38,070711,,,A*76
$GPVTG,159.38,T,,M,0.55,N,1.0,K,A*0A
$GPGGA,201945.000,3748.7973,N,12217.8637,W,1,09,0.9,9.3,M,-25.1,M,,0000*6B
$GPGSA,A,3,13,28,23,10,05,07,08,03,19,,,,1.6,0.9,1.4*30
$GPRMC,201945.000,A,3748.7973,N,12217.8637,W,0.51,54.78,070711,,,A*42
$GPVTG,54.78,T,,M,0.51,N,0.9,K,A*3E
$GPGGA,201946.000,3748.7974,N,12217.8634,W,1,09,0.9,9.3,M,-25.1,M,,0000*6C
$GPGSA,A,3,13,28,23,10,05,07,08,03,19,,,,1.6,0.9,1.4*30
$GPRMC,201946.000,A,3748.7974,N,12217.8634,W,0.54,69.27,070711,,,A*44
$GPVTG,69.27,T,,M,0.54,N,1.0,K,A*37
$GPGGA,201947.000,3748.7977,N,12217.8629,W,1,09,0.9,8.9,M,-25.1,M,,0000*69
$GPGSA,A,3,13,28,23,10,05,07,08,03,19,,,,1.6,0.9,1.4*30
$GPRMC,201947.000,A,3748.7977,N,12217.8629,W,0.17,78.85,070711,,,A*45
$GPVTG,78.85,T,,M,0.17,N,0.3,K,A*3A
$GPGGA,201948.000,3748.7978,N,12217.8629,W,1,08,0.9,8.4,M,-25.1,M,,0000*65
$GPGSA,A,3,13,28,23,10,05,08,03,19,,,,,1.8,0.9,1.6*3B
$GPRMC,201948.000,A,3748.7978,N,12217.8629,W,0.08,245.77,070711,,,A*7A
$GPVTG,245.77,T,,M,0.08,N,0.2,K,A*04
$GPGGA,201949.000,3748.7978,N,12217.8629,W,1,08,0.9,8.0,M,-25.1,M,,0000*60
$GPGSA,A,3,13,28,23,10,05,08,03,19,,,,,1.8,0.9,1.6*3B
$GPGSV,3,1,12,07,63,039,09,08,60,330,27,28,49,234,27,13,37,144,32*73
$GPGSV,3,2,12,19,31,065,27,10,24,230,16,05,23,285,33,26,14,317,32*78
$GPGSV,3,3,12,03,12,041,27,23,08,143,32,11,05,117,20,06,02,033,*70
$GPRMC,201949.000,A,3748.7978,N,12217.8629,W,0.14,243.87,070711,,,A*7F
$GPVTG,243.87,T,,M,0.14,N,0.3,K,A*01
$GPGGA,201950.000,3748.7978,N,12217.8629,W,1,08,0.9,7.8,M,-25.1,M,,0000*6F
$GPGSA,A,3,13,28,23,10,05,08,03,19,,,,,1.8,0.9,1.6*3B
$GPRMC,201950.000,A,3748.7978,N,12217.8629,W,0.26,230.53,070711,,,A*7B
$GPVTG,230.53,T,,M,0.26,N,0.5,K,A*0B
$GPGGA,201951.000,3748.7978,N,12217.8629,W,1,08,0.9,7.7,M,-25.1,M,,0000*61
$GPGSA,A,3,13,28,23,10,05,08,03,19,,,,,1.8,0.9,1.6*3B
$GPRMC,201951.000,A,3748.7978,N,12217.8629,W,0.21,130.44,070711,,,A*78
$GPVTG,130.44,T,,M,0.21,N,0.4,K,A*08
$GPGGA,201952.000,3748.7978,N,12217.8628,W,1,09,0.9,7.4,M,-25.1,M,,0000*61
$GPGSA,A,3,13,28,23,10,05,07,08,03,19,,,,1.6,0.9,1.4*30
$GPRMC,201952.000,A,3748.7978,N,12217.8628,W,0.18,204.76,070711,,,A*75
$GPVTG,204.76,T,,M,0.18,N,0.3,K,A*00
$GPGGA,201953.000,3748.7979,N,12217.8629,W,1,09,0.9,6.2,M,-25.1,M,,0000*67
$GPGSA,A,3,13,28,23,10,05,07,08,03,19,,,,1.6,0.9,1.4*30
$GPRMC,201953.000,A,3748.7979,N,12217.8629,W,0.20,298.04,070711,,,A*7F
$GPVTG,298.04,T,,M,0.20,N,0.4,K,A*0C
$GPGGA,201954.000,3748.7979,N,12217.8629,W,1,09,0.9,6.0,M,-25.1,M,,0000*62
$GPGSA,A,3,13,28,23,10,05,07,08,03,19,,,,1.6,0.9,1.4*30
$GPGSV,3,1,12,07,63,039,32,08,60,330,34,28,49,234,30,13,37,144,26*7A
$GPGSV,3,2,12,19,31,065,26,10,24,230,31,05,23,285,42,26,14,317,31*79
$GPGSV,3,3,12,03,12,041,34,23,08,143,22,11,05,117,20,06,02,033,*73
$GPVTG,132.46,T,,M,0.24,N,0.4,K,A*0D
$GPGGA,201955.000,3748.7981,N,12217.8628,W,1,09,0.9,5.4,M,-25.1,M,,0000*62
$GPGSA,A,3,13,28,23,10,05,07,08,03,19,,,,1.6,0.9,1.4*30
$GPRMC,201955.000,A,3748.7981,N,12217.8628,W,0.05,351.23,070711,,,A*79
$GPVTG,351.23,T,,M,0.05,N,0.1,K,A*0F
$GPGGA,201956.000,3748.7983,N,12217.8626,W,1,09,0.9,5.0,M,-25.1,M,,0000*69
$GPGSA,A,3,13,28,23,10,05,07,08,03,19,,,,1.6,0.9,1.4*30
$GPRMC,201956.000,A,3748.7983,N,12217.8626,W,0.29,6.60,070711,,,A*7E
$GPVTG,6.60,T,,M,0.29,N,0.5,K,A*03
$GPGGA,201957.000,3748.7984,N,12217.8625,W,1,08,1.0,5.0,M,-25.1,M,,0000*65
$GPGSA,A,3,28,23,10,05,07,08,03,19,,,,,1.7,1.0,1.4*3B
$GPRMC,201957.000,A,3748.7984,N,12217.8625,W,0.03,322.39,070711,,,A*7A
$GPVTG,322.39,T,,M,0.03,N,0.0,K,A*07
$GPGGA,201958.000,3748.7985,N,12217.8624,W,1,08,1.0,5.0,M,-25.1,M,,0000*6A
$GPGSA,A,3,28,23,10,05,07,08,03,19,,,,,1.7,1.0,1.4*3B
$GPRMC,201958.000,A,3748.7985,N,12217.8624,W,0.13,349.64,070711,,,A*71
$GPVTG,349.64,T,,M,0.13,N,0.2,K,A*01
$GPGGA,201959.000,3748.7986,N,12217.8624,W,1,08,1.0,5.0,M,-25.1,M,,0000*68
$GPGSA,A,3,28,23,10,05,07,08,03,19,,,,,1.7,1.0,1.4*3B
$GPGSV,3,1,12,07,63,039,32,08,60,330,35,28,49,234,23,13,37,144,12*7E
$GPGSV,3,2,12,19,31,065,30,10,24,230,32,05,23,285,41,26,14,317,32*7D
$GPGSV,3,3,12,03,12,041,35,23,08,143,22,11,05,117,20,06,02,033,*72
$GPRMC,201959.000,A,3748.7986,N,12217.8624,W,0.20,344.72,070711,,,A*79
$GPVTG,344.72,T,,M,0.20,N,0.4,K,A*0D
$GPGGA,202000.000,3748.7986,N,12217.8622,W,1,09,0.9,4.8,M,-25.1,M,,0000*68
$GPGSA,A,3,13,28,23,10,05,07,08,03,19,,,,1.6,0.9,1.4*30
$GPRMC,202000.000,A,3748.7986,N,12217.8622,W,0.03,1.27,070711,,,A*7A
$GPVTG,1.27,T,,M,0.03,N,0.0,K,A*0A
$GPGGA,202001.000,3748.7987,N,12217.8621,W,1,09,0.9,4.4,M,-25.1,M,,0000*67
$GPGSA,A,3,13,28,23,10,05,07,08,03,19,,,,1.6,0.9,1.4*30
$GPRMC,202001.000,A,3748.7987,N,12217.8621,W,0.12,149.02,070711,,,A*73
$GPVTG,149.02,T,,M,0.12,N,0.2,K,A*02
$GPGGA,202002.000,3748.7988,N,12217.8621,W,1,09,0.9,4.0,M,-25.1,M,,0000*6F
$GPGSA,A,3,13,28,23,10,05,07,08,03,19,,,,1.6,0.9,1.4*30
$GPRMC,202002.000,A,3748.7988,N,12217.8621,W,0.07,126.27,070711,,,A*75
$GPVTG,126.27,T,,M,0.07,N,0.1,K,A*0B
$GPGGA,202003.000,3748.7989,N,12217.8621,W,1,09,0.9,3.5,M,-25.1,M,,0000*6D
$GPGSA,A,3,13,28,23,10,05,07,08,03,19,,,,1.6,0.9,1.4*30
$GPRMC,202003.000,A,3748.7989,N,12217.8621,W,0.08,244.70,070711,,,A*7F
$GPVTG,244.70,T,,M,0.08,N,0.1,K,A*01
$GPGGA,202004.000,3748.7990,N,12217.8620,W,1,09,0.9,3.1,M,-25.1,M,,0000*67
$GPGSA,A,3,13,28,23,10,05,07,08,03,19,,,,1.6,0.9,1.4*30
$GPGSV,3,1,12,07,63,039,29,08,60,330,35,28,49,234,33,13,37,144,23*77
$GPGSV,3,2,12,19,31,065,30,10,24,230,31,05,23,285,41,26,14,317,39*75
$GPGSV,3,3,12,03,12,041,27,23,08,143,22,11,05,117,23,06,02,033,*72
$GPRMC,202004.000,A,3748.7990,N,12217.8620,W,0.11,112.99,070711,,,A*7E
$GPVTG,112.99,T,,M,0.11,N,0.2,K,A*0D
$GPGGA,202005.000,3748.7992,N,12217.8619,W,1,09,0.9,2.3,M,-25.1,M,,0000*6D
$GPGSA,A,3,13,28,23,10,05,07,08,03,19,,,,1.6,0.9,1.4*30
$GPRMC,202005.000,A,3748.7992,N,12217.8619,W,0.19,142.98,070711,,,A*7B
$GPVTG,142.98,T,,M,0.19,N,0.4,K,A*07
$GPGGA,202006.000,3748.7993,N,12217.8618,W,1,09,0.9,1.8,M,-25.1,M,,0000*66
$GPGSA,A,3,13,28,23,10,05,07,08,03,19,,,,1.6,0.9,1.4*30
$GPRMC,202006.000,A,3748.7993,N,12217.8618,W,0.03,341.12,070711,,,A*70
$GPVTG,341.12,T,,M,0.03,N,0.0,K,A*0B
$GPGGA,202007.000,3748.7994,N,12217.8617,W,1,09,0.9,1.3,M,-25.1,M,,0000*64
$GPGSA,A,3,13,28,23,10,05,07,08,03,19,,,,1.6,0.9,1.4*30
$GPRMC,202007.000,A,3748.7994,N,12217.8617,W,0.10,124.45,070711,,,A*78
$GPVTG,124.45,T,,M,0.10,N,0.2,K,A*08
$GPGGA,202008.000,3748.7995,N,12217.8617,W,1,09,0.9,0.8,M,-25.1,M,,0000*60
$GPGSA,A,3,13,28,23,10,05,07,08,03,19,,,,1.6,0.9,1.4*30
$GPRMC,202008.000,A,3748.7995,N,12217.8617,W,0.15,96.29,070711,,,A*41
$GPVTG,96.29,T,,M,0.15,N,0.3,K,A*3E
$GPGGA,202009.000,3748.7996,N,12217.8616,W,1,08,1.0,0.4,M,-25.1,M,,0000*66
$GPGSA,A,3,13,28,10,05,07,08,03,19,,,,,1.8,1.0,1.6*35
$GPGSV,3,1,12,07,63,039,29,08,60,330,34,28,49,234,33,13,37,144,23*76
$GPGSV,3,2,12,19,31,065,31,10,24,230,26,05,23,285,41,26,14,317,38*73
$GPGSV,3,3,12,03,12,041,33,23,08,143,09,11,05,117,24,06,02,033,*79
$GPRMC,202009.000,A,3748.7996,N,12217.8616,W,0.09,339.09,070711,,,A*7B
$GPVTG,339.09,T,,M,0.09,N,0.2,K,A*06
$GPGGA,202010.000,3748.7997,N,12217.8616,W,1,08,1.0,0.1,M,-25.1,M,,0000*6A
$GPGSA,A,3,13,28,10,05,07,08,03,19,,,,,1.8,1.0,1.6*35
$GPRMC,202010.000,A,3748.7997,N,12217.8616,W,0.20,148.90,070711,,,A*7D
$GPVTG,148.90,T,,M,0.20,N,0.4,K,A*0F
$GPGGA,202011.000,3748.7997,N,12217.8616,W,1,08,1.0,-0.1,M,-25.1,M,,0000*46
$GPGSA,A,3,13,28,10,05,07,08,03,19,,,,,1.8,1.0,1.6*35
$GPRMC,202011.000,A,3748.7997,N,12217.8616,W,0.02,191.10,070711,,,A*70
$GPVTG,191.10,T,,M,0.02,N,0.0,K,A*07
$GPGGA,202012.000,3748.7998,N,12217.8616,W,1,09,0.9,-0.3,M,-25.1,M,,0000*41
$GPGSA,A,3,13,28,23,10,05,07,08,03,19,,,,1.6,0.9,1.4*30
$GPRMC,202012.000,A,3748.7998,N,12217.8616,W,0.19,162.06,070711,,,A*7D
$GPVTG,162.06,T,,M,0.19,N,0.4,K,A*02
$GPGGA,202013.000,3748.7998,N,12217.8616,W,1,09,0.9,-0.7,M,-25.1,M,,0000*44
$GPGSA,A,3,13,28,23,10,05,07,08,03,19,,,,1.6,0.9,1.4*30
$GPRMC,202013.000,A,3748.7998,N,12217.8616,W,0.28,187.10,070711,,,A*72
$GPVTG,187.10,T,,M,0.28,N,0.5,K,A*0D
$GPGGA,202014.000,3748.7998,N,12217.8617,W,1,09,0.9,-0.8,M,-25.1,M,,0000*4D
$GPGSA,A,3,13,28,23,10,05,07,08,03,19,,,,1.6,0.9,1.4*30
$GPGSV,3,1,12,07,63,039,22,08,60,330,34,28,49,234,34,13,37,144,25*7C
$GPGSV,3,2,12,19,31,065,25,10,24,230,38,05,23,285,41,26,14,317,37*76
$GPGSV,3,3,12,03,12,041,28,23,08,143,21,11,05,117,24,06,02,033,*79
$GPRMC,202014.000,A,3748.7998,N,12217.8617,W,0.26,236.49,070711,,,A*7F
$GPGGA,202015.000,3748.7998,N,12217.8618,W,1,08,0.9,-0.7,M,-25.1,M,,0000*4D
$GPGSA,A,3,13,28,23,10,05,08,03,19,,,,,1.8,0.9,1.6*3B
$GPRMC,202015.000,A,3748.7998,N,12217.8618,W,0.10,325.21,070711,,,A*79
$GPVTG,325.21,T,,M,0.10,N,0.2,K,A*09
$GPGGA,202016.000,3748.7998,N,12217.8618,W,1,08,0.9,-0.8,M,-25.1,M,,0000*41
$GPGSA,A,3,13,28,23,10,05,08,03,19,,,,,1.8,0.9,1.6*3B
$GPRMC,202016.000,A,3748.7998,N,12217.8618,W,0.12,265.58,070711,,,A*73
$GPVTG,265.58,T,,M,0.12,N,0.2,K,A*00
$GPGGA,202017.000,3748.7999,N,12217.8619,W,1,09,0.9,-0.7,M,-25.1,M,,0000*4E
$GPGSA,A,3,13,28,23,10,05,07,08,03,19,,,,1.6,0.9,1.4*30
$GPRMC,202017.000,A,3748.7999,N,12217.8619,W,0.06,57.51,070711,,,A*4D
$GPVTG,57.51,T,,M,0.06,N,0.1,K,A*3C
$GPGGA,202018.000,3748.7999,N,12217.8619,W,1,09,0.9,-0.7,M,-25.1,M,,0000*41
$GPGSA,A,3,13,28,23,10,05,07,08,03,19,,,,1.6,0.9,1.4*30
$GPRMC,202018.000,A,3748.7999,N,12217.8619,W,0.12,80.13,070711,,,A*4B
$GPVTG,80.13,T,,M,0.12,N,0.2,K,A*36
$GPGGA,202019.000,3748.7999,N,12217.8619,W,1,09,0.9,-0.5,M,-25.1,M,,0000*42
$GPGSA,A,3,13,28,23,10,05,07,08,03,19,,,,1.6,0.9,1.4*30
$GPGSV,3,1,12,07,63,041,26,08,60,331,34,28,50,235,35,13,37,144,21*7A
$GPGSV,3,2,12,19,31,065,27,10,24,229,38,05,23,285,41,26,14,317,34*7F
$GPGSV,3,3,12,03,11,041,32,23,07,144,21,11,05,116,24,06,02,033,*78
$GPRMC,202019.000,A,3748.7999,N,12217.8619,W,0.19,321.60,070711,,,A*7D
$GPVTG,321.60,T,,M,0.19,N,0.4,K,A*07
$GPGGA,202020.000,3748.7998,N,12217.8626,W,1,09,0.9,-0.7,M,-25.1,M,,0000*47
$GPGSA,A,3,13,28,23,10,05,07,08,03,19,,,,1.6,0.9,1.4*30
$GPRMC,202020.000,A,3748.7998,N,12217.8626,W,0.19,276.05,070711,,,A*7A
$GPVTG,276.05,T,,M,0.19,N,0.4,K,A*07
$GPGGA,202021.000,3748.7998,N,12217.8629,W,1,09,0.9,-1.4,M,-25.1,M,,0000*4B
$GPGSA,A,3,13,28,23,10,05,07,08,03,19,,,,1.6,0.9,1.4*30
$GPRMC,202021.000,A,3748.7998,N,12217.8629,W,0.27,11.72,070711,,,A*4A
$GPVTG,11.72,T,,M,0.27,N,0.5,K,A*38
$GPGGA,202022.000,3748.7998,N,12217.8629,W,1,09,0.9,-1.9,M,-25.1,M,,0000*45
$GPGSA,A,3,13,28,23,10,05,07,08,03,19,,,,1.6,0.9,1.4*30
$GPRMC,202022.000,A,3748.7998,N,12217.8629,W,0.05,128.61,070711,,,A*70
$GPVTG,128.61,T,,M,0.05,N,0.1,K,A*05
$GPGGA,202023.000,3748.7998,N,12217.8631,W,1,09,0.9,-2.6,M,-25.1,M,,0000*41
$GPGSA,A,3,13,28,23,10,05,07,08,03,19,,,,1.6,0.9,1.4*30
$GPRMC,202023.000,A,3748.7998,N,12217.8631,W,0.19,325.62,070711,,,A*79
$GPVTG,325.62,T,,M,0.19,N,0.4,K,A*01
$GPGGA,202024.000,3748.7998,N,12217.8632,W,1,09,0.9,-3.3,M,-25.1,M,,0000*41
$GPGSA,A,3,13,28,23,10,05,07,08,03,19,,,,1.6,0.9,1.4*30
$GPGSV,3,1,12,07,63,041,27,08,60,331,34,28,50,235,35,13,37,144,23*79
$GPGSV,3,2,12,19,31,065,24,10,24,229,38,05,23,284,41,26,14,317,35*7C
$GPGSV,3,3,12,03,11,041,27,23,07,144,22,11,05,116,25,06,02,033,*7E
$GPRMC,202024.000,A,3748.7998,N,12217.8632,W,0.26,144.73,070711,,,A*74
$GPVTG,144.73,T,,M,0.26,N,0.5,K,A*09
$GPGGA,202025.000,3748.8000,N,12217.8630,W,1,09,0.9,-4.0,M,-25.1,M,,0000*41
$GPGSA,A,3,13,28,23,10,05,07,08,03,19,,,,1.6,0.9,1.4*30
$GPRMC,202025.000,A,3748.8000,N,12217.8630,W,0.18,322.70,070711,,,A*7C
$GPVTG,322.70,T,,M,0.18,N,0.3,K,A*03
$GPGGA,202026.000,3748.8002,N,12217.8629,W,1,09,0.9,-4.2,M,-25.1,M,,0000*4A
$GPGSA,A,3,13,28,23,10,05,07,08,03,19,,,,1.6,0.9,1.4*30
$GPRMC,202026.000,A,3748.8002,N,12217.8629,W,0.24,337.83,070711,,,A*72
$GPVTG,337.83,T,,M,0.24,N,0.5,K,A*02
$GPGGA,202027.000,3748.8002,N,12217.8631,W,1,09,0.9,-3.8,M,-25.1,M,,0000*4F
$GPGSA,A,3,13,28,23,10,05,07,08,03,19,,,,1.6,0.9,1.4*30
$GPRMC,202027.000,A,3748.8002,N,12217.8631,W,0.20,315.00,070711,,,A*75
$GPVTG,315.00,T,,M,0.20,N,0.4,K,A*0C
$GPGGA,202028.000,3748.8002,N,12217.8633,W,1,09,0.9,-3.5,M,-25.1,M,,0000*4F
$GPGSA,A,3,13,28,23,10,05,07,08,03,19,,,,1.6,0.9,1.4*30
$GPRMC,202028.000,A,3748.8002,N,12217.8633,W,0.08,155.78,070711,,,A*7B
$GPVTG,155.78,T,,M,0.08,N,0.1,K,A*0A
$GPGGA,202029.000,3748.8004,N,12217.8633,W,1,09,0.9,-4.0,M,-25.1,M,,0000*4A
$GPGSA,A,3,13,28,23,10,05,07,08,03,19,,,,1.6,0.9,1.4*30
$GPGSV,3,1,12,07,63,041,26,08,60,331,34,28,50,235,36,13,37,144,28*70
$GPGSV,3,2,12,19,31,065,26,10,24,229,37,05,23,284,41,26,14,317,36*72
$GPGSV,3,3,12,03,11,041,27,23,07,144,20,11,05,116,21,06,02,033,*78
$GPRMC,202029.000,A,3748.8004,N,12217.8633,W,0.08,118.51,070711,,,A*7E
$GPVTG,118.51,T,,M,0.08,N,0.1,K,A*08
$GPGGA,202030.000,3748.8005,N,12217.8632,W,1,08,0.9,-4.3,M,-25.1,M,,0000*40
$GPGSA,A,3,13,28,23,10,05,08,03,19,,,,,1.8,0.9,1.6*3B
$GPRMC,202030.000,A,3748.8005,N,12217.8632,W,0.04,317.03,070711,,,A*70
$GPVTG,317.03,T,,M,0.04,N,0.1,K,A*0E
$GPGGA,202031.000,3748.8008,N,12217.8636,W,1,08,0.9,-4.0,M,-25.1,M,,0000*4B
$GPGSA,A,3,13,28,23,10,05,08,03,19,,,,,1.8,0.9,1.6*3B
$GPRMC,202031.000,A,3748.8008,N,12217.8636,W,0.06,76.24,070711,,,A*4B
$GPVTG,76.24,T,,M,0.06,N,0.1,K,A*3D
$GPGGA,202032.000,3748.8010,N,12217.8635,W,1,09,0.9,-4.3,M,-25.1,M,,0000*40
$GPGSA,A,3,13,28,23,10,05,07,08,03,19,,,,1.6,0.9,1.4*30
$GPRMC,202032.000,A,3748.8010,N,12217.8635,W,0.11,356.73,070711,,,A*77
$GPVTG,356.73,T,,M,0.11,N,0.2,K,A*0B
$GPGGA,202033.000,3748.8010,N,12217.8634,W,1,10,0.8,-4.5,M,-25.1,M,,0000*4F
$GPGSA,A,3,13,28,23,10,05,07,08,03,19,26,,,1.4,0.8,1.2*31
$GPRMC,202033.000,A,3748.8010,N,12217.8634,W,0.08,178.87,070711,,,A*7A
$GPVTG,178.87,T,,M,0.08,N,0.2,K,A*06
$GPGGA,202034.000,3748.8010,N,12217.8633,W,1,10,0.8,-4.7,M,-25.1,M,,0000*4D
$GPGSA,A,3,13,28,23,10,05,07,08,03,19,26,,,1.4,0.8,1.2*31
$GPGSV,3,1,12,07,63,041,27,08,60,331,31,28,50,235,36,13,37,144,20*7C
$GPGSV,3,2,12,19,31,065,25,10,24,229,37,05,23,284,41,26,14,317,37*70
$GPGSV,3,3,12,03,11,041,28,23,07,144,21,11,05,116,21,06,02,033,*76
$GPVTG,197.15,T,,M,0.09,N,0.2,K,A*0D
$GPGGA,202035.000,3748.8009,N,12217.8635,W,1,10,0.8,-4.9,M,-25.1,M,,0000*4C
$GPGSA,A,3,13,28,23,10,05,07,08,03,19,26,,,1.4,0.8,1.2*31
$GPRMC,202035.000,A,3748.8009,N,12217.8635,W,0.15,148.24,070711,,,A*73
$GPVTG,148.24,T,,M,0.15,N,0.3,K,A*01
$GPGGA,202036.000,3748.8012,N,12217.8639,W,1,10,0.8,-4.3,M,-25.1,M,,0000*43
$GPGSA,A,3,13,28,23,10,05,07,08,03,19,26,,,1.4,0.8,1.2*31
$GPRMC,202036.000,A,3748.8012,N,12217.8639,W,0.10,204.21,070711,,,A*7D
$GPVTG,204.21,T,,M,0.10,N,0.2,K,A*0B
$GPGGA,202037.000,3748.8011,N,12217.8641,W,1,10,0.8,-3.7,M,-25.1,M,,0000*4D
$GPGSA,A,3,13,28,23,10,05,07,08,03,19,26,,,1.4,0.8,1.2*31
$GPRMC,202037.000,A,3748.8011,N,12217.8641,W,0.24,218.73,070711,,,A*7D
$GPVTG,218.73,T,,M,0.24,N,0.4,K,A*00
$GPGGA,202038.000,3748.8010,N,12217.8641,W,1,10,0.8,-3.3,M,-25.1,M,,0000*47
$GPGSA,A,3,13,28,23,10,05,07,08,03,19,26,,,1.4,0.8,1.2*31
$GPRMC,202038.000,A,3748.8010,N,12217.8641,W,0.17,98.49,070711,,,A*40
$GPVTG,98.49,T,,M,0.17,N,0.3,K,A*34
$GPGGA,202039.000,3748.8010,N,12217.8641,W,1,10,0.8,-2.8,M,-25.1,M,,0000*4C
$GPGSA,A,3,13,28,23,10,05,07,08,03,19,26,,,1.4,0.8,1.2*31
$GPGSV,3,1,12,07,63,041,26,08,60,331,35,28,50,235,36,13,37,144,30*78
$GPGSV,3,2,12,19,31,065,25,10,24,229,37,05,23,284,40,26,14,317,37*71
$GPGSV,3,3,12,03,11,041,32,23,07,144,21,11,05,116,22,06,02,033,*7E
$GPRMC,202039.000,A,3748.8010,N,12217.8641,W,0.10,53.32,070711,,,A*4D
$GPVTG,53.32,T,,M,0.10,N,0.2,K,A*39
$GPGGA,202040.000,3748.8009,N,12217.8642,W,1,10,0.8,-2.2,M,-25.1,M,,0000*43
$GPGSA,A,3,13,28,23,10,05,07,08,03,19,26,,,1.4,0.8,1.2*31
$GPRMC,202040.000,A,3748.8009,N,12217.8642,W,0.09,3.03,070711,,,A*77
$GPVTG,3.03,T,,M,0.09,N,0.2,K,A*06
$GPGGA,202041.000,3748.8008,N,12217.8643,W,1,10,0.8,-1.8,M,-25.1,M,,0000*4B
$GPGSA,A,3,13,28,23,10,05,07,08,03,19,26,,,1.4,0.8,1.2*31
$GPRMC,202041.000,A,3748.8008,N,12217.8643,W,0.22,146.59,070711,,,A*70
$GPVTG,146.59,T,,M,0.22,N,0.4,K,A*06
$GPGGA,202042.000,3748.8007,N,12217.8643,W,1,10,0.8,-1.5,M,-25.1,M,,0000*4A
$GPGSA,A,3,13,28,23,10,05,07,08,03,19,26,,,1.4,0.8,1.2*31
$GPRMC,202042.000,A,3748.8007,N,12217.8643,W,0.32,159.01,070711,,,A*7E
$GPVTG,159.01,T,,M,0.32,N,0.6,K,A*06
$GPGGA,202043.000,3748.8006,N,12217.8644,W,1,10,0.8,-1.0,M,-25.1,M,,0000*48
$GPGSA,A,3,13,28,23,10,05,07,08,03,19,26,,,1.4,0.8,1.2*31
$GPRMC,202043.000,A,3748.8006,N,12217.8644,W,0.30,151.82,070711,,,A*78
$GPVTG,151.82,T,,M,0.30,N,0.6,K,A*07
$GPGGA,202044.000,3748.8005,N,12217.8645,W,1,09,0.8,-0.5,M,-25.1,M,,0000*41
$GPGSA,A,3,13,28,23,10,05,08,03,19,26,,,,1.6,0.8,1.4*32
$GPGSV,3,1,12,07,63,041,17,08,60,331,33,28,50,235,37,13,37,144,21*7D
$GPGSV,3,2,12,19,31,065,28,10,24,229,38,05,23,284,41,26,14,317,34*71
$GPGSV,3,3,12,03,11,041,33,23,07,144,21,11,05,116,16,06,02,033,*78
$GPRMC,202044.000,A,3748.8005,N,12217.8645,W,0.12,147.62,070711,,,A*74
$GPVTG,147.62,T,,M,0.12,N,0.2,K,A*0A
$GPGGA,202045.000,3748.8004,N,12217.8646,W,1,09,0.8,0.1,M,-25.1,M,,0000*6B
$GPGSA,A,3,13,28,23,10,05,08,03,19,26,,,,1.6,0.8,1.4*32
$GPRMC,202045.000,A,3748.8004,N,12217.8646,W,0.04,9.07,070711,,,A*78
$GPVTG,9.07,T,,M,0.04,N,0.1,K,A*06
$GPGGA,202046.000,3748.8004,N,12217.8648,W,2,09,0.8,0.7,M,-25.1,M,,0000*63
$GPGSA,A,3,13,28,23,10,05,08,03,19,26,,,,1.6,0.8,1.4*32
$GPRMC,202046.000,A,3748.8004,N,12217.8648,W,0.13,324.98,070711,,,D*7C
$GPVTG,324.98,T,,M,0.13,N,0.2,K,D*0C
$GPGGA,202047.000,3748.8004,N,12217.8650,W,2,09,0.8,1.4,M,-25.1,M,,0000*69
$GPGSA,A,3,13,28,23,10,05,08,03,19,26,,,,1.6,0.8,1.4*32
$GPRMC,202047.000,A,3748.8004,N,12217.8650,W,0.21,322.05,070711,,,D*77
$GPVTG,322.05,T,,M,0.21,N,0.4,K,D*09
$GPGGA,202048.000,3748.8003,N,12217.8651,W,2,09,0.8,1.9,M,-25.1,M,,0000*6D
$GPGSA,A,3,13,28,23,10,05,08,03,19,26,,,,1.6,0.8,1.4*32
$GPRMC,202048.000,A,3748.8003,N,12217.8651,W,0.07,146.87,070711,,,D*70
$GPVTG,146.87,T,,M,0.07,N,0.1,K,D*02
$GPGGA,202049.000,3748.8003,N,12217.8653,W,2,09,0.8,2.4,M,-25.1,M,2.8,0000*44
$GPGSA,A,3,13,28,23,10,05,08,03,19,26,,,,1.6,0.8,1.4*32
$GPGSV,3,1,12,07,63,041,,08,60,331,33,28,50,235,37,13,36,144,26*7D
$GPGSV,3,2,12,19,31,064,17,10,23,229,38,05,23,284,41,26,14,317,35*7A
$GPGSV,3,3,12,03,11,041,33,23,07,144,22,11,05,116,13,06,01,033,*7D
$GPRMC,202049.000,A,3748.8003,N,12217.8653,W,0.09,107.74,070711,,,D*74
$GPVTG,107.74,T,,M,0.09,N,0.2,K,D*06
$GPGGA,202050.000,3748.8002,N,12217.8654,W,2,09,0.8,2.8,M,-25.1,M,3.8,0000*47
$GPGSA,A,3,13,28,23,10,05,08,03,19,26,,,,1.6,0.8,1.4*32
$GPRMC,202050.000,A,3748.8002,N,12217.8654,W,0.12,139.14,070711,,,D*7B
$GPVTG,139.14,T,,M,0.12,N,0.2,K,D*07
$GPGGA,202051.000,3748.8002,N,12217.8655,W,2,09,0.8,3.1,M,-25.1,M,4.8,0000*48
$GPGSA,A,3,13,28,23,10,05,08,03,19,26,,,,1.6,0.8,1.4*32
$GPRMC,202051.000,A,3748.8002,N,12217.8655,W,0.10,119.76,070711,,,D*7F
$GPVTG,119.76,T,,M,0.10,N,0.2,K,D*03
$GPGGA,202052.000,3748.8001,N,12217.8656,W,2,10,0.8,3.6,M,-25.1,M,,0000*66
$GPGSA,A,3,13,28,23,10,05,07,08,03,19,26,,,1.4,0.8,1.2*31
$GPRMC,202052.000,A,3748.8001,N,12217.8656,W,0.02,330.02,070711,,,D*75
$GPVTG,330.02,T,,M,0.02,N,0.0,K,D*08
$GPGGA,202053.000,3748.8002,N,12217.8653,W,2,10,0.8,3.3,M,-25.1,M,,0000*64
$GPGSA,A,3,13,28,23,10,05,07,08,03,19,26,,,1.4,0.8,1.2*31
$GPRMC,202053.000,A,3748.8002,N,12217.8653,W,0.03,348.42,070711,,,D*78
$GPVTG,348.42,T,,M,0.03,N,0.1,K,D*03
$GPGGA,202054.000,3748.8001,N,12217.8655,W,2,09,0.8,3.6,M,-25.1,M,,0000*6B
$GPGSA,A,3,13,28,23,10,05,08,03,19,26,,,,1.6,0.8,1.4*32
$GPGSV,3,1,12,07,63,041,22,08,60,331,32,28,50,235,37,13,36,144,25*7F
$GPGSV,3,2,12,19,31,064,22,10,23,229,38,05,23,284,43,26,14,317,34*7F
$GPGSV,3,3,12,03,11,041,28,23,07,144,22,11,05,116,14,06,01,033,*70
$GPVTG,59.62,T,,M,0.04,N,0.1,K,D*35
$GPGGA,202055.000,3748.8001,N,12217.8656,W,2,08,0.9,4.0,M,-25.1,M,2.8,0000*4C
$GPGSA,A,3,28,23,10,05,08,03,19,26,,,,,1.7,0.9,1.5*31
$GPRMC,202055.000,A,3748.8001,N,12217.8656,W,0.12,163.80,070711,,,D*7D
$GPVTG,163.80,T,,M,0.12,N,0.2,K,D*05
$GPGGA,202056.000,3748.8000,N,12217.8657,W,2,08,0.9,4.3,M,-25.1,M,3.8,0000*4D
$GPGSA,A,3,28,23,10,05,08,03,19,26,,,,,1.7,0.9,1.5*31
$GPRMC,202056.000,A,3748.8000,N,12217.8657,W,0.05,240.92,070711,,,D*79
$GPVTG,240.92,T,,M,0.05,N,0.1,K,D*01
$GPGGA,202057.000,3748.8000,N,12217.8659,W,2,09,0.8,4.8,M,-25.1,M,,0000*6C
$GPGSA,A,3,13,28,23,10,05,08,03,19,26,,,,1.6,0.8,1.4*32
$GPRMC,202057.000,A,3748.8000,N,12217.8659,W,0.09,9.57,070711,,,D*7C
$GPVTG,9.57,T,,M,0.09,N,0.2,K,D*08
$GPGGA,202058.000,3748.8000,N,12217.8660,W,2,10,0.8,5.1,M,-25.1,M,2.8,0000*4D
$GPGSA,A,3,13,28,23,10,05,07,08,03,19,26,,,1.4,0.8,1.2*31
$GPRMC,202058.000,A,3748.8000,N,12217.8660,W,0.11,114.05,070711,,,D*7A
$GPVTG,114.05,T,,M,0.11,N,0.2,K,D*0B
$GPGGA,202059.000,3748.7999,N,12217.8661,W,2,10,0.8,5.4,M,-25.1,M,,0000*6A
$GPGSA,A,3,13,28,23,10,05,07,08,03,19,26,,,1.4,0.8,1.2*31
$GPGSV,3,1,12,07,63,041,28,08,60,331,33,28,50,235,37,13,36,144,23*72
$GPGSV,3,2,12,19,31,064,25,10,23,229,37,05,23,284,43,26,14,317,36*75
$GPGSV,3,3,12,03,11,041,34,23,07,144,22,11,05,116,22,06,01,033,*78
$GPRMC,202059.000,A,3748.7999,N,12217.8661,W,0.14,169.39,070711,,,D*7C
$GPVTG,169.39,T,,M,0.14,N,0.3,K,D*0A
$GPGGA,202100.000,3748.7999,N,12217.8662,W,2,10,0.8,5.7,M,-25.1,M,,0000*67
$GPGSA,A,3,13,28,23,10,05,07,08,03,19,26,,,1.4,0.8,1.2*31
$GPRMC,202100.000,A,3748.7999,N,12217.8662,W,0.05,214.80,070711,,,D*79
$GPVTG,214.80,T,,M,0.05,N,0.1,K,D*03
$GPGGA,202101.000,3748.7998,N,12217.8664,W,2,09,0.8,6.1,M,-25.1,M,2.8,0000*48
$GPGSA,A,3,13,28,23,10,05,08,03,19,26,,,,1.6,0.8,1.4*32
$GPRMC,202101.000,A,3748.7998,N,12217.8664,W,0.19,191.37,070711,,,D*70
$GPVTG,191.37,T,,M,0.19,N,0.3,K,D*0E
$GPGGA,202102.000,3748.7998,N,12217.8663,W,2,09,0.8,5.8,M,-25.1,M,3.8,0000*47
$GPGSA,A,3,13,28,23,10,05,08,03,19,26,,,,1.6,0.8,1.4*32
$GPRMC,202102.000,A,3748.7998,N,12217.8663,W,0.17,230.73,070711,,,D*72
$GPVTG,230.73,T,,M,0.17,N,0.3,K,D*08
$GPGGA,202103.000,3748.7998,N,12217.8663,W,2,09,0.8,5.7,M,-25.1,M,4.8,0000*4E
$GPGSA,A,3,13,28,23,10,05,08,03,19,26,,,,1.6,0.8,1.4*32
$GPRMC,202103.000,A,3748.7998,N,12217.8663,W,0.09,231.88,070711,,,D*79
$GPVTG,231.88,T,,M,0.09,N,0.2,K,D*03
$GPGGA,202104.000,3748.7995,N,12217.8658,W,2,10,0.8,5.3,M,-25.1,M,,0000*62
$GPGSA,A,3,13,28,23,10,05,07,08,03,19,26,,,1.4,0.8,1.2*31
$GPGSV,3,1,12,07,63,041,27,08,60,331,33,28,50,235,37,13,36,144,30*7F
$GPGSV,3,2,12,19,31,064,19,10,23,229,37,05,23,284,39,26,14,317,37*76
$GPGSV,3,3,12,03,11,041,26,23,07,144,30,11,05,116,18,06,01,033,*71
$GPRMC,202104.000,A,3748.7995,N,12217.8658,W,0.10,126.06,070711,,,D*70
$GPVTG,126.06,T,,M,0.10,N,0.2,K,D*08
$GPGGA,202105.000,3748.7992,N,12217.8654,W,2,10,0.8,4.5,M,-25.1,M,,0000*6F
$GPGSA,A,3,13,28,23,10,05,07,08,03,19,26,,,1.4,0.8,1.2*31
$GPRMC,202105.000,A,3748.7992,N,12217.8654,W,0.49,76.20,070711,,,D*46
$GPVTG,76.20,T,,M,0.49,N,0.9,K,D*3F
$GPGGA,202106.000,3748.7992,N,12217.8655,W,2,09,0.8,4.9,M,-25.1,M,,0000*69
$GPGSA,A,3,13,28,23,10,05,08,03,19,26,,,,1.6,0.8,1.4*32
$GPRMC,202106.000,A,3748.7992,N,12217.8655,W,0.50,272.15,070711,,,D*7C
$GPVTG,272.15,T,,M,0.50,N,0.9,K,D*07
$GPGGA,202107.000,3748.7993,N,12217.8657,W,2,09,0.8,4.9,M,-25.1,M,2.8,0000*4F
$GPGSA,A,3,13,28,23,10,05,08,03,19,26,,,,1.6,0.8,1.4*32
$GPRMC,202107.000,A,3748.7993,N,12217.8657,W,0.25,237.44,070711,,,D*79
$GPVTG,237.44,T,,M,0.25,N,0.5,K,D*0C
$GPGGA,202108.000,3748.7992,N,12217.8659,W,2,09,0.8,5.4,M,-25.1,M,3.8,0000*42
$GPGSA,A,3,13,28,23,10,05,08,03,19,26,,,,1.6,0.8,1.4*32
$GPRMC,202108.000,A,3748.7992,N,12217.8659,W,0.03,107.29,070711,,,D*76
$GPVTG,107.29,T,,M,0.03,N,0.1,K,D*07
$GPGGA,202109.000,3748.7991,N,12217.8661,W,2,09,0.8,5.9,M,-25.1,M,4.8,0000*41
$GPGSA,A,3,13,28,23,10,05,08,03,19,26,,,,1.6,0.8,1.4*32
$GPGSV,3,1,12,07,63,041,,08,60,331,33,28,50,235,37,13,36,144,26*7D
$GPGSV,3,2,12,19,31,064,21,10,23,229,38,05,23,284,42,26,14,317,31*78
$GPGSV,3,3,12,03,11,041,32,23,07,144,29,11,05,116,18,06,01,033,*7C
$GPRMC,202109.000,A,3748.7991,N,12217.8661,W,0.11,89.22,070711,,,D*40
$GPVTG,89.22,T,,M,0.11,N,0.2,K,D*3B
$GPGGA,202110.000,3748.7990,N,12217.8664,W,2,09,0.8,6.4,M,-25.1,M,,0000*61
$GPGSA,A,3,13,28,23,10,05,08,03,19,26,,,,1.6,0.8,1.4*32
$GPRMC,202110.000,A,3748.7990,N,12217.8664,W,0.10,178.28,070711,,,D*78
$GPVTG,178.28,T,,M,0.10,N,0.2,K,D*0F
$GPGGA,202111.000,3748.7989,N,12217.8667,W,2,09,0.8,7.0,M,-25.1,M,,0000*6E
$GPGSA,A,3,13,28,23,10,05,08,03,19,26,,,,1.6,0.8,1.4*32
$GPRMC,202111.000,A,3748.7989,N,12217.8667,W,0.07,44.44,070711,,,D*40
$GPVTG,44.44,T,,M,0.07,N,0.1,K,D*3E
$GPGGA,202112.000,3748.7988,N,12217.8670,W,2,09,0.8,7.6,M,-25.1,M,,0000*6C
$GPGSA,A,3,13,28,23,10,05,08,03,19,26,,,,1.6,0.8,1.4*32
$GPRMC,202112.000,A,3748.7988,N,12217.8670,W,0.10,205.51,070711,,,D*71
$GPVTG,205.51,T,,M,0.10,N,0.2,K,D*08
$GPGGA,202113.000,3748.7987,N,12217.8674,W,2,09,0.8,8.2,M,-25.1,M,,0000*6D
$GPGSA,A,3,13,28,23,10,05,08,03,19,26,,,,1.6,0.8,1.4*32
$GPRMC,202113.000,A,3748.7987,N,12217.8674,W,0.11,217.51,070711,,,D*79
$GPVTG,217.51,T,,M,0.11,N,0.2,K,D*0A
$GPGGA,202114.000,3748.7985,N,12217.8677,W,2,09,0.8,8.3,M,-25.1,M,2.8,0000*4E
$GPGSA,A,3,13,28,23,10,05,08,03,19,26,,,,1.6,0.8,1.4*32
$GPGSV,3,1,12,07,63,041,,08,60,331,29,28,50,235,37,13,36,144,22*72
$GPGSV,3,2,12,19,31,064,20,10,23,229,38,05,23,284,41,26,14,317,33*78
$GPGSV,3,3,12,03,11,041,31,23,07,144,29,11,05,116,18,06,01,033,*7F
$GPVTG,224.50,T,,M,0.12,N,0.2,K,D*08
$GPGGA,202115.000,3748.7983,N,12217.8680,W,2,09,0.8,8.6,M,-25.1,M,3.8,0000*45
$GPGSA,A,3,13,28,23,10,05,08,03,19,26,,,,1.6,0.8,1.4*32
$GPRMC,202115.000,A,3748.7983,N,12217.8680,W,0.12,215.22,070711,,,D*75
$GPVTG,215.22,T,,M,0.12,N,0.2,K,D*0F
$GPGGA,202116.000,3748.7979,N,12217.8675,W,2,09,0.8,7.9,M,-25.1,M,,0000*6C
$GPGSA,A,3,13,28,23,10,05,08,03,19,26,,,,1.6,0.8,1.4*32
$GPRMC,202116.000,A,3748.7979,N,12217.8675,W,0.11,232.31,070711,,,D*7D
$GPVTG,232.31,T,,M,0.11,N,0.2,K,D*0B
$GPGGA,202117.000,3748.7976,N,12217.8672,W,2,09,0.8,7.1,M,-25.1,M,,0000*6D
$GPGSA,A,3,13,28,23,10,05,08,03,19,26,,,,1.6,0.8,1.4*32
$GPRMC,202117.000,A,3748.7976,N,12217.8672,W,0.16,215.06,070711,,,D*72
$GPVTG,215.06,T,,M,0.16,N,0.3,K,D*0C
$GPGGA,202118.000,3748.7975,N,12217.8675,W,2,09,0.8,7.2,M,-25.1,M,,0000*65
$GPGSA,A,3,13,28,23,10,05,08,03,19,26,,,,1.6,0.8,1.4*32
$GPRMC,202118.000,A,3748.7975,N,12217.8675,W,0.16,174.78,070711,,,D*74
$GPVTG,174.78,T,,M,0.16,N,0.3,K,D*01
$GPGGA,202119.000,3748.7973,N,12217.8677,W,2,09,0.8,7.4,M,-25.1,M,2.8,0000*42
$GPGSA,A,3,13,28,23,10,05,08,03,19,26,,,,1.6,0.8,1.4*32
$GPGSV,3,1,12,07,63,041,,08,60,331,31,28,50,235,38,13,36,144,28*7E
$GPGSV,3,2,12,19,31,064,21,10,23,229,38,05,23,284,41,26,14,317,33*79
$GPGSV,3,3,12,03,11,041,28,23,07,144,23,11,05,116,23,06,01,033,*75
$GPRMC,202119.000,A,3748.7973,N,12217.8677,W,0.12,162.02,070711,,,D*7F
$GPVTG,162.02,T,,M,0.12,N,0.2,K,D*0E
$GPGGA,202120.000,3748.7970,N,12217.8674,W,2,09,0.8,6.8,M,-25.1,M,3.8,0000*44
$GPGSA,A,3,13,28,23,10,05,08,03,19,26,,,,1.6,0.8,1.4*32
$GPRMC,202120.000,A,3748.7970,N,12217.8674,W,0.09,160.62,070711,,,D*7B
$GPVTG,160.62,T,,M,0.09,N,0.2,K,D*00
$GPGGA,202121.000,3748.7969,N,12217.8672,W,2,09,0.8,6.3,M,-25.1,M,4.8,0000*47
$GPGSA,A,3,13,28,23,10,05,08,03,19,26,,,,1.6,0.8,1.4*32
$GPRMC,202121.000,A,3748.7969,N,12217.8672,W,0.11,48.08,070711,,,D*4A
$GPVTG,48.08,T,,M,0.11,N,0.2,K,D*3E
$GPGGA,202122.000,3748.7968,N,12217.8675,W,2,09,0.8,6.6,M,-25.1,M,,0000*65
$GPGSA,A,3,13,28,23,10,05,08,03,19,26,,,,1.6,0.8,1.4*32
$GPRMC,202122.000,A,3748.7968,N,12217.8675,W,0.18,292.25,070711,,,D*7C
$GPVTG,292.25,T,,M,0.18,N,0.3,K,D*0C
$GPGGA,202123.000,3748.7968,N,12217.8677,W,2,10,0.8,7.0,M,-25.1,M,,0000*69
$GPGSA,A,3,13,28,23,10,05,07,08,03,19,26,,,1.4,0.8,1.2*31
$GPRMC,202123.000,A,3748.7968,N,12217.8677,W,0.22,24.94,070711,,,D*43
$GPVTG,24.94,T,,M,0.22,N,0.4,K,D*37
$GPGGA,202124.000,3748.7968,N,12217.8674,W,2,10,0.8,6.7,M,-25.1,M,2.8,0000*4F
$GPGSA,A,3,13,28,23,10,05,07,08,03,19,26,,,1.4,0.8,1.2*31
$GPGSV,3,1,12,07,63,041,29,08,60,331,32,28,50,235,38,13,36,144,24*7A
$GPGSV,3,2,12,19,31,064,32,10,23,229,30,05,23,284,41,26,14,317,34*74
$GPGSV,3,3,12,03,11,041,32,23,07,144,24,11,05,116,22,06,01,033,*78
$GPRMC,202124.000,A,3748.7968,N,12217.8674,W,0.08,23.49,070711,,,D*48
$GPVTG,23.49,T,,M,0.08,N,0.1,K,D*3D
$GPGGA,202125.000,3748.7967,N,12217.8675,W,2,10,0.8,6.8,M,-25.1,M,3.8,0000*4E
$GPGSA,A,3,13,28,23,10,05,07,08,03,19,26,,,1.4,0.8,1.2*31
$GPRMC,202125.000,A,3748.7967,N,12217.8675,W,0.24,215.60,070711,,,D*75
$GPVTG,215.60,T,,M,0.24,N,0.4,K,D*0A
$GPGGA,202126.000,3748.7966,N,12217.8677,W,2,09,0.8,6.9,M,-25.1,M,4.8,0000*40
$GPGSA,A,3,13,28,23,10,05,07,08,03,26,,,,1.5,0.8,1.2*38
$GPRMC,202126.000,A,3748.7966,N,12217.8677,W,0.21,212.50,070711,,,D*74
$GPVTG,212.50,T,,M,0.21,N,0.4,K,D*0B
$GPGGA,202127.000,3748.7965,N,12217.8679,W,2,10,0.8,6.9,M,-25.1,M,5.8,0000*45
$GPGSA,A,3,13,28,23,10,05,07,08,03,19,26,,,1.4,0.8,1.2*31
$GPRMC,202127.000,A,3748.7965,N,12217.8679,W,0.29,205.28,070711,,,D*79
$GPVTG,205.28,T,,M,0.29,N,0.5,K,D*0B
$GPGGA,202128.000,3748.7963,N,12217.8679,W,2,10,0.8,6.4,M,-25.1,M,,0000*62
$GPGSA,A,3,13,28,23,10,05,07,08,03,19,26,,,1.4,0.8,1.2*31
$GPRMC,202128.000,A,3748.7963,N,12217.8679,W,1.36,184.54,070711,,,D*7E
$GPVTG,184.54,T,,M,1.36,N,2.5,K,D*07
$GPGGA,202129.000,3748.7958,N,12217.8679,W,2,10,0.8,6.3,M,-25.1,M,,0000*6C
$GPGSA,A,3,13,28,23,10,05,07,08,03,19,26,,,1.4,0.8,1.2*31
$GPGSV,3,1,12,07,63,042,20,08,60,332,25,28,50,235,36,13,36,144,35*7B
$GPGSV,3,2,12,19,30,064,23,10,23,229,40,05,23,284,37,26,15,317,27*70
$GPGSV,3,3,12,03,11,040,28,23,07,144,38,11,05,116,28,06,01,033,*75
$GPRMC,202129.000,A,3748.7958,N,12217.8679,W,1.17,197.67,070711,,,D*76
$GPVTG,197.67,T,,M,1.17,N,2.2,K,D*01
$GPGGA,202130.000,3748.7953,N,12217.8680,W,2,10,0.8,6.3,M,-25.1,M,,0000*69
$GPGSA,A,3,13,28,23,10,05,07,08,03,19,26,,,1.4,0.8,1.2*31
$GPRMC,202130.000,A,3748.7953,N,12217.8680,W,1.20,203.73,070711,,,D*7C
$GPVTG,203.73,T,,M,1.20,N,2.2,K,D*0E
$GPGGA,202131.000,3748.7949,N,12217.8680,W,2,10,0.8,5.8,M,-25.1,M,1.8,0000*4C
$GPGSA,A,3,13,28,23,10,05,07,08,03,19,26,,,1.4,0.8,1.2*31
$GPRMC,202131.000,A,3748.7949,N,12217.8680,W,1.76,213.08,070711,,,D*78
$GPVTG,213.08,T,,M,1.76,N,3.3,K,D*00
$GPGGA,202132.000,3748.7945,N,12217.8681,W,2,10,0.8,5.5,M,-25.1,M,2.8,0000*4C
$GPGSA,A,3,13,28,23,10,05,07,08,03,19,26,,,1.4,0.8,1.2*31
$GPRMC,202132.000,A,3748.7945,N,12217.8681,W,1.72,198.38,070711,,,D*71
$GPVTG,198.38,T,,M,1.72,N,3.2,K,D*06
$GPGGA,202133.000,3748.7940,N,12217.8682,W,2,10,0.8,5.3,M,-25.1,M,1.8,0000*4E
$GPGSA,A,3,13,28,23,10,05,07,08,03,19,26,,,1.4,0.8,1.2*31
$GPRMC,202133.000,A,3748.7940,N,12217.8682,W,1.86,198.73,070711,,,D*72
$GPVTG,198.73,T,,M,1.86,N,3.4,K,D*04
$GPGGA,202134.000,3748.7936,N,12217.8682,W,2,10,0.8,4.9,M,-25.1,M,1.8,0000*43
$GPGSA,A,3,13,28,23,10,05,07,08,03,19,26,,,1.4,0.8,1.2*31
$GPGSV,3,1,12,07,63,042,21,08,60,332,28,28,50,235,36,13,36,144,32*70
$GPGSV,3,2,12,19,30,064,23,10,23,229,40,05,23,284,37,26,15,317,38*7E
$GPGSV,3,3,12,03,11,040,30,23,07,144,26,11,05,116,27,06,01,033,*7C
$GPVTG,186.94,T,,M,1.69,N,3.1,K,D*06
$GPGGA,202135.000,3748.7931,N,12217.8681,W,2,10,0.8,4.6,M,-25.1,M,1.8,0000*49
$GPGSA,A,3,13,28,23,10,05,07,08,03,19,26,,,1.4,0.8,1.2*31
$GPRMC,202135.000,A,3748.7931,N,12217.8681,W,1.52,182.62,070711,,,D*73
$GPVTG,182.62,T,,M,1.52,N,2.8,K,D*0B
$GPGGA,202136.000,3748.7927,N,12217.8680,W,2,10,0.8,4.2,M,-25.1,M,1.8,0000*48
$GPGSA,A,3,13,28,23,10,05,07,08,03,19,26,,,1.4,0.8,1.2*31
$GPRMC,202136.000,A,3748.7927,N,12217.8680,W,1.63,181.25,070711,,,D*74
$GPVTG,181.25,T,,M,1.63,N,3.0,K,D*00
$GPGGA,202137.000,3748.7923,N,12217.8681,W,2,10,0.8,3.9,M,-25.1,M,2.8,0000*43
$GPGSA,A,3,13,28,23,10,05,07,08,03,19,26,,,1.4,0.8,1.2*31
$GPRMC,202137.000,A,3748.7923,N,12217.8681,W,1.69,203.88,070711,,,D*74
$GPVTG,203.88,T,,M,1.69,N,3.1,K,D*05
$GPGGA,202138.000,3748.7919,N,12217.8681,W,2,10,0.8,3.7,M,-25.1,M,3.8,0000*4A
$GPGSA,A,3,13,28,23,10,05,07,08,03,19,26,,,1.4,0.8,1.2*31
$GPRMC,202138.000,A,3748.7919,N,12217.8681,W,1.52,190.62,070711,,,D*77
$GPVTG,190.62,T,,M,1.52,N,2.8,K,D*08
$GPGGA,202139.000,3748.7915,N,12217.8681,W,2,10,0.8,3.7,M,-25.1,M,1.8,0000*45
$GPGSA,A,3,13,28,23,10,05,07,08,03,19,26,,,1.4,0.8,1.2*31
$GPGSV,3,1,12,07,63,042,24,08,60,332,28,28,50,235,37,13,36,144,32*74
$GPGSV,3,2,12,19,30,064,24,10,23,229,40,05,23,284,33,26,15,317,29*7D
$GPGSV,3,3,12,03,11,040,31,23,07,144,25,11,05,116,31,06,01,033,*79
$GPRMC,202139.000,A,3748.7915,N,12217.8681,W,1.41,172.20,070711,,,D*72
$GPVTG,172.20,T,,M,1.41,N,2.6,K,D*0E
$GPGGA,202140.000,3748.7912,N,12217.8676,W,2,10,0.8,3.4,M,-25.1,M,1.8,0000*47
$GPGSA,A,3,13,28,23,10,05,07,08,03,19,26,,,1.4,0.8,1.2*31
$GPRMC,202140.000,A,3748.7912,N,12217.8676,W,1.38,129.64,070711,,,D*73
$GPVTG,129.64,T,,M,1.38,N,2.6,K,D*0E
$GPGGA,202141.000,3748.7909,N,12217.8671,W,2,10,0.8,2.9,M,-25.1,M,1.8,0000*47
$GPGSA,A,3,13,28,23,10,05,07,08,03,19,26,,,1.4,0.8,1.2*31
$GPRMC,202141.000,A,3748.7909,N,12217.8671,W,1.96,138.04,070711,,,D*7D
$GPVTG,138.04,T,,M,1.96,N,3.6,K,D*0D
$GPGGA,202142.000,3748.7905,N,12217.8666,W,2,10,0.8,2.9,M,-25.1,M,1.8,0000*4E
$GPGSA,A,3,13,28,23,10,05,07,08,03,19,26,,,1.4,0.8,1.2*31
$GPRMC,202142.000,A,3748.7905,N,12217.8666,W,1.70,117.14,070711,,,D*70
$GPVTG,117.14,T,,M,1.70,N,3.2,K,D*0D
$GPGGA,202143.000,3748.7902,N,12217.8661,W,2,10,0.8,2.7,M,-25.1,M,2.8,0000*42
$GPGSA,A,3,13,28,23,10,05,07,08,03,19,26,,,1.4,0.8,1.2*31
$GPRMC,202143.000,A,3748.7902,N,12217.8661,W,0.72,154.17,070711,,,D*76
$GPVTG,154.17,T,,M,0.72,N,1.3,K,D*09
$GPGGA,202144.000,3748.7900,N,12217.8658,W,2,10,0.8,2.6,M,-25.1,M,3.8,0000*4D
$GPGSA,A,3,13,28,23,10,05,07,08,03,19,26,,,1.4,0.8,1.2*31
$GPGSV,3,1,12,07,63,042,23,08,60,332,24,28,50,235,33,13,36,144,39*70
$GPGSV,3,2,12,19,30,064,34,10,23,229,23,05,23,284,32,26,15,317,27*76
$GPGSV,3,3,12,03,11,040,29,23,07,144,21,11,05,116,34,06,01,033,*71
$GPRMC,202144.000,A,3748.7900,N,12217.8658,W,1.34,117.49,070711,,,D*76
$GPVTG,117.49,T,,M,1.34,N,2.5,K,D*03
$GPGGA,202145.000,3748.7897,N,12217.8653,W,2,10,0.8,2.8,M,-25.1,M,1.8,0000*44
$GPGSA,A,3,13,28,23,10,05,07,08,03,19,26,,,1.4,0.8,1.2*31
$GPRMC,202145.000,A,3748.7897,N,12217.8653,W,1.51,119.49,070711,,,D*7E
$GPVTG,119.49,T,,M,1.51,N,2.8,K,D*03
$GPGGA,202146.000,3748.7894,N,12217.8649,W,2,10,0.8,2.8,M,-25.1,M,1.8,0000*4F
$GPGSA,A,3,13,28,23,10,05,07,08,03,19,26,,,1.4,0.8,1.2*31
$GPRMC,202146.000,A,3748.7894,N,12217.8649,W,1.54,126.11,070711,,,D*71
$GPVTG,126.11,T,,M,1.54,N,2.9,K,D*06
$GPGGA,202147.000,3748.7891,N,12217.8643,W,2,10,0.8,3.0,M,-25.1,M,1.8,0000*48
$GPGSA,A,3,13,28,23,10,05,07,08,03,19,26,,,1.4,0.8,1.2*31
$GPRMC,202147.000,A,3748.7891,N,12217.8643,W,1.28,108.68,070711,,,D*76
$GPVTG,108.68,T,,M,1.28,N,2.4,K,D*02
$GPGGA,202148.000,3748.7888,N,12217.8638,W,2,10,0.8,3.2,M,-25.1,M,1.8,0000*41
$GPGSA,A,3,13,28,23,10,05,07,08,03,19,26,,,1.4,0.8,1.2*31
$GPRMC,202148.000,A,3748.7888,N,12217.8638,W,1.41,120.44,070711,,,D*76
$GPVTG,120.44,T,,M,1.41,N,2.6,K,D*0B
$GPGGA,202149.000,3748.7884,N,12217.8632,W,2,10,0.8,3.2,M,-25.1,M,2.8,0000*45
$GPGSA,A,3,13,28,23,10,05,07,08,03,19,26,,,1.4,0.8,1.2*31
$GPGSV,3,1,12,07,63,042,24,08,60,332,25,28,50,235,27,13,36,144,37*7D
$GPGSV,3,2,12,19,30,064,34,10,23,229,23,05,23,284,32,26,15,317,28*79
$GPGSV,3,3,12,03,11,040,29,23,07,144,21,11,05,116,37,06,01,033,*72
$GPRMC,202149.000,A,3748.7884,N,12217.8632,W,1.93,119.74,070711,,,D*77
$GPVTG,119.74,T,,M,1.93,N,3.6,K,D*0C
$GPGGA,202150.000,3748.7881,N,12217.8628,W,2,10,0.8,3.2,M,-25.1,M,3.8,0000*42
$GPGSA,A,3,13,28,23,10,05,07,08,03,19,26,,,1.4,0.8,1.2*31
$GPRMC,202150.000,A,3748.7881,N,12217.8628,W,0.96,130.48,070711,,,D*71
$GPVTG,130.48,T,,M,0.96,N,1.8,K,D*00
$GPGGA,202151.000,3748.7876,N,12217.8624,W,2,10,0.8,1.8,M,-25.1,M,4.8,0000*48
$GPGSA,A,3,13,28,23,10,05,07,08,03,19,26,,,1.4,0.8,1.2*31
$GPRMC,202151.000,A,3748.7876,N,12217.8624,W,0.80,141.87,070711,,,D*76
$GPVTG,141.87,T,,M,0.80,N,1.5,K,D*0F
$GPGGA,202152.000,3748.7873,N,12217.8623,W,2,10,0.8,1.8,M,-25.1,M,5.8,0000*48
$GPGSA,A,3,13,28,23,10,05,07,08,03,19,26,,,1.4,0.8,1.2*31
$GPRMC,202152.000,A,3748.7873,N,12217.8623,W,0.97,181.25,070711,,,D*75
$GPVTG,181.25,T,,M,0.97,N,1.8,K,D*00
$GPGGA,202153.000,3748.7868,N,12217.8621,W,2,10,0.8,1.3,M,-25.1,M,6.8,0000*49
$GPGSA,A,3,13,28,23,10,05,07,08,03,19,26,,,1.4,0.8,1.2*31
$GPRMC,202153.000,A,3748.7868,N,12217.8621,W,0.85,162.52,070711,,,D*72
$GPVTG,162.52,T,,M,0.85,N,1.6,K,D*00
$GPGGA,202154.000,3748.7864,N,12217.8618,W,2,10,0.8,0.6,M,-25.1,M,7.8,0000*4D
$GPGSA,A,3,13,28,23,10,05,07,08,03,19,26,,,1.4,0.8,1.2*31
$GPGSV,3,1,12,07,63,042,28,08,60,332,25,28,50,235,22,13,36,144,38*7B
$GPGSV,3,2,12,19,30,064,29,10,23,229,19,05,23,284,20,26,15,317,28*7F
$GPGSV,3,3,12,03,11,040,29,23,07,144,23,11,05,116,38,06,01,033,*7F
$GPRMC,202154.000,A,3748.7864,N,12217.8618,W,1.39,138.29,070711,,,D*76
$GPVTG,138.29,T,,M,1.39,N,2.6,K,D*06
$GPGGA,202155.000,3748.7861,N,12217.8613,W,2,10,0.8,0.4,M,-25.1,M,8.8,0000*4F
$GPGSA,A,3,13,28,23,10,05,07,08,03,19,26,,,1.4,0.8,1.2*31
$GPRMC,202155.000,A,3748.7861,N,12217.8613,W,1.50,124.49,070711,,,D*7D
$GPVTG,124.49,T,,M,1.50,N,2.8,K,D*0C
$GPGGA,202156.000,3748.7858,N,12217.8606,W,2,10,0.8,0.1,M,-25.1,M,9.8,0000*46
$GPGSA,A,3,13,28,23,10,05,07,08,03,19,26,,,1.4,0.8,1.2*31
$GPRMC,202156.000,A,3748.7858,N,12217.8606,W,1.84,120.05,070711,,,D*75
$GPVTG,120.05,T,,M,1.84,N,3.4,K,D*04
$GPGGA,202157.000,3748.7856,N,12217.8598,W,2,10,0.8,-0.2,M,-25.1,M,10.8,0000*5B
$GPGSA,A,3,13,28,23,10,05,07,08,03,19,26,,,1.4,0.8,1.2*31
$GPRMC,202157.000,A,3748.7856,N,12217.8598,W,2.08,125.54,070711,,,D*78
$GPVTG,125.54,T,,M,2.08,N,3.8,K,D*0E
$GPGGA,202158.000,3748.7853,N,12217.8591,W,2,10,0.8,-0.7,M,-25.1,M,11.8,0000*5C
$GPGSA,A,3,13,28,23,10,05,07,08,03,19,26,,,1.4,0.8,1.2*31
$GPRMC,202158.000,A,3748.7853,N,12217.8591,W,1.47,123.45,070711,,,D*75
$GPVTG,123.45,T,,M,1.47,N,2.7,K,D*0E
$GPGGA,202159.000,3748.7851,N,12217.8584,W,2,10,0.8,-1.0,M,-25.1,M,12.8,0000*5E
$GPGSA,A,3,13,28,23,10,05,07,08,03,19,26,,,1.4,0.8,1.2*31
$GPGSV,3,1,12,07,63,042,27,08,60,332,24,28,50,235,34,13,36,144,39*73
$GPGSV,3,2,12,19,30,064,27,10,23,229,31,05,23,284,21,26,15,317,26*74
$GPRMC,202159.000,A,3748.7851,N,12217.8584,W,1.98,112.66,070711,,,D*73
$GPVTG,112.66,T,,M,1.98,N,3.7,K,D*0E
$GPGGA,202200.000,3748.7848,N,12217.8576,W,2,10,0.8,-1.6,M,-25.1,M,13.8,0000*53
$GPGSA,A,3,13,28,23,10,05,07,08,03,19,26,,,1.4,0.8,1.2*31
$GPRMC,202200.000,A,3748.7848,N,12217.8576,W,1.91,115.96,070711,,,D*78
$GPVTG,115.96,T,,M,1.91,N,3.5,K,D*0D
$GPGGA,202201.000,3748.7846,N,12217.8568,W,2,10,0.8,-1.6,M,-25.1,M,1.8,0000*60
$GPGSA,A,3,13,28,23,10,05,07,08,03,19,26,,,1.4,0.8,1.2*31
$GPRMC,202201.000,A,3748.7846,N,12217.8568,W,1.98,115.02,070711,,,D*7C
$GPVTG,115.02,T,,M,1.98,N,3.7,K,D*0B
$GPGGA,202202.000,3748.7843,N,12217.8560,W,2,10,0.8,-1.8,M,-25.1,M,2.8,0000*63
$GPGSA,A,3,13,28,23,10,05,07,08,03,19,26,,,1.4,0.8,1.2*31
$GPRMC,202202.000,A,3748.7843,N,12217.8560,W,1.95,119.30,070711,,,D*72
$GPVTG,119.30,T,,M,1.95,N,3.6,K,D*0A
$GPGGA,202203.000,3748.7840,N,12217.8552,W,2,10,0.8,-2.0,M,-25.1,M,3.8,0000*6A
$GPGSA,A,3,13,28,23,10,05,07,08,03,19,26,,,1.4,0.8,1.2*31
$GPRMC,202203.000,A,3748.7840,N,12217.8552,W,2.10,124.33,070711,,,D*72
$GPVTG,124.33,T,,M,2.10,N,3.9,K,D*06
$GPGGA,202204.000,3748.7837,N,12217.8545,W,2,10,0.8,-2.1,M,-25.1,M,1.8,0000*68
$GPGSA,A,3,13,28,23,10,05,07,08,03,19,26,,,1.4,0.8,1.2*31
$GPGSV,3,1,12,07,63,042,25,08,60,332,24,28,50,235,33,13,36,144,39*76
$GPGSV,3,2,12,19,30,064,32,10,23,229,32,05,23,284,30,26,15,317,26*73
$GPGSV,3,3,12,03,11,040,24,23,07,144,21,11,05,116,33,06,01,033,*7B
$GPRMC,202204.000,A,3748.7837,N,12217.8545,W,1.93,113.70,070711,,,D*78
$GPVTG,113.70,T,,M,1.93,N,3.6,K,D*02
$GPGGA,202205.000,3748.7835,N,12217.8538,W,2,10,0.8,-1.9,M,-25.1,M,1.8,0000*6A
$GPGSA,A,3,13,28,23,10,05,07,08,03,19,26,,,1.4,0.8,1.2*31
$GPRMC,202205.000,A,3748.7835,N,12217.8538,W,1.90,110.11,070711,,,D*76
$GPVTG,110.11,T,,M,1.90,N,3.5,K,D*06
$GPGGA,202206.000,3748.7832,N,12217.8530,W,2,10,0.8,-1.7,M,-25.1,M,1.8,0000*68
$GPGSA,A,3,13,28,23,10,05,07,08,03,19,26,,,1.4,0.8,1.2*31
$GPRMC,202206.000,A,3748.7832,N,12217.8530,W,1.92,115.59,070711,,,D*71
$GPVTG,115.59,T,,M,1.92,N,3.5,K,D*0D
$GPGGA,202207.000,3748.7829,N,12217.8523,W,2,10,0.8,-1.7,M,-25.1,M,2.8,0000*62
$GPGSA,A,3,13,28,23,10,05,07,08,03,19,26,,,1.4,0.8,1.2*31
$GPRMC,202207.000,A,3748.7829,N,12217.8523,W,2.25,119.48,070711,,,D*7B
$GPVTG,119.48,T,,M,2.25,N,4.2,K,D*0E
$GPGGA,202208.000,3748.7825,N,12217.8514,W,2,10,0.8,-1.5,M,-25.1,M,3.8,0000*66
$GPGSA,A,3,13,28,23,10,05,07,08,03,19,26,,,1.4,0.8,1.2*31
$GPRMC,202208.000,A,3748.7825,N,12217.8514,W,2.24,117.49,070711,,,D*72
$GPVTG,117.49,T,,M,2.24,N,4.1,K,D*03
$GPGGA,202209.000,3748.7821,N,12217.8507,W,2,10,0.8,-1.5,M,-25.1,M,1.8,0000*63
$GPGSA,A,3,13,28,23,10,05,07,08,03,19,26,,,1.4,0.8,1.2*31
$GPGSV,3,1,12,07,63,042,27,08,60,332,23,28,50,235,33,13,36,144,40*7D
$GPGSV,3,2,12,19,30,064,31,10,23,229,24,05,23,284,25,26,15,317,21*74
$GPGSV,3,3,12,03,11,040,29,23,07,144,21,11,05,116,35,06,01,033,*70
$GPRMC,202209.000,A,3748.7821,N,12217.8507,W,2.21,120.96,070711,,,D*76
$GPVTG,120.96,T,,M,2.21,N,4.1,K,D*00
$GPGGA,202210.000,3748.7817,N,12217.8499,W,2,10,0.8,-2.2,M,-25.1,M,1.8,0000*6C
$GPGSA,A,3,13,28,23,10,05,07,08,03,19,26,,,1.4,0.8,1.2*31
$GPRMC,202210.000,A,3748.7817,N,12217.8499,W,2.21,117.62,070711,,,D*72
$GPVTG,117.62,T,,M,2.21,N,4.1,K,D*0F
$GPGGA,202211.000,3748.7814,N,12217.8492,W,2,10,0.8,-1.9,M,-25.1,M,1.8,0000*6D
$GPGSA,A,3,13,28,23,10,05,07,08,03,19,26,,,1.4,0.8,1.2*31
$GPRMC,202211.000,A,3748.7814,N,12217.8492,W,2.13,123.86,070711,,,D*77
$GPVTG,123.86,T,,M,2.13,N,3.9,K,D*0C
$GPGGA,202212.000,3748.7810,N,12217.8486,W,2,10,0.8,-2.4,M,-25.1,M,1.8,0000*61
$GPGSA,A,3,13,28,23,10,05,07,08,03,19,26,,,1.4,0.8,1.2*31
$GPRMC,202212.000,A,3748.7810,N,12217.8486,W,1.99,132.22,070711,,,D*7A
$GPVTG,132.22,T,,M,1.99,N,3.7,K,D*0D
$GPGGA,202213.000,3748.7806,N,12217.8478,W,2,10,0.8,-2.6,M,-25.1,M,2.8,0000*67
$GPGSA,A,3,13,28,23,10,05,07,08,03,19,26,,,1.4,0.8,1.2*31
$GPRMC,202213.000,A,3748.7806,N,12217.8478,W,2.41,124.62,070711,,,D*78
$GPVTG,124.62,T,,M,2.41,N,4.5,K,D*0D
$GPGGA,202214.000,3748.7802,N,12217.8471,W,2,10,0.8,-2.9,M,-25.1,M,3.8,0000*63
$GPGSA,A,3,13,28,23,10,05,07,08,03,19,26,,,1.4,0.8,1.2*31
$GPGSV,3,1,12,07,63,042,27,08,60,332,23,28,50,235,33,13,36,144,40*7D
$GPGSV,3,2,12,19,30,064,31,10,23,229,30,05,23,284,25,26,15,317,23*73
$GPGSV,3,3,12,03,11,040,32,23,07,144,23,11,05,116,36,06,01,033,*7B
$GPRMC,202214.000,A,3748.7802,N,12217.8471,W,1.92,119.14,070711,,,D*70
$GPVTG,119.14,T,,M,1.92,N,3.6,K,D*0B
$GPGGA,202215.000,3748.7799,N,12217.8464,W,2,10,0.8,-3.3,M,-25.1,M,4.8,0000*67
$GPGSA,A,3,13,28,23,10,05,07,08,03,19,26,,,1.4,0.8,1.2*31
$GPRMC,202215.000,A,3748.7799,N,12217.8464,W,1.59,126.58,070711,,,D*7B
$GPVTG,126.58,T,,M,1.59,N,3.0,K,D*0E
$GPGGA,202216.000,3748.7796,N,12217.8459,W,2,10,0.8,-3.6,M,-25.1,M,1.8,0000*65
$GPGSA,A,3,13,28,23,10,05,07,08,03,19,26,,,1.4,0.8,1.2*31
$GPRMC,202216.000,A,3748.7796,N,12217.8459,W,1.73,131.80,070711,,,D*72
$GPVTG,131.80,T,,M,1.73,N,3.2,K,D*07
$GPGGA,202217.000,3748.7792,N,12217.8450,W,2,10,0.8,-3.6,M,-25.1,M,1.8,0000*69
$GPGSA,A,3,13,28,23,10,05,07,08,03,19,26,,,1.4,0.8,1.2*31
$GPRMC,202217.000,A,3748.7792,N,12217.8450,W,2.38,122.77,070711,,,D*78
$GPVTG,122.77,T,,M,2.38,N,4.4,K,D*00
$GPGGA,202218.000,3748.7788,N,12217.8442,W,2,10,0.8,-3.8,M,-25.1,M,1.8,0000*60
$GPGSA,A,3,13,28,23,10,05,07,08,03,19,26,,,1.4,0.8,1.2*31
$GPRMC,202218.000,A,3748.7788,N,12217.8442,W,2.01,122.65,070711,,,D*76
$GPVTG,122.65,T,,M,2.01,N,3.7,K,D*0D
$GPGGA,202219.000,3748.7786,N,12217.8436,W,2,09,0.9,-4.5,M,-25.1,M,2.8,0000*6C
$GPGSA,A,3,13,28,10,05,07,08,03,19,26,,,,1.7,0.9,1.4*34
$GPGSV,3,1,12,07,63,043,22,08,60,332,24,28,50,236,33,13,36,144,40*7D
$GPGSV,3,2,12,19,30,064,31,10,23,229,25,05,23,284,30,26,15,317,23*73
$GPGSV,3,3,12,03,11,040,30,23,06,144,15,11,05,116,41,06,01,033,*7D
$GPRMC,202219.000,A,3748.7786,N,12217.8436,W,1.68,114.86,070711,,,D*7E
$GPVTG,114.86,T,,M,1.68,N,3.1,K,D*0F
$GPGGA,202220.000,3748.7784,N,12217.8431,W,2,10,0.8,-4.5,M,-25.1,M,3.8,0000*6B
$GPGSA,A,3,13,28,23,10,05,07,08,03,19,26,,,1.4,0.8,1.2*31
$GPRMC,202220.000,A,3748.7784,N,12217.8431,W,1.28,120.52,070711,,,D*7B
$GPVTG,120.52,T,,M,1.28,N,2.4,K,D*01
$GPGGA,202221.000,3748.7781,N,12217.8425,W,2,10,0.8,-4.1,M,-25.1,M,4.8,0000*69
$GPGSA,A,3,13,28,23,10,05,07,08,03,19,26,,,1.4,0.8,1.2*31
$GPRMC,202221.000,A,3748.7781,N,12217.8425,W,1.34,122.10,070711,,,D*73
$GPVTG,122.10,T,,M,1.34,N,2.5,K,D*09
$GPGGA,202222.000,3748.7777,N,12217.8421,W,2,10,0.8,-4.2,M,-25.1,M,5.8,0000*65
$GPGSA,A,3,13,28,23,10,05,07,08,03,19,26,,,1.4,0.8,1.2*31
$GPRMC,202222.000,A,3748.7777,N,12217.8421,W,1.54,125.57,070711,,,D*7F
$GPVTG,125.57,T,,M,1.54,N,2.9,K,D*07
$GPGGA,202223.000,3748.7774,N,12217.8418,W,2,10,0.8,-3.9,M,-25.1,M,6.8,0000*62
$GPGSA,A,3,13,28,23,10,05,07,08,03,19,26,,,1.4,0.8,1.2*31
$GPRMC,202223.000,A,3748.7774,N,12217.8418,W,0.96,123.82,070711,,,D*76
$GPVTG,123.82,T,,M,0.96,N,1.8,K,D*04
$GPGGA,202224.000,3748.7772,N,12217.8414,W,2,10,0.8,-3.7,M,-25.1,M,7.8,0000*60
$GPGSA,A,3,13,28,23,10,05,07,08,03,19,26,,,1.4,0.8,1.2*31
$GPGSV,3,1,12,07,63,043,23,08,60,332,23,28,50,236,30,13,36,144,39*76
$GPGSV,3,2,12,19,30,064,29,10,23,229,22,05,23,284,27,26,15,317,24*7C
$GPGSV,3,3,12,03,11,040,31,23,06,144,23,11,05,116,34,06,01,033,*7B
$GPRMC,202224.000,A,3748.7772,N,12217.8414,W,1.37,134.91,070711,,,D*75
$GPVTG,134.91,T,,M,1.37,N,2.5,K,D*04
$GPGGA,202225.000,3748.7769,N,12217.8410,W,2,10,0.8,-3.7,M,-25.1,M,8.8,0000*60
$GPGSA,A,3,13,28,23,10,05,07,08,03,19,26,,,1.4,0.8,1.2*31
$GPRMC,202225.000,A,3748.7769,N,12217.8410,W,1.67,105.60,070711,,,D*73
$GPVTG,105.60,T,,M,1.67,N,3.1,K,D*08
$GPGGA,202226.000,3748.7768,N,12217.8403,W,2,10,0.8,-3.6,M,-25.1,M,9.8,0000*60
$GPGSA,A,3,13,28,23,10,05,07,08,03,19,26,,,1.4,0.8,1.2*31
$GPRMC,202226.000,A,3748.7768,N,12217.8403,W,1.42,102.90,070711,,,D*7C
$GPVTG,102.90,T,,M,1.42,N,2.6,K,D*01
$GPGGA,202227.000,3748.7765,N,12217.8400,W,2,10,0.8,-3.5,M,-25.1,M,10.8,0000*54
$GPGSA,A,3,13,28,23,10,05,07,08,03,19,26,,,1.4,0.8,1.2*31
$GPRMC,202227.000,A,3748.7765,N,12217.8400,W,1.44,131.50,070711,,,D*79
$GPVTG,131.50,T,,M,1.44,N,2.7,K,D*0A
$GPGGA,202228.000,3748.7761,N,12217.8397,W,2,10,0.8,-3.5,M,-25.1,M,1.8,0000*66
$GPGSA,A,3,13,28,23,10,05,07,08,03,19,26,,,1.4,0.8,1.2*31
$GPRMC,202228.000,A,3748.7761,N,12217.8397,W,1.27,120.31,070711,,,D*79
$GPVTG,120.31,T,,M,1.27,N,2.4,K,D*0B
$GPGGA,202229.000,3748.7757,N,12217.8391,W,2,10,0.8,-3.1,M,-25.1,M,1.8,0000*60
$GPGSA,A,3,13,28,23,10,05,07,08,03,19,26,,,1.4,0.8,1.2*31
$GPGSV,3,1,12,07,63,043,26,08,60,332,23,28,50,236,32,13,36,144,35*7D
$GPGSV,3,2,12,19,30,064,28,10,23,228,21,05,23,283,28,26,15,317,25*76
$GPGSV,3,3,12,03,11,040,28,23,06,144,23,11,05,116,35,06,01,033,*72
$GPVTG,126.78,T,,M,1.65,N,3.0,K,D*03
$GPGGA,202230.000,3748.7753,N,12217.8385,W,2,10,0.8,-4.2,M,-25.1,M,1.8,0000*6D
$GPGSA,A,3,13,28,23,10,05,07,08,03,19,26,,,1.4,0.8,1.2*31
$GPRMC,202230.000,A,3748.7753,N,12217.8385,W,1.62,131.94,070711,,,D*7C
$GPVTG,131.94,T,,M,1.62,N,3.0,K,D*00
$GPGGA,202231.000,3748.7750,N,12217.8378,W,2,10,0.8,-3.8,M,-25.1,M,2.8,0000*63
$GPGSA,A,3,13,28,23,10,05,07,08,03,19,26,,,1.4,0.8,1.2*31
$GPRMC,202231.000,A,3748.7750,N,12217.8378,W,1.59,115.95,070711,,,D*73
$GPVTG,115.95,T,,M,1.59,N,2.9,K,D*07
$GPGGA,202232.000,3748.7746,N,12217.8373,W,2,10,0.8,-5.2,M,-25.1,M,3.8,0000*61
$GPGSA,A,3,13,28,23,10,05,07,08,03,19,26,,,1.4,0.8,1.2*31
$GPRMC,202232.000,A,3748.7746,N,12217.8373,W,1.25,115.84,070711,,,D*77
$GPVTG,115.84,T,,M,1.25,N,2.3,K,D*06
$GPGGA,202233.000,3748.7747,N,12217.8369,W,2,11,0.7,-4.0,M,-25.1,M,4.8,0000*60
$GPGSA,A,3,13,28,23,10,05,07,08,03,11,19,26,,1.4,0.7,1.1*3D
$GPRMC,202233.000,A,3748.7747,N,12217.8369,W,1.78,136.99,070711,,,D*79
$GPVTG,136.99,T,,M,1.78,N,3.3,K,D*02
$GPGGA,202234.000,3748.7746,N,12217.8364,W,2,11,0.7,-3.4,M,-25.1,M,5.8,0000*69
$GPGSA,A,3,13,28,23,10,05,07,08,03,11,19,26,,1.4,0.7,1.1*3D
$GPGSV,3,1,12,07,63,043,28,08,61,333,24,28,51,236,25,13,36,144,26*71
$GPGSV,3,2,12,19,30,064,34,10,23,228,20,05,23,283,24,26,15,317,25*76
$GPGSV,3,3,12,03,10,040,23,23,06,144,22,11,05,115,27,06,01,033,*79
$GPRMC,202234.000,A,3748.7746,N,12217.8364,W,1.46,130.82,070711,,,D*73
$GPVTG,130.82,T,,M,1.46,N,2.7,K,D*06
$GPGGA,202235.000,3748.7742,N,12217.8358,W,2,11,0.7,-3.8,M,-25.1,M,6.8,0000*6C
$GPGSA,A,3,13,28,23,10,05,07,08,03,11,19,26,,1.4,0.7,1.1*3D
$GPRMC,202235.000,A,3748.7742,N,12217.8358,W,1.82,139.86,070711,,,D*7C
$GPVTG,139.86,T,,M,1.82,N,3.4,K,D*01
$GPGGA,202236.000,3748.7737,N,12217.8352,W,2,10,0.8,-3.8,M,-25.1,M,7.8,0000*68
