$ADVER,3080,2.3
$GPRMC,191333.606,A,3748.8104,N,12217.8611,W,0.36,45.15,150611,,,A*48
$GPGGA,191334.606,3748.8050,N,12217.8600,W,1,03,2.2,-19.3,M,-25.1,M,,0000*71
$GPGSA,A,2,08,03,16,,,,,,,,,,2.4,2.2,1.0*38
$GPRMC,191334.606,A,3748.8050,N,12217.8600,W,0.42,279.20,150611,,,A*77
$GPVTG,279.20,T,,M,0.42,N,0.8,K,N*02
$GPGGA,191335.606,3748.7952,N,12217.8588,W,1,03,2.2,-19.3,M,-25.1,M,,0000*77
$GPGSA,A,2,08,03,16,,,,,,,,,,2.4,2.2,1.0*38
$GPRMC,191335.606,A,3748.7952,N,12217.8588,W,0.53,35.28,150611,,,A*43
$GPVTG,35.28,T,,M,0.53,N,1.0,K,N*39
$GPGGA,191336.606,3748.8048,N,12217.8596,W,1,03,2.2,-19.3,M,-25.1,M,,0000*76
$GPGSA,A,2,08,03,16,,,,,,,,,,2.4,2.2,1.0*38
$GPRMC,191336.606,A,3748.8048,N,12217.8596,W,0.54,357.00,150611,,,A*78
$GPVTG,357.00,T,,M,0.54,N,1.0,K,N*03
$GPGGA,191337.606,3748.8105,N,12217.8575,W,1,03,2.2,-19.3,M,-25.1,M,,0000*72
$GPGSA,A,2,08,03,16,,,,,,,,,,2.4,2.2,1.0*38
$GPRMC,191337.606,A,3748.8105,N,12217.8575,W,1.32,351.34,150611,,,A*7C
$GPVTG,351.34,T,,M,1.32,N,2.4,K,N*04
$GPGGA,191338.606,3748.8029,N,12217.8574,W,1,03,2.2,-19.3,M,-25.1,M,,0000*73
$GPGSA,A,2,08,03,16,,,,,,,,,,2.4,2.2,1.0*38
$GPGSV,3,1,12,16,44,058,35,03,17,108,29,08,16,249,27,23,66,074,32*75
$GPGSV,3,2,12,13,64,339,29,07,41,262,29,20,35,179,20,10,30,309,31*75
$GPRMC,191338.606,A,3748.8029,N,12217.8574,W,0.75,324.39,150611,,,A*70
$GPVTG,324.39,T,,M,0.75,N,1.4,K,N*0A
$GPGGA,191339.606,3748.8009,N,12217.8527,W,1,03,2.2,-19.3,M,-25.1,M,,0000*76
$GPGSA,A,2,08,03,16,,,,,,,,,,2.4,2.2,1.0*38
$GPRMC,191339.606,A,3748.8009,N,12217.8527,W,1.96,156.40,150611,,,A*70
$GPVTG,156.40,T,,M,1.96,N,3.6,K,N*0F
$GPGGA,191340.606,3748.8068,N,12217.8603,W,1,03,2.2,-19.3,M,-25.1,M,,0000*7A
$GPGSA,A,2,08,03,16,,,,,,,,,,2.4,2.2,1.0*38
$GPRMC,191340.606,A,3748.8068,N,12217.8603,W,2.28,325.19,150611,,,A*70
$GPVTG,325.19,T,,M,2.28,N,4.2,K,N*00
$GPGGA,191341.606,3748.8051,N,12217.8599,W,1,03,2.2,-19.3,M,-25.1,M,,0000*71
$GPGSA,A,2,08,03,16,,,,,,,,,,2.4,2.2,1.0*38
$GPRMC,191341.606,A,3748.8051,N,12217.8599,W,1.59,279.48,150611,,,A*72
$GPVTG,279.48,T,,M,1.59,N,2.9,K,N*04
$GPGGA,191342.606,3748.8058,N,12217.8592,W,1,03,2.2,-19.3,M,-25.1,M,,0000*70
$GPGSA,A,2,08,03,16,,,,,,,,,,2.4,2.2,1.0*38
$GPRMC,191342.606,A,3748.8058,N,12217.8592,W,0.40,354.90,150611,,,A*71
$GPVTG,354.90,T,,M,0.40,N,0.7,K,N*0A
$GPGGA,191343.606,3748.8067,N,12217.8588,W,1,03,2.2,-19.3,M,-25.1,M,,0000*76
$GPGSA,A,2,08,03,16,,,,,,,,,,2.4,2.2,1.0*38
$GPGSV,3,1,12,16,44,058,35,03,17,108,31,08,16,249,22,23,66,074,31*7A
$GPGSV,3,2,12,13,64,339,32,07,41,262,26,20,35,179,25,10,30,309,31*75
$GPGSV,3,3,12,32,17,160,20,06,13,092,,04,09,270,,02,02,309,*75
$GPRMC,191343.606,A,3748.8067,N,12217.8588,W,1.25,3.88,150611,,,A*7D
$GPVTG,3.88,T,,M,1.25,N,2.3,K,N*06
$GPGGA,191344.606,3748.8112,N,12217.8626,W,1,03,2.2,-19.3,M,-25.1,M,,0000*75
$GPGSA,A,2,08,03,16,,,,,,,,,,2.4,2.2,1.0*38
$GPRMC,191344.606,A,3748.8112,N,12217.8626,W,0.63,70.45,150611,,,A*48
$GPVTG,70.45,T,,M,0.63,N,1.2,K,N*32
$GPGGA,191345.606,3748.8210,N,12217.8660,W,1,03,2.2,-19.3,M,-25.1,M,,0000*77
$GPGSA,A,2,08,03,16,,,,,,,,,,2.4,2.2,1.0*38
$GPRMC,191345.606,A,3748.8210,N,12217.8660,W,1.16,28.98,150611,,,A*44
$GPVTG,28.98,T,,M,1.16,N,2.2,K,N*3F
$GPGGA,191346.606,3748.8154,N,12217.8669,W,1,03,2.2,-19.3,M,-25.1,M,,0000*7E
$GPGSA,A,2,08,03,16,,,,,,,,,,2.4,2.2,1.0*38
$GPRMC,191346.606,A,3748.8154,N,12217.8669,W,0.64,51.67,150611,,,A*47
$GPVTG,51.67,T,,M,0.64,N,1.2,K,N*36
$GPGGA,191347.606,3748.8086,N,12217.8661,W,1,03,2.2,-19.3,M,-25.1,M,,0000*79
$GPGSA,A,2,08,03,16,,,,,,,,,,2.4,2.2,1.0*38
$GPRMC,191347.606,A,3748.8086,N,12217.8661,W,5.69,352.77,150611,,,A*79
$GPVTG,352.77,T,,M,5.69,N,10.5,K,N*38
$GPGGA,191348.606,3748.8111,N,12217.8634,W,1,03,2.2,-19.3,M,-25.1,M,,0000*79
$GPGSA,A,2,08,03,16,,,,,,,,,,2.4,2.2,1.0*38
$GPGSV,3,1,12,16,44,058,33,03,17,108,31,08,16,249,19,23,66,074,29*7D
$GPGSV,3,2,12,13,64,339,33,07,41,262,41,20,35,179,31,10,30,309,39*78
$GPGSV,3,3,12,32,17,160,31,06,13,092,24,04,09,270,,02,02,309,*73
$GPRMC,191348.606,A,3748.8111,N,12217.8634,W,5.01,345.75,150611,,,A*73
$GPVTG,345.75,T,,M,5.01,N,9.3,K,N*0C
$GPGGA,191349.606,3748.8090,N,12217.8622,W,1,03,2.2,-19.3,M,-25.1,M,,0000*77
$GPGSA,A,2,08,03,16,,,,,,,,,,2.4,2.2,1.0*38
$GPRMC,191349.606,A,3748.8090,N,12217.8622,W,4.59,320.60,150611,,,A*76
$GPVTG,320.60,T,,M,4.59,N,8.5,K,N*00
$GPGGA,191350.606,3748.8124,N,12217.8659,W,1,03,2.2,-19.3,M,-25.1,M,,0000*7D
$GPGSA,A,2,08,03,16,,,,,,,,,,2.4,2.2,1.0*38
$GPRMC,191350.606,A,3748.8124,N,12217.8659,W,6.53,334.02,150611,,,A*75
$GPVTG,334.02,T,,M,6.53,N,12.1,K,N*36
$GPGGA,191351.606,3748.8187,N,12217.8713,W,1,03,2.2,-19.3,M,-25.1,M,,0000*7A
$GPGSA,A,2,08,03,16,,,,,,,,,,2.4,2.2,1.0*38
$GPRMC,191351.606,A,3748.8187,N,12217.8713,W,0.12,47.02,150611,,,A*46
$GPVTG,47.02,T,,M,0.12,N,0.2,K,N*32
$GPGGA,191352.606,3748.8289,N,12217.8782,W,1,03,2.2,-19.3,M,-25.1,M,,0000*7C
$GPGSA,A,2,08,03,16,,,,,,,,,,2.4,2.2,1.0*38
$GPRMC,191352.606,A,3748.8289,N,12217.8782,W,0.88,149.43,150611,,,A*79
$GPVTG,149.43,T,,M,0.88,N,1.6,K,N*0E
$GPGGA,191353.606,3748.8421,N,12217.8867,W,1,03,2.2,-19.3,M,-25.1,M,,0000*7D
$GPGSA,A,2,08,03,16,,,,,,,,,,2.4,2.2,1.0*38
$GPGSV,3,1,12,16,44,058,28,03,17,108,21,08,16,249,41,23,66,074,20*72
$GPGSV,3,2,12,13,64,339,35,07,41,262,40,20,35,179,32,10,30,309,38*7D
$GPGSV,3,3,12,32,17,160,32,06,13,092,23,04,09,270,18,02,02,309,*7E
$GPVTG,142.97,T,,M,0.50,N,0.9,K,N*07
$GPGGA,191354.606,3748.8534,N,12217.8942,W,1,03,2.2,-19.3,M,-25.1,M,,0000*79
$GPGSA,A,2,08,03,16,,,,,,,,,,2.4,2.2,1.0*38
$GPRMC,191354.606,A,3748.8534,N,12217.8942,W,0.28,129.98,150611,,,A*76
$GPVTG,129.98,T,,M,0.28,N,0.5,K,N*06
$GPGGA,191355.606,3748.8583,N,12217.8977,W,1,03,2.2,-19.3,M,-25.1,M,,0000*72
$GPGSA,A,2,08,03,16,,,,,,,,,,2.4,2.2,1.0*38
$GPRMC,191355.606,A,3748.8583,N,12217.8977,W,0.28,358.82,150611,,,A*72
$GPVTG,358.82,T,,M,0.28,N,0.5,K,N*09
$GPGGA,191356.606,3748.8599,N,12217.8991,W,1,03,2.2,-19.3,M,-25.1,M,,0000*72
$GPGSA,A,2,08,03,16,,,,,,,,,,2.4,2.2,1.0*38
$GPRMC,191356.606,A,3748.8599,N,12217.8991,W,0.10,46.39,150611,,,A*45
$GPVTG,46.39,T,,M,0.10,N,0.2,K,N*39
$GPGGA,191357.606,3748.8613,N,12217.9005,W,1,03,2.2,-19.3,M,-25.1,M,,0000*77
$GPGSA,A,2,08,03,16,,,,,,,,,,2.4,2.2,1.0*38
$GPRMC,191357.606,A,3748.8613,N,12217.9005,W,1.66,338.35,150611,,,A*76
$GPVTG,338.35,T,,M,1.66,N,3.1,K,N*0F
$GPGGA,191358.606,3748.8556,N,12217.8976,W,1,03,2.2,-19.3,M,-25.1,M,,0000*76
$GPGSA,A,2,08,03,16,,,,,,,,,,2.4,2.2,1.0*38
$GPGSV,3,1,12,16,44,058,28,03,17,108,22,08,16,249,41,23,66,074,25*74
$GPGSV,3,2,12,13,64,339,35,07,41,262,40,20,35,179,31,10,30,309,39*7F
$GPGSV,3,3,12,32,17,160,32,06,13,092,24,04,09,270,18,02,02,309,*79
$GPRMC,191358.606,A,3748.8556,N,12217.8976,W,0.17,39.48,150611,,,A*48
$GPVTG,39.48,T,,M,0.17,N,0.3,K,N*31
$GPGGA,191359.606,3748.8494,N,12217.8942,W,1,03,2.2,-19.3,M,-25.1,M,,0000*7F
$GPGSA,A,2,08,03,16,,,,,,,,,,2.4,2.2,1.0*38
$GPRMC,191359.606,A,3748.8494,N,12217.8942,W,0.42,143.06,150611,,,A*77
$GPVTG,143.06,T,,M,0.42,N,0.8,K,N*0C
$GPGGA,191400.606,3748.8528,N,12217.8961,W,1,03,2.2,-19.3,M,-25.1,M,,0000*73
$GPGSA,A,2,08,03,16,,,,,,,,,,2.4,2.2,1.0*38
$GPRMC,191400.606,A,3748.8528,N,12217.8961,W,0.17,114.79,150611,,,A*71
$GPVTG,114.79,T,,M,0.17,N,0.3,K,N*0D
$GPGGA,191401.606,3748.8525,N,12217.8960,W,1,03,2.2,-19.3,M,-25.1,M,,0000*7E
$GPGSA,A,2,08,03,16,,,,,,,,,,2.4,2.2,1.0*38
$GPRMC,191401.606,A,3748.8525,N,12217.8960,W,0.97,339.68,150611,,,A*79
$GPVTG,339.68,T,,M,0.97,N,1.8,K,N*02
$GPGGA,191402.606,3748.8503,N,12217.8948,W,1,03,2.2,-19.3,M,-25.1,M,,0000*73
$GPGSA,A,2,08,03,16,,,,,,,,,,2.4,2.2,1.0*38
$GPRMC,191402.606,A,3748.8503,N,12217.8948,W,0.86,341.98,150611,,,A*74
$GPVTG,341.98,T,,M,0.86,N,1.6,K,N*0C
$GPGGA,191403.606,3748.7929,N,12217.8875,W,1,05,1.2,126.1,M,-25.1,M,,0000*61
$GPGSA,A,3,20,10,08,03,16,,,,,,,,3.2,1.2,3.0*3C
$GPGSV,3,1,12,16,44,058,27,03,17,108,23,08,16,249,41,23,66,074,23*7C
$GPGSV,3,2,12,13,64,339,36,07,41,262,40,20,35,179,32,10,30,309,39*7F
$GPGSV,3,3,12,32,17,160,32,06,13,092,24,04,09,270,18,02,02,309,*79
$GPRMC,191403.606,A,3748.7929,N,12217.8875,W,0.11,123.41,150611,,,A*7D
$GPVTG,123.41,T,,M,0.11,N,0.2,K,A*0A
$GPGGA,191404.606,3748.7933,N,12217.8848,W,1,05,1.2,111.9,M,-25.1,M,,0000*6F
$GPGSA,A,3,20,10,08,03,16,,,,,,,,3.2,1.2,3.0*3C
$GPRMC,191404.606,A,3748.7933,N,12217.8848,W,0.06,192.93,150611,,,A*7C
$GPVTG,192.93,T,,M,0.06,N,0.1,K,A*0A
$GPGGA,191405.000,3748.7933,N,12217.8846,W,1,05,1.2,110.9,M,-25.1,M,,0000*61
$GPGSA,A,3,20,10,08,03,16,,,,,,,,3.2,1.2,3.0*3C
$GPRMC,191405.000,A,3748.7933,N,12217.8846,W,0.10,175.43,150611,,,A*70
$GPVTG,175.43,T,,M,0.10,N,0.2,K,A*0A
$GPGGA,191406.000,3748.7936,N,12217.8826,W,1,05,1.2,96.0,M,-25.1,M,,0000*57
$GPGSA,A,3,20,10,08,03,16,,,,,,,,3.2,1.2,3.0*3C
$GPRMC,191406.000,A,3748.7936,N,12217.8826,W,0.09,250.42,150611,,,A*7D
$GPVTG,250.42,T,,M,0.09,N,0.2,K,A*07
$GPGGA,191407.000,3748.7939,N,12217.8809,W,1,05,1.2,86.4,M,-25.1,M,,0000*51
$GPGSA,A,3,20,10,08,03,16,,,,,,,,3.2,1.2,3.0*3C
$GPRMC,191407.000,A,3748.7939,N,12217.8809,W,0.10,128.77,150611,,,A*7C
$GPVTG,128.77,T,,M,0.10,N,0.2,K,A*05
$GPGGA,191408.000,3748.7946,N,12217.8786,W,1,05,1.2,79.2,M,-25.1,M,,0000*58
$GPGSA,A,3,20,10,08,03,16,,,,,,,,3.3,1.2,3.0*3D
$GPGSV,3,1,12,16,44,058,26,20,34,179,33,10,30,309,38,03,17,108,26*77
$GPGSV,3,2,12,08,17,249,41,23,66,075,24,13,64,339,36,07,41,263,40*77
$GPGSV,3,3,12,32,17,160,32,06,13,092,24,04,08,269,17,02,02,309,*7F
$GPRMC,191408.000,A,3748.7946,N,12217.8786,W,0.04,22.82,150611,,,A*47
$GPGGA,191409.000,3748.7949,N,12217.8773,W,1,05,1.2,72.3,M,-25.1,M,,0000*56
$GPGSA,A,3,20,10,08,03,16,,,,,,,,3.3,1.2,3.0*3D
$GPRMC,191409.000,A,3748.7949,N,12217.8773,W,0.08,155.40,150611,,,A*70
$GPVTG,155.40,T,,M,0.08,N,0.1,K,A*01
$GPGGA,191410.000,3748.7951,N,12217.8765,W,1,05,1.2,67.9,M,-25.1,M,,0000*5E
$GPGSA,A,3,20,10,08,03,16,,,,,,,,3.3,1.2,3.0*3D
$GPRMC,191410.000,A,3748.7951,N,12217.8765,W,0.30,255.82,150611,,,A*70
$GPVTG,255.82,T,,M,0.30,N,0.6,K,A*00
$GPGGA,191411.000,3748.7954,N,12217.8751,W,1,05,1.2,60.5,M,-25.1,M,,0000*56
$GPGSA,A,3,20,10,08,03,16,,,,,,,,3.3,1.2,3.0*3D
$GPRMC,191411.000,A,3748.7954,N,12217.8751,W,0.18,96.04,150611,,,A*4A
$GPVTG,96.04,T,,M,0.18,N,0.3,K,A*3C
$GPGGA,191412.000,3748.7957,N,12217.8740,W,1,05,1.2,55.2,M,-25.1,M,,0000*57
$GPGSA,A,3,20,10,08,03,16,,,,,,,,3.3,1.2,3.0*3D
$GPRMC,191412.000,A,3748.7957,N,12217.8740,W,0.26,61.75,150611,,,A*49
$GPVTG,61.75,T,,M,0.26,N,0.5,K,A*39
$GPGGA,191413.000,3748.7963,N,12217.8727,W,1,05,1.2,55.5,M,-25.1,M,,0000*57
$GPGSA,A,3,20,10,08,03,16,,,,,,,,3.3,1.2,3.0*3D
$GPGSV,3,1,12,16,44,058,23,20,34,179,33,10,30,309,38,03,17,108,25*71
$GPGSV,3,2,12,08,17,249,41,23,66,075,21,13,64,339,36,07,41,263,40*72
$GPGSV,3,3,12,32,17,160,32,06,13,092,19,04,08,269,18,02,02,309,*7E
$GPRMC,191413.000,A,3748.7963,N,12217.8727,W,0.50,61.87,150611,,,A*42
$GPVTG,61.87,T,,M,0.50,N,0.9,K,A*39
$GPGGA,191414.000,3748.7966,N,12217.8715,W,1,05,1.2,49.7,M,-25.1,M,,0000*5B
$GPGSA,A,3,20,10,08,03,16,,,,,,,,3.3,1.2,3.0*3D
$GPRMC,191414.000,A,3748.7966,N,12217.8715,W,0.25,67.92,150611,,,A*41
$GPVTG,67.92,T,,M,0.25,N,0.5,K,A*35
$GPGGA,191415.000,3748.7968,N,12217.8706,W,1,05,1.2,45.0,M,-25.1,M,,0000*5D
$GPGSA,A,3,20,10,08,03,16,,,,,,,,3.3,1.2,3.0*3D
$GPRMC,191415.000,A,3748.7968,N,12217.8706,W,0.18,63.14,150611,,,A*48
$GPVTG,63.14,T,,M,0.18,N,0.3,K,A*37
$GPGGA,191416.000,3748.7971,N,12217.8697,W,1,05,1.2,40.6,M,-25.1,M,,0000*5C
$GPGSA,A,3,20,10,08,03,16,,,,,,,,3.3,1.2,3.0*3D
$GPRMC,191416.000,A,3748.7971,N,12217.8697,W,0.26,59.88,150611,,,A*4B
$GPVTG,59.88,T,,M,0.26,N,0.5,K,A*30
$GPGGA,191417.000,3748.7973,N,12217.8688,W,2,05,1.2,36.1,M,-25.1,M,,0000*54
$GPGSA,A,3,20,10,08,03,16,,,,,,,,3.3,1.2,3.0*3D
$GPRMC,191417.000,A,3748.7973,N,12217.8688,W,0.29,68.78,150611,,,D*41
$GPVTG,68.78,T,,M,0.29,N,0.5,K,D*37
$GPGGA,191418.000,3748.7976,N,12217.8679,W,2,05,1.2,31.3,M,-25.1,M,2.8,0000*71
$GPGSA,A,3,20,10,08,03,16,,,,,,,,3.3,1.2,3.0*3D
$GPGSV,3,1,12,23,66,075,22,13,64,339,37,16,43,058,22,07,41,263,40*7A
$GPGSV,3,2,12,20,34,179,34,10,30,309,38,32,17,160,32,03,17,108,24*7E
$GPGSV,3,3,12,08,17,249,41,06,14,092,09,04,08,269,18,02,02,309,*7D
$GPRMC,191418.000,A,3748.7976,N,12217.8679,W,0.68,73.41,150611,,,D*40
$GPVTG,73.41,T,,M,0.68,N,1.3,K,D*35
$GPGGA,191419.000,3748.7980,N,12217.8668,W,2,05,1.2,30.5,M,-25.1,M,,0000*5A
$GPGSA,A,3,20,10,08,03,16,,,,,,,,3.3,1.2,3.1*3C
$GPRMC,191419.000,A,3748.7980,N,12217.8668,W,0.86,77.85,150611,,,D*44
$GPVTG,77.85,T,,M,0.86,N,1.6,K,D*3C
$GPGGA,191420.000,3748.7985,N,12217.8655,W,2,05,1.2,27.9,M,-25.1,M,,0000*51
$GPGSA,A,3,20,10,08,03,16,,,,,,,,3.3,1.2,3.1*3C
$GPRMC,191420.000,A,3748.7985,N,12217.8655,W,1.15,76.98,150611,,,D*43
$GPVTG,76.98,T,,M,1.15,N,2.1,K,D*3E
$GPGGA,191421.000,3748.7988,N,12217.8649,W,2,06,1.2,27.0,M,-25.1,M,,0000*5A
$GPGSA,A,3,07,20,10,08,16,32,,,,,,,3.4,1.2,3.1*3E
$GPRMC,191421.000,A,3748.7988,N,12217.8649,W,0.98,48.83,150611,,,D*41
$GPVTG,48.83,T,,M,0.98,N,1.8,K,D*37
$GPGGA,191422.000,3748.7992,N,12217.8642,W,2,07,1.0,26.1,M,-25.1,M,2.8,0000*7E
$GPGSA,A,3,07,20,10,08,03,16,32,,,,,,2.8,1.0,2.6*34
$GPRMC,191422.000,A,3748.7992,N,12217.8642,W,0.77,49.03,150611,,,D*4A
$GPVTG,49.03,T,,M,0.77,N,1.4,K,D*33
$GPGGA,191423.000,3748.7994,N,12217.8637,W,2,07,1.0,23.9,M,-25.1,M,3.8,0000*77
$GPGSA,A,3,07,20,10,08,03,16,32,,,,,,2.8,1.0,2.6*34
$GPGSV,3,1,12,23,66,075,29,13,64,339,37,16,43,058,21,07,41,263,40*72
$GPGSV,3,2,12,20,34,179,35,10,30,309,38,03,17,108,17,08,17,249,41*7A
$GPGSV,3,3,12,32,17,160,32,06,14,092,15,04,08,269,16,19,02,133,*7A
$GPVTG,47.18,T,,M,0.91,N,1.7,K,D*3C
$GPGGA,191424.000,3748.7997,N,12217.8633,W,2,07,1.0,23.3,M,-25.1,M,,0000*58
$GPGSA,A,3,07,20,10,08,03,16,32,,,,,,2.8,1.0,2.6*34
$GPRMC,191424.000,A,3748.7997,N,12217.8633,W,0.91,47.21,150611,,,D*49
$GPVTG,47.21,T,,M,0.91,N,1.7,K,D*36
$GPGGA,191425.000,3748.7998,N,12217.8629,W,2,07,1.0,21.7,M,-25.1,M,,0000*5B
$GPGSA,A,3,07,20,10,08,03,16,32,,,,,,2.8,1.0,2.6*34
$GPRMC,191425.000,A,3748.7998,N,12217.8629,W,0.36,43.18,150611,,,D*4F
$GPVTG,43.18,T,,M,0.36,N,0.7,K,D*34
$GPGGA,191426.000,3748.7999,N,12217.8628,W,2,07,1.0,20.4,M,-25.1,M,,0000*5A
$GPGSA,A,3,07,20,10,08,03,16,32,,,,,,2.8,1.0,2.6*34
$GPRMC,191426.000,A,3748.7999,N,12217.8628,W,0.10,18.42,150611,,,D*49
$GPVTG,18.42,T,,M,0.10,N,0.2,K,D*34
$GPGGA,191427.000,3748.8000,N,12217.8625,W,2,07,1.0,18.8,M,-25.1,M,2.8,0000*73
$GPGSA,A,3,07,20,10,08,03,16,32,,,,,,2.8,1.0,2.6*34
$GPRMC,191427.000,A,3748.8000,N,12217.8625,W,0.25,26.31,150611,,,D*4C
$GPVTG,26.31,T,,M,0.25,N,0.5,K,D*3C
$GPGGA,191428.000,3748.8001,N,12217.8621,W,2,07,1.0,16.1,M,-25.1,M,3.8,0000*7F
$GPGSA,A,3,07,20,10,08,03,16,32,,,,,,2.8,1.0,2.6*34
$GPGSV,3,1,12,23,66,075,32,13,64,339,36,16,43,058,21,07,41,263,33*7D
$GPGSV,3,2,12,20,34,179,34,10,30,309,32,03,17,108,24,08,17,249,34*73
$GPGSV,3,3,12,32,17,160,25,06,14,092,16,04,08,269,18,19,02,133,*71
$GPRMC,191428.000,A,3748.8001,N,12217.8621,W,0.43,65.62,150611,,,D*47
$GPVTG,65.62,T,,M,0.43,N,0.8,K,D*30
$GPGGA,191429.000,3748.8002,N,12217.8618,W,2,07,1.0,15.0,M,-25.1,M,4.8,0000*72
$GPGSA,A,3,07,20,10,08,03,16,32,,,,,,2.8,1.0,2.6*34
$GPRMC,191429.000,A,3748.8002,N,12217.8618,W,0.61,43.37,150611,,,D*4B
$GPVTG,43.37,T,,M,0.61,N,1.1,K,D*3C
$GPGGA,191430.000,3748.8002,N,12217.8616,W,2,07,1.0,14.0,M,-25.1,M,5.8,0000*74
$GPGSA,A,3,07,20,10,08,03,16,32,,,,,,2.8,1.0,2.6*34
$GPRMC,191430.000,A,3748.8002,N,12217.8616,W,0.33,44.67,150611,,,D*48
$GPVTG,44.67,T,,M,0.33,N,0.6,K,D*3F
$GPGGA,191431.000,3748.8001,N,12217.8618,W,2,07,1.0,14.9,M,-25.1,M,6.8,0000*72
$GPGSA,A,3,07,20,10,08,03,16,32,,,,,,2.8,1.0,2.6*34
$GPRMC,191431.000,A,3748.8001,N,12217.8618,W,0.09,11.35,150611,,,D*4A
$GPVTG,11.35,T,,M,0.09,N,0.2,K,D*35
$GPGGA,191432.000,3748.8002,N,12217.8620,W,2,07,1.0,14.7,M,-25.1,M,7.8,0000*76
$GPGSA,A,3,07,20,10,08,03,16,32,,,,,,2.8,1.0,2.6*34
$GPRMC,191432.000,A,3748.8002,N,12217.8620,W,0.10,55.21,150611,,,D*4C
$GPVTG,55.21,T,,M,0.10,N,0.2,K,D*38
$GPGGA,191433.000,3748.8002,N,12217.8623,W,2,07,1.0,14.2,M,-25.1,M,8.8,0000*7E
$GPGSA,A,3,07,20,10,08,03,16,32,,,,,,2.8,1.0,2.6*34
$GPGSV,3,1,12,23,66,075,25,13,64,339,24,16,43,058,18,07,41,263,30*71
$GPGSV,3,2,12,20,34,179,29,10,30,309,28,03,17,108,23,08,17,249,35*72
$GPGSV,3,3,12,32,17,160,29,06,14,092,17,04,08,269,17,19,02,133,*73
$GPWPL,3748.8002,N,12217.8623,W,00001*62
$ADPMB,5,0
$GPRMC,191433.000,A,3748.8002,N,12217.8623,W,0.32,227.19,150611,,,D*72
$GPVTG,227.19,T,,M,0.32,N,0.6,K,D*00
$GPGGA,191434.000,3748.8004,N,12217.8624,W,2,07,1.0,13.6,M,-25.1,M,9.8,0000*7A
$GPGSA,A,3,07,20,10,08,03,16,32,,,,,,2.8,1.0,2.6*34
$GPRMC,191434.000,A,3748.8004,N,12217.8624,W,0.57,51.46,150611,,,D*4E
$GPVTG,51.46,T,,M,0.57,N,1.1,K,D*3C
$GPGGA,191435.000,3748.8004,N,12217.8626,W,2,07,1.0,12.0,M,-25.1,M,10.8,0000*46
$GPGSA,A,3,07,20,10,08,03,16,32,,,,,,2.8,1.0,2.6*34
$GPRMC,191435.000,A,3748.8004,N,12217.8626,W,0.25,30.42,150611,,,D*4B
$GPVTG,30.42,T,,M,0.25,N,0.5,K,D*3F
$GPGGA,191436.000,3748.8003,N,12217.8632,W,2,07,1.0,10.0,M,-25.1,M,11.8,0000*44
$GPGSA,A,3,07,20,10,08,03,16,32,,,,,,2.8,1.0,2.6*34
$GPRMC,191436.000,A,3748.8003,N,12217.8632,W,0.42,319.82,150611,,,D*7F
$GPVTG,319.82,T,,M,0.42,N,0.8,K,D*07
$GPGGA,191437.000,3748.8003,N,12217.8636,W,2,07,1.0,8.8,M,-25.1,M,12.8,0000*73
$GPGSA,A,3,07,20,10,08,03,16,32,,,,,,2.8,1.0,2.6*34
$GPRMC,191437.000,A,3748.8003,N,12217.8636,W,0.24,296.51,150611,,,D*72
$GPVTG,296.51,T,,M,0.24,N,0.4,K,D*03
$GPGGA,191438.000,3748.7997,N,12217.8641,W,2,07,1.0,9.1,M,-25.1,M,13.8,0000*7E
$GPGSA,A,3,07,20,10,08,03,16,32,,,,,,2.8,1.0,2.6*34
$GPGSV,3,1,12,23,66,075,22,13,64,339,22,16,43,058,23,07,41,263,35*7D
$GPGSV,3,2,12,20,34,179,32,10,30,309,31,03,17,108,23,08,17,249,33*76
$GPGSV,3,3,12,32,17,160,27,06,14,092,16,04,08,269,16,19,02,133,*7D
$GPRMC,191438.000,A,3748.7997,N,12217.8641,W,0.91,158.63,150611,,,D*78
$GPVTG,158.63,T,,M,0.91,N,1.7,K,D*0F
$GPGGA,191439.000,3748.7992,N,12217.8634,W,2,07,1.0,9.6,M,-25.1,M,14.8,0000*78
$GPGSA,A,3,07,20,10,08,03,16,32,,,,,,2.8,1.0,2.6*34
$GPRMC,191439.000,A,3748.7992,N,12217.8634,W,1.88,96.67,150611,,,D*40
$GPVTG,96.67,T,,M,1.88,N,3.5,K,D*31
$GPGGA,191440.000,3748.7991,N,12217.8624,W,2,07,1.0,9.6,M,-25.1,M,15.8,0000*75
$GPGSA,A,3,07,20,10,08,03,16,32,,,,,,2.8,1.0,2.6*34
$GPRMC,191440.000,A,3748.7991,N,12217.8624,W,1.94,112.79,150611,,,D*73
$GPVTG,112.79,T,,M,1.94,N,3.6,K,D*0D
$GPGGA,191441.000,3748.7989,N,12217.8613,W,2,07,1.0,10.0,M,-25.1,M,16.8,0000*44
$GPGSA,A,3,07,20,10,08,03,16,32,,,,,,2.8,1.0,2.6*34
$GPRMC,191441.000,A,3748.7989,N,12217.8613,W,1.96,112.67,150611,,,D*72
$GPVTG,112.67,T,,M,1.96,N,3.6,K,D*00
$GPGGA,191442.000,3748.7988,N,12217.8604,W,2,07,1.0,10.0,M,-25.1,M,17.8,0000*41
$GPGSA,A,3,07,20,10,08,03,16,32,,,,,,2.8,1.0,2.6*34
$GPRMC,191442.000,A,3748.7988,N,12217.8604,W,1.31,122.27,150611,,,D*7C
$GPVTG,122.27,T,,M,1.31,N,2.4,K,D*09
$GPGGA,191443.000,3748.7989,N,12217.8596,W,1,07,1.0,9.5,M,-25.1,M,,0000*67
$GPGSA,A,3,07,20,10,08,03,16,32,,,,,,2.8,1.0,2.6*34
$GPGSV,3,1,12,23,66,075,30,13,64,339,23,16,43,058,31,07,41,263,23*7B
$GPGSV,3,2,12,20,34,179,27,10,30,309,22,03,17,108,35,08,17,249,26*73
$GPGSV,3,3,12,32,17,160,37,06,14,092,,04,08,269,17,19,02,133,*7A
$GPVTG,124.62,T,,M,1.50,N,2.8,K,A*00
$GPGGA,191444.000,3748.7986,N,12217.8588,W,1,07,1.0,8.8,M,-25.1,M,,0000*6C
$GPGSA,A,3,07,20,10,08,03,16,32,,,,,,2.8,1.0,2.6*34
$GPRMC,191444.000,A,3748.7986,N,12217.8588,W,2.32,118.16,150611,,,A*7D
$GPVTG,118.16,T,,M,2.32,N,4.3,K,A*06
$GPGGA,191445.000,3748.7985,N,12217.8578,W,1,07,1.0,8.1,M,-25.1,M,,0000*68
$GPGSA,A,3,07,20,10,08,03,16,32,,,,,,2.8,1.0,2.6*34
$GPRMC,191445.000,A,3748.7985,N,12217.8578,W,2.17,118.56,150611,,,A*73
$GPVTG,118.56,T,,M,2.17,N,4.0,K,A*06
$GPGGA,191446.000,3748.7984,N,12217.8573,W,1,07,1.0,7.7,M,-25.1,M,,0000*68
$GPGSA,A,3,07,20,10,08,03,16,32,,,,,,2.8,1.0,2.6*34
$GPRMC,191446.000,A,3748.7984,N,12217.8573,W,2.20,112.63,150611,,,A*72
$GPVTG,112.63,T,,M,2.20,N,4.1,K,A*0F
$GPGGA,191447.000,3748.7981,N,12217.8564,W,1,07,1.0,6.8,M,-25.1,M,,0000*64
$GPGSA,A,3,07,20,10,08,03,16,32,,,,,,2.8,1.0,2.6*34
$GPRMC,191447.000,A,3748.7981,N,12217.8564,W,2.39,114.54,150611,,,A*7A
$GPVTG,114.54,T,,M,2.39,N,4.4,K,A*00
$GPGGA,191448.000,3748.7977,N,12217.8555,W,1,07,1.0,6.0,M,-25.1,M,,0000*68
$GPGSA,A,3,07,20,10,08,03,16,32,,,,,,2.8,1.0,2.6*34
$GPGSV,3,1,12,23,66,075,30,13,64,339,23,16,43,058,27,07,41,263,29*76
$GPGSV,3,2,12,20,34,179,36,10,30,309,21,03,17,108,35,08,17,249,31*76
$GPGSV,3,3,12,32,17,160,38,06,14,092,20,04,08,269,17,19,02,133,*77
$GPRMC,191448.000,A,3748.7977,N,12217.8555,W,2.31,124.00,150611,,,A*74
$GPVTG,124.00,T,,M,2.31,N,4.3,K,A*0D
$GPGGA,191449.000,3748.7973,N,12217.8546,W,1,07,1.0,5.4,M,-25.1,M,,0000*68
$GPGSA,A,3,07,20,10,08,03,16,32,,,,,,2.8,1.0,2.6*34
$GPRMC,191449.000,A,3748.7973,N,12217.8546,W,2.46,120.50,150611,,,A*72
$GPVTG,120.50,T,,M,2.46,N,4.6,K,A*09
$GPGGA,191450.000,3748.7971,N,12217.8534,W,1,07,1.0,5.5,M,-25.1,M,,0000*66
$GPGSA,A,3,07,20,10,08,03,16,32,,,,,,2.8,1.0,2.6*34
$GPRMC,191450.000,A,3748.7971,N,12217.8534,W,2.43,111.90,150611,,,A*76
$GPVTG,111.90,T,,M,2.43,N,4.5,K,A*01
$GPGGA,191451.000,3748.7968,N,12217.8525,W,2,07,1.0,5.2,M,-25.1,M,,0000*6B
$GPGSA,A,3,07,20,10,08,03,16,32,,,,,,2.8,1.0,2.6*34
$GPRMC,191451.000,A,3748.7968,N,12217.8525,W,2.28,118.66,150611,,,D*77
$GPVTG,118.66,T,,M,2.28,N,4.2,K,D*0E
$GPGGA,191452.000,3748.7964,N,12217.8517,W,2,07,1.0,4.4,M,-25.1,M,2.8,0000*46
$GPGSA,A,3,07,20,10,08,03,16,32,,,,,,2.8,1.0,2.6*34
$GPRMC,191452.000,A,3748.7964,N,12217.8517,W,2.13,113.71,150611,,,D*7C
$GPVTG,113.71,T,,M,2.13,N,3.9,K,D*07
$GPGGA,191453.000,3748.7960,N,12217.8512,W,2,07,1.0,3.7,M,-25.1,M,1.8,0000*41
$GPGSA,A,3,07,20,10,08,03,16,32,,,,,,2.8,1.0,2.6*34
$GPGSV,3,1,12,23,66,075,30,13,64,339,23,16,43,058,27,07,41,263,29*76
$GPGSV,3,2,12,20,34,179,36,10,30,309,21,03,17,108,35,08,17,249,30*77
$GPGSV,3,3,12,32,17,160,38,06,14,092,32,04,08,269,18,19,02,133,*7B
$GPRMC,191453.000,A,3748.7960,N,12217.8512,W,1.75,112.28,150611,,,D*72
$GPVTG,112.28,T,,M,1.75,N,3.2,K,D*02
$GPGGA,191454.000,3748.7956,N,12217.8504,W,2,07,1.0,2.5,M,-25.1,M,2.8,0000*44
$GPGSA,A,3,07,20,10,08,03,16,32,,,,,,2.8,1.0,2.6*34
$GPRMC,191454.000,A,3748.7956,N,12217.8504,W,2.53,114.28,150611,,,D*76
$GPVTG,114.28,T,,M,2.53,N,4.7,K,D*01
$GPGGA,191455.000,3748.7952,N,12217.8495,W,2,07,1.0,2.6,M,-25.1,M,3.8,0000*4A
$GPGSA,A,3,07,20,10,08,03,16,32,,,,,,2.8,1.0,2.6*34
$GPRMC,191455.000,A,3748.7952,N,12217.8495,W,2.34,106.65,150611,,,D*71
$GPVTG,106.65,T,,M,2.34,N,4.3,K,D*0E
$GPGGA,191456.000,3748.7949,N,12217.8487,W,2,07,1.0,2.0,M,-25.1,M,4.8,0000*41
$GPGSA,A,3,07,20,10,08,03,16,32,,,,,,2.8,1.0,2.6*34
$GPRMC,191456.000,A,3748.7949,N,12217.8487,W,2.00,113.51,150611,,,D*7F
$GPVTG,113.51,T,,M,2.00,N,3.7,K,D*09
$GPGGA,191457.000,3748.7946,N,12217.8480,W,2,07,1.0,1.4,M,-25.1,M,2.8,0000*49
$GPGSA,A,3,07,20,10,08,03,16,32,,,,,,2.8,1.0,2.6*34
$GPRMC,191457.000,A,3748.7946,N,12217.8480,W,1.84,112.39,150611,,,D*76
$GPVTG,112.39,T,,M,1.84,N,3.4,K,D*0A
$GPGGA,191458.000,3748.7944,N,12217.8471,W,2,07,1.0,0.7,M,-25.1,M,3.8,0000*49
$GPGSA,A,3,07,20,10,08,03,16,32,,,,,,2.8,1.0,2.6*34
$GPGSV,3,1,12,23,66,075,28,13,64,339,23,16,43,058,26,07,41,263,29*7E
$GPGSV,3,2,12,20,34,179,34,10,30,309,20,03,17,108,33,08,17,249,28*7B
$GPRMC,191458.000,A,3748.7944,N,12217.8471,W,2.07,107.57,150611,,,D*71
$GPVTG,107.57,T,,M,2.07,N,3.8,K,D*02
$GPGGA,191459.000,3748.7941,N,12217.8460,W,2,07,1.0,1.0,M,-25.1,M,4.8,0000*4C
$GPGSA,A,3,07,20,10,08,03,16,32,,,,,,2.8,1.0,2.6*34
$GPRMC,191459.000,A,3748.7941,N,12217.8460,W,1.61,107.51,150611,,,D*70
$GPVTG,107.51,T,,M,1.61,N,3.0,K,D*0F
$GPGGA,191500.000,3748.7937,N,12217.8454,W,2,07,1.0,0.5,M,-25.1,M,5.8,0000*42
$GPGSA,A,3,07,20,10,08,03,16,32,,,,,,2.8,1.0,2.6*34
$GPRMC,191500.000,A,3748.7937,N,12217.8454,W,1.85,114.55,150611,,,D*77
$GPVTG,114.55,T,,M,1.85,N,3.4,K,D*07
$GPGGA,191501.000,3748.7933,N,12217.8446,W,2,07,1.0,0.5,M,-25.1,M,6.8,0000*47
$GPGSA,A,3,07,20,10,08,03,16,32,,,,,,2.8,1.0,2.6*34
$GPRMC,191501.000,A,3748.7933,N,12217.8446,W,2.25,116.37,150611,,,D*7E
$GPVTG,116.37,T,,M,2.25,N,4.2,K,D*09
$GPGGA,191502.000,3748.7927,N,12217.8438,W,2,07,1.0,0.4,M,-25.1,M,2.8,0000*4D
$GPGSA,A,3,07,20,10,08,03,16,32,,,,,,2.8,1.0,2.6*34
$GPRMC,191502.000,A,3748.7927,N,12217.8438,W,2.53,128.78,150611,,,D*76
$GPVTG,128.78,T,,M,2.53,N,4.7,K,D*0B
$GPGGA,191503.000,3748.7922,N,12217.8431,W,2,07,1.0,0.2,M,-25.1,M,2.8,0000*46
$GPGSA,A,3,07,20,10,08,03,16,32,,,,,,2.8,1.0,2.6*34
$GPGSV,3,1,12,23,66,075,29,13,64,339,23,16,43,058,27,07,41,263,29*7E
$GPGSV,3,2,12,20,34,179,35,10,30,309,20,03,17,108,34,08,17,249,29*7C
$GPGSV,3,3,12,32,17,160,41,06,14,092,,04,08,269,27,19,02,133,*78
$GPRMC,191503.000,A,3748.7922,N,12217.8431,W,2.35,121.32,150611,,,D*7C
$GPVTG,121.32,T,,M,2.35,N,4.3,K,D*08
$GPGGA,191504.000,3748.7917,N,12217.8424,W,2,07,1.0,-0.0,M,-25.1,M,3.8,0000*6D
$GPGSA,A,3,07,20,10,08,03,16,32,,,,,,2.8,1.0,2.6*34
$GPRMC,191504.000,A,3748.7917,N,12217.8424,W,2.13,115.92,150611,,,D*70
$GPVTG,115.92,T,,M,2.13,N,3.9,K,D*0C
$GPGGA,191505.000,3748.7913,N,12217.8416,W,2,07,1.0,0.0,M,-25.1,M,2.8,0000*45
$GPGSA,A,3,07,20,10,08,03,16,32,,,,,,2.8,1.0,2.6*34
$GPRMC,191505.000,A,3748.7913,N,12217.8416,W,2.72,118.84,150611,,,D*79
$GPVTG,118.84,T,,M,2.72,N,5.0,K,D*0E
$GPGGA,191506.000,3748.7907,N,12217.8407,W,2,07,1.0,0.1,M,-25.1,M,3.8,0000*43
$GPGSA,A,3,07,20,10,08,03,16,32,,,,,,2.8,1.0,2.6*34
$GPRMC,191506.000,A,3748.7907,N,12217.8407,W,2.71,119.42,150611,,,D*77
$GPVTG,119.42,T,,M,2.71,N,5.0,K,D*06
$GPGGA,191507.000,3748.7902,N,12217.8399,W,2,07,1.0,0.6,M,-25.1,M,2.8,0000*41
$GPGSA,A,3,07,20,10,08,03,16,32,,,,,,2.8,1.0,2.6*34
$GPRMC,191507.000,A,3748.7902,N,12217.8399,W,2.34,122.50,150611,,,D*79
$GPVTG,122.50,T,,M,2.34,N,4.3,K,D*0E
$GPGGA,191508.000,3748.7897,N,12217.8391,W,2,07,1.0,0.4,M,-25.1,M,2.8,0000*49
$GPGSA,A,3,07,20,10,08,03,16,32,,,,,,2.8,1.0,2.6*34
$GPGSV,3,1,12,23,66,075,30,13,64,339,23,16,43,058,29,07,41,263,28*79
$GPGSV,3,2,12,20,34,179,33,10,30,309,20,03,17,108,34,08,17,249,27*74
$GPGSV,3,3,12,32,17,160,39,06,14,092,22,04,08,269,28,19,02,133,*78
$GPRMC,191508.000,A,3748.7897,N,12217.8391,W,2.11,125.06,150611,,,D*70
$GPVTG,125.06,T,,M,2.11,N,3.9,K,D*00
$GPGGA,191509.000,3748.7893,N,12217.8383,W,2,07,1.0,-0.1,M,-25.1,M,2.8,0000*67
$GPGSA,A,3,07,20,10,08,03,16,32,,,,,,2.8,1.0,2.6*34
$GPRMC,191509.000,A,3748.7893,N,12217.8383,W,2.14,123.46,150611,,,D*71
$GPVTG,123.46,T,,M,2.14,N,4.0,K,D*09
$GPGGA,191510.000,3748.7888,N,12217.8376,W,2,07,1.0,-0.2,M,-25.1,M,2.8,0000*6C
$GPGSA,A,3,07,20,10,08,03,16,32,,,,,,2.8,1.0,2.6*34
$GPRMC,191510.000,A,3748.7888,N,12217.8376,W,2.59,120.93,150611,,,D*7B
$GPVTG,120.93,T,,M,2.59,N,4.8,K,D*03
$GPGGA,191511.000,3748.7884,N,12217.8368,W,2,07,1.0,-0.2,M,-25.1,M,2.8,0000*6E
$GPGSA,A,3,07,20,10,08,03,16,32,,,,,,2.8,1.0,2.6*34
$GPRMC,191511.000,A,3748.7884,N,12217.8368,W,2.56,123.93,150611,,,D*75
$GPVTG,123.93,T,,M,2.56,N,4.7,K,D*00
$GPGGA,191512.000,3748.7879,N,12217.8359,W,2,07,1.0,-0.3,M,-25.1,M,3.8,0000*6D
$GPGSA,A,3,07,20,10,08,03,16,32,,,,,,2.8,1.0,2.6*34
$GPRMC,191512.000,A,3748.7879,N,12217.8359,W,2.60,117.81,150611,,,D*77
$GPVTG,117.81,T,,M,2.60,N,4.8,K,D*0E
$GPGGA,191513.000,3748.7877,N,12217.8350,W,2,07,1.0,0.1,M,-25.1,M,2.8,0000*45
$GPGSA,A,3,07,20,10,08,03,16,32,,,,,,2.8,1.0,2.6*34
$GPGSV,3,1,12,23,66,075,30,13,64,339,23,16,43,058,29,07,41,263,28*79
$GPGSV,3,2,12,20,34,179,36,10,30,309,20,03,17,108,37,08,17,249,32*76
$GPGSV,3,3,12,32,17,160,39,06,14,092,22,04,08,269,27,19,02,133,*77
$GPRMC,191513.000,A,3748.7877,N,12217.8350,W,2.33,115.44,150611,,,D*7C
$GPVTG,115.44,T,,M,2.33,N,4.3,K,D*08
$GPGGA,191514.000,3748.7874,N,12217.8342,W,2,07,1.0,0.3,M,-25.1,M,2.8,0000*40
$GPGSA,A,3,07,20,10,08,03,16,32,,,,,,2.8,1.0,2.6*34
$GPRMC,191514.000,A,3748.7874,N,12217.8342,W,2.34,110.63,150611,,,D*7C
$GPVTG,110.63,T,,M,2.34,N,4.3,K,D*0F
$GPGGA,191515.000,3748.7870,N,12217.8334,W,2,07,1.0,0.4,M,-25.1,M,3.8,0000*42
$GPGSA,A,3,07,20,10,08,03,16,32,,,,,,2.8,1.0,2.6*34
$GPRMC,191515.000,A,3748.7870,N,12217.8334,W,2.55,113.05,150611,,,D*7C
$GPVTG,113.05,T,,M,2.55,N,4.7,K,D*0F
$GPGGA,191516.000,3748.7866,N,12217.8326,W,2,07,1.0,0.9,M,-25.1,M,4.8,0000*4F
$GPGSA,A,3,07,20,10,08,03,16,32,,,,,,2.8,1.0,2.6*34
$GPRMC,191516.000,A,3748.7866,N,12217.8326,W,2.47,121.16,150611,,,D*7B
$GPVTG,121.16,T,,M,2.47,N,4.6,K,D*0E
$GPGGA,191517.000,3748.7862,N,12217.8318,W,2,07,1.0,1.2,M,-25.1,M,2.8,0000*4B
$GPGSA,A,3,07,20,10,08,03,16,32,,,,,,2.8,1.0,2.6*34
$GPRMC,191517.000,A,3748.7862,N,12217.8318,W,2.37,120.35,150611,,,D*74
$GPVTG,120.35,T,,M,2.37,N,4.4,K,D*0B
$GPGGA,191518.000,3748.7858,N,12217.8310,W,2,07,1.0,1.4,M,-25.1,M,3.8,0000*42
$GPGSA,A,3,07,20,10,08,03,16,32,,,,,,2.8,1.0,2.6*34
$GPGSV,3,1,12,23,66,075,30,13,64,339,24,16,43,058,29,07,41,263,26*70
$GPGSV,3,2,12,20,34,179,37,10,30,309,21,03,17,108,35,08,17,249,32*74
$GPGSV,3,3,12,32,17,160,39,06,14,092,23,04,08,269,28,19,02,133,*79
$GPVTG,121.49,T,,M,2.65,N,4.9,K,D*0B
$GPGGA,191519.000,3748.7854,N,12217.8302,W,2,07,1.0,1.5,M,-25.1,M,2.8,0000*4C
$GPGSA,A,3,07,20,10,08,03,16,32,,,,,,2.8,1.0,2.6*34
$GPRMC,191519.000,A,3748.7854,N,12217.8302,W,2.60,119.12,150611,,,D*79
$GPVTG,119.12,T,,M,2.60,N,4.8,K,D*0A
$GPGGA,191520.000,3748.7850,N,12217.8293,W,2,07,1.0,2.0,M,-25.1,M,3.8,0000*4C
$GPGSA,A,3,07,20,10,08,03,16,32,,,,,,2.8,1.0,2.6*34
$GPRMC,191520.000,A,3748.7850,N,12217.8293,W,2.47,115.19,150611,,,D*7C
$GPVTG,115.19,T,,M,2.47,N,4.6,K,D*06
$GPGGA,191521.000,3748.7847,N,12217.8287,W,2,07,1.0,1.7,M,-25.1,M,4.8,0000*4D
$GPGSA,A,3,07,20,10,08,03,16,32,,,,,,2.8,1.0,2.6*34
$GPRMC,191521.000,A,3748.7847,N,12217.8287,W,2.05,132.16,150611,,,D*72
$GPVTG,132.16,T,,M,2.05,N,3.8,K,D*03
$GPGGA,191522.000,3748.7843,N,12217.8280,W,2,07,1.0,1.6,M,-25.1,M,5.8,0000*4D
$GPGSA,A,3,07,20,10,08,03,16,32,,,,,,2.8,1.0,2.6*34
$GPRMC,191522.000,A,3748.7843,N,12217.8280,W,2.02,131.27,150611,,,D*74
$GPVTG,131.27,T,,M,2.02,N,3.7,K,D*0A
$GPGGA,191523.000,3748.7839,N,12217.8272,W,2,07,1.0,1.1,M,-25.1,M,2.8,0000*4C
$GPGSA,A,3,07,20,10,08,03,16,32,,,,,,2.8,1.0,2.6*34
$GPGSV,3,1,12,23,66,075,30,13,64,339,24,16,43,058,29,07,41,263,25*73
$GPGSV,3,2,12,20,34,179,37,10,30,309,21,03,17,108,36,08,17,249,23*77
$GPGSV,3,3,12,32,17,160,39,06,14,092,,04,08,269,21,19,02,133,*71
$GPRMC,191523.000,A,3748.7839,N,12217.8272,W,1.80,126.05,150611,,,D*7A
$GPVTG,126.05,T,,M,1.80,N,3.3,K,D*01
$GPGGA,191524.000,3748.7833,N,12217.8264,W,2,07,1.0,0.8,M,-25.1,M,3.8,0000*4F
$GPGSA,A,3,07,20,10,08,03,16,32,,,,,,2.8,1.0,2.6*34
$GPRMC,191524.000,A,3748.7833,N,12217.8264,W,2.42,121.00,150611,,,D*7F
$GPVTG,121.00,T,,M,2.42,N,4.5,K,D*0F
$GPGGA,191525.000,3748.7829,N,12217.8254,W,2,07,1.0,1.1,M,-25.1,M,1.8,0000*4C
$GPGSA,A,3,07,20,10,08,03,16,32,,,,,,2.8,1.0,2.6*34
$GPRMC,191525.000,A,3748.7829,N,12217.8254,W,2.17,113.82,150611,,,D*7D
$GPVTG,113.82,T,,M,2.17,N,4.0,K,D*01
$GPGGA,191526.000,3748.7822,N,12217.8243,W,2,07,1.0,2.3,M,-25.1,M,2.8,0000*40
$GPGSA,A,3,07,20,10,08,03,16,32,,,,,,2.8,1.0,2.6*34
$GPRMC,191526.000,A,3748.7822,N,12217.8243,W,2.19,111.37,150611,,,D*71
$GPVTG,111.37,T,,M,2.19,N,4.1,K,D*02
$GPGGA,191527.000,3748.7815,N,12217.8234,W,2,07,1.0,3.2,M,-25.1,M,2.8,0000*45
$GPGSA,A,3,07,20,10,08,03,16,32,,,,,,2.8,1.0,2.6*34
$GPRMC,191527.000,A,3748.7815,N,12217.8234,W,2.35,126.53,150611,,,D*7C
$GPVTG,126.53,T,,M,2.35,N,4.4,K,D*0F
$GPGGA,191528.000,3748.7813,N,12217.8226,W,2,07,1.0,2.4,M,-25.1,M,3.8,0000*49
$GPGSA,A,3,07,20,10,08,03,16,32,,,,,,2.8,1.0,2.6*34
$GPGSV,3,1,12,23,66,075,30,13,64,339,23,16,43,058,20,07,41,263,28*70
$GPGSV,3,2,12,20,34,179,37,10,30,309,21,03,17,108,36,08,17,249,32*77
$GPGSV,3,3,12,32,17,160,40,06,14,092,,04,08,269,31,19,02,133,*7E
$GPRMC,191528.000,A,3748.7813,N,12217.8226,W,2.25,125.87,150611,,,D*7D
$GPVTG,125.87,T,,M,2.25,N,4.2,K,D*02
$GPGGA,191529.000,3748.7809,N,12217.8218,W,2,07,1.0,2.0,M,-25.1,M,4.8,0000*4D
$GPGSA,A,3,07,20,10,08,03,16,32,,,,,,2.8,1.0,2.6*34
$GPRMC,191529.000,A,3748.7809,N,12217.8218,W,2.29,123.72,150611,,,D*7A
$GPVTG,123.72,T,,M,2.29,N,4.2,K,D*02
$GPGGA,191530.000,3748.7809,N,12217.8213,W,2,07,1.0,1.8,M,-25.1,M,5.8,0000*44
$GPGSA,A,3,07,20,10,08,03,16,32,,,,,,2.8,1.0,2.6*34
$GPRMC,191530.000,A,3748.7809,N,12217.8213,W,1.11,120.34,150611,,,D*70
$GPVTG,120.34,T,,M,1.11,N,2.1,K,D*0E
$GPGGA,191531.000,3748.7807,N,12217.8211,W,2,07,1.0,2.0,M,-25.1,M,6.8,0000*41
$GPGSA,A,3,07,20,10,08,03,16,32,,,,,,2.8,1.0,2.6*34
$GPRMC,191531.000,A,3748.7807,N,12217.8211,W,0.24,171.90,150611,,,D*70
$GPVTG,171.90,T,,M,0.24,N,0.4,K,D*04
$GPGGA,191532.000,3748.7805,N,12217.8210,W,2,07,1.0,2.8,M,-25.1,M,2.8,0000*4D
$GPGSA,A,3,07,20,10,08,03,16,32,,,,,,2.8,1.0,2.6*34
$GPRMC,191532.000,A,3748.7805,N,12217.8210,W,0.16,72.17,150611,,,D*4C
$GPVTG,72.17,T,,M,0.16,N,0.3,K,D*3F
$GPGGA,191533.000,3748.7803,N,12217.8212,W,2,07,1.0,2.1,M,-25.1,M,2.8,0000*41
$GPGSA,A,3,07,20,10,08,03,16,32,,,,,,2.8,1.0,2.6*34
$GPGSV,3,1,12,23,66,075,31,13,64,339,20,16,43,058,20,07,41,263,29*73
$GPGSV,3,2,12,20,34,179,38,10,30,309,20,03,17,108,35,08,17,249,31*79
$GPGSV,3,3,12,32,17,160,38,06,14,092,25,04,08,269,31,19,02,133,*76
$GPRMC,191533.000,A,3748.7803,N,12217.8212,W,0.23,31.47,150611,,,D*4D
$GPVTG,31.47,T,,M,0.23,N,0.4,K,D*3C
$GPGGA,191534.000,3748.7802,N,12217.8213,W,2,06,1.3,1.9,M,-25.1,M,3.8,0000*4E
$GPGSA,A,3,07,20,08,03,16,32,,,,,,,3.1,1.3,2.8*30
$GPRMC,191534.000,A,3748.7802,N,12217.8213,W,0.20,195.89,150611,,,D*74
$GPVTG,195.89,T,,M,0.20,N,0.4,K,D*02
$GPGGA,191535.000,3748.7799,N,12217.8217,W,2,06,1.3,1.0,M,-25.1,M,4.8,0000*48
$GPGSA,A,3,07,20,08,03,16,32,,,,,,,3.1,1.3,2.8*30
$GPRMC,191535.000,A,3748.7799,N,12217.8217,W,0.22,187.17,150611,,,D*7A
$GPVTG,187.17,T,,M,0.22,N,0.4,K,D*04
$GPGGA,191536.000,3748.7796,N,12217.8219,W,2,06,1.3,0.4,M,-25.1,M,5.8,0000*4E
$GPGSA,A,3,07,20,08,03,16,32,,,,,,,3.1,1.3,2.8*30
$GPRMC,191536.000,A,3748.7796,N,12217.8219,W,0.35,190.82,150611,,,D*74
$GPVTG,190.82,T,,M,0.35,N,0.6,K,D*0A
$GPGGA,191537.000,3748.7795,N,12217.8220,W,2,06,1.3,0.4,M,-25.1,M,2.8,0000*41
$GPGSA,A,3,07,20,08,03,16,32,,,,,,,3.1,1.3,2.8*30
$GPRMC,191537.000,A,3748.7795,N,12217.8220,W,0.28,194.77,150611,,,D*7E
$GPVTG,194.77,T,,M,0.28,N,0.5,K,D*0B
$GPGGA,191538.000,3748.7794,N,12217.8220,W,2,06,1.3,0.3,M,-25.1,M,2.8,0000*48
$GPGSA,A,3,07,20,08,03,16,32,,,,,,,3.1,1.3,2.8*30
$GPGSV,3,1,12,23,66,075,30,13,64,339,22,16,43,058,21,07,41,263,30*79
$GPGSV,3,2,12,20,34,179,38,10,30,309,12,03,17,108,35,08,17,249,33*7A
$GPGSV,3,3,12,32,17,160,35,06,14,092,25,04,08,269,32,19,02,133,*78
$GPRMC,191538.000,A,3748.7794,N,12217.8220,W,0.10,33.42,150611,,,D*41
$GPGGA,191539.000,3748.7793,N,12217.8221,W,2,06,1.3,0.2,M,-25.1,M,2.8,0000*4E
$GPGSA,A,3,07,20,08,03,16,32,,,,,,,3.1,1.3,2.8*30
$GPRMC,191539.000,A,3748.7793,N,12217.8221,W,0.13,157.19,150611,,,D*78
$GPVTG,157.19,T,,M,0.13,N,0.2,K,D*03
$GPGGA,191540.000,3748.7791,N,12217.8222,W,2,06,1.3,0.2,M,-25.1,M,2.8,0000*41
$GPGSA,A,3,07,20,08,03,16,32,,,,,,,3.1,1.3,2.8*30
$GPRMC,191540.000,A,3748.7791,N,12217.8222,W,0.23,172.93,150611,,,D*71
$GPVTG,172.93,T,,M,0.23,N,0.4,K,D*03
$GPGGA,191541.000,3748.7790,N,12217.8222,W,2,06,1.3,0.3,M,-25.1,M,2.8,0000*40
$GPGSA,A,3,07,20,08,03,16,32,,,,,,,3.1,1.3,2.8*30
$GPRMC,191541.000,A,3748.7790,N,12217.8222,W,0.37,183.20,150611,,,D*72
$GPVTG,183.20,T,,M,0.37,N,0.7,K,D*03
$GPGGA,191542.000,3748.7787,N,12217.8223,W,2,06,1.3,0.2,M,-25.1,M,3.8,0000*44
$GPGSA,A,3,07,20,08,03,16,32,,,,,,,3.1,1.3,2.8*30
$GPRMC,191542.000,A,3748.7787,N,12217.8223,W,0.23,155.43,150611,,,D*7D
$GPVTG,155.43,T,,M,0.23,N,0.4,K,D*0B
$GPGGA,191543.000,3748.7789,N,12217.8220,W,2,06,1.3,0.9,M,-25.1,M,2.8,0000*42
$GPGSA,A,3,07,20,08,03,16,32,,,,,,,3.1,1.3,2.8*30
$GPGSV,3,1,12,23,65,076,30,13,64,340,23,16,43,057,22,07,42,263,30*79
$GPGSV,3,2,12,20,34,178,38,10,31,309,12,08,17,249,33,03,17,107,35*75
$GPGSV,3,3,12,32,16,160,35,06,14,091,23,04,08,269,32,19,02,133,*7C
$GPRMC,191543.000,A,3748.7789,N,12217.8220,W,0.24,105.49,150611,,,D*79
$GPVTG,105.49,T,,M,0.24,N,0.5,K,D*02
$GPGGA,191544.000,3748.7791,N,12217.8216,W,2,07,1.0,1.8,M,-25.1,M,2.8,0000*4B
$GPGSA,A,3,07,20,10,08,03,16,32,,,,,,2.8,1.0,2.6*34
$GPRMC,191544.000,A,3748.7791,N,12217.8216,W,0.27,86.57,150611,,,D*44
$GPVTG,86.57,T,,M,0.27,N,0.5,K,D*34
$GPGGA,191545.000,3748.7788,N,12217.8217,W,2,07,1.0,1.7,M,-25.1,M,2.8,0000*4C
$GPGSA,A,3,07,20,10,08,03,16,32,,,,,,2.8,1.0,2.6*34
$GPRMC,191545.000,A,3748.7788,N,12217.8217,W,0.41,187.25,150611,,,D*79
$GPVTG,187.25,T,,M,0.41,N,0.8,K,D*0C
$GPGGA,191546.000,3748.7788,N,12217.8216,W,2,07,1.0,1.8,M,-25.1,M,3.8,0000*40
$GPGSA,A,3,07,20,10,08,03,16,32,,,,,,2.8,1.0,2.6*34
$GPRMC,191546.000,A,3748.7788,N,12217.8216,W,0.33,150.40,150611,,,D*77
$GPVTG,150.40,T,,M,0.33,N,0.6,K,D*0E
$GPGGA,191547.000,3748.7786,N,12217.8214,W,2,07,1.0,1.5,M,-25.1,M,4.8,0000*47
$GPGSA,A,3,07,20,10,08,03,16,32,,,,,,2.8,1.0,2.6*34
$GPRMC,191547.000,A,3748.7786,N,12217.8214,W,1.17,122.04,150611,,,D*78
$GPVTG,122.04,T,,M,1.17,N,2.2,K,D*0A
$GPGGA,191548.000,3748.7782,N,12217.8210,W,2,07,1.0,1.1,M,-25.1,M,5.8,0000*4D
$GPGSA,A,3,07,20,10,08,03,16,32,,,,,,2.8,1.0,2.6*34
$GPGSV,3,1,12,23,65,077,29,13,64,341,23,16,43,057,26,07,42,264,25*76
$GPGSV,3,2,12,20,34,178,38,10,31,309,20,08,17,250,27,03,17,107,34*78
$GPGSV,3,3,12,32,16,160,35,06,14,091,20,04,08,269,25,19,02,133,*79
$GPRMC,191548.000,A,3748.7782,N,12217.8210,W,2.04,135.86,150611,,,D*7A
$GPVTG,135.86,T,,M,2.04,N,3.8,K,D*0C
$GPGGA,191549.000,3748.7778,N,12217.8203,W,2,07,1.0,1.2,M,-25.1,M,2.8,0000*4F
$GPGSA,A,3,07,20,10,08,03,16,32,,,,,,2.8,1.0,2.6*34
$GPRMC,191549.000,A,3748.7778,N,12217.8203,W,2.73,125.96,150611,,,D*7C
$GPVTG,125.96,T,,M,2.73,N,5.1,K,D*03
$GPGGA,191550.000,3748.7775,N,12217.8195,W,2,07,1.0,1.0,M,-25.1,M,2.8,0000*44
$GPGSA,A,3,07,20,10,08,03,16,32,,,,,,2.8,1.0,2.6*34
$GPRMC,191550.000,A,3748.7775,N,12217.8195,W,2.62,113.52,150611,,,D*78
$GPVTG,113.52,T,,M,2.62,N,4.9,K,D*07
$GPGGA,191551.000,3748.7773,N,12217.8187,W,2,07,1.0,0.9,M,-25.1,M,2.8,0000*48
$GPGSA,A,3,07,20,10,08,03,16,32,,,,,,2.8,1.0,2.6*34
$GPRMC,191551.000,A,3748.7773,N,12217.8187,W,2.14,112.58,150611,,,D*76
$GPVTG,112.58,T,,M,2.14,N,4.0,K,D*04
$GPGGA,191552.000,3748.7771,N,12217.8179,W,2,07,1.0,1.2,M,-25.1,M,3.8,0000*43
$GPGSA,A,3,07,20,10,08,03,16,32,,,,,,2.8,1.0,2.6*34
$GPRMC,191552.000,A,3748.7771,N,12217.8179,W,2.24,109.73,150611,,,D*76
$GPVTG,109.73,T,,M,2.24,N,4.1,K,D*05
$GPGGA,191553.000,3748.7769,N,12217.8171,W,2,07,1.0,1.7,M,-25.1,M,2.8,0000*47
$GPGSA,A,3,07,20,10,08,03,16,32,,,,,,2.8,1.0,2.6*34
$GPGSV,3,1,12,23,65,077,29,13,64,341,23,16,43,057,29,07,42,264,27*7B
$GPGSV,3,2,12,20,34,178,38,10,31,309,19,08,17,250,29,03,17,107,38*70
$GPGSV,3,3,12,32,16,160,36,06,14,091,22,04,08,269,29,19,02,133,*74
$GPRMC,191553.000,A,3748.7769,N,12217.8171,W,2.41,116.29,150611,,,D*74
$GPVTG,116.29,T,,M,2.41,N,4.5,K,D*03
$GPGGA,191554.000,3748.7765,N,12217.8162,W,2,07,1.0,2.0,M,-25.1,M,3.8,0000*4B
$GPGSA,A,3,07,20,10,08,03,16,32,,,,,,2.8,1.0,2.6*34
$GPRMC,191554.000,A,3748.7765,N,12217.8162,W,2.69,122.47,150611,,,D*78
$GPVTG,122.47,T,,M,2.69,N,5.0,K,D*02
$GPGGA,191555.000,3748.7761,N,12217.8153,W,2,07,1.0,2.3,M,-25.1,M,2.8,0000*4E
$GPGSA,A,3,07,20,10,08,03,16,32,,,,,,2.8,1.0,2.6*34
$GPRMC,191555.000,A,3748.7761,N,12217.8153,W,2.77,120.53,150611,,,D*77
$GPVTG,120.53,T,,M,2.77,N,5.1,K,D*0B
$GPGGA,191556.000,3748.7757,N,12217.8144,W,2,07,1.0,2.5,M,-25.1,M,2.8,0000*48
$GPGSA,A,3,07,20,10,08,03,16,32,,,,,,2.8,1.0,2.6*34
$GPRMC,191556.000,A,3748.7757,N,12217.8144,W,2.62,118.82,150611,,,D*74
$GPVTG,118.82,T,,M,2.62,N,4.9,K,D*01
$GPGGA,191557.000,3748.7754,N,12217.8136,W,2,07,1.0,2.7,M,-25.1,M,3.8,0000*4C
$GPGSA,A,3,07,20,10,08,03,16,32,,,,,,2.8,1.0,2.6*34
$GPRMC,191557.000,A,3748.7754,N,12217.8136,W,2.65,117.86,150611,,,D*7F
$GPVTG,117.86,T,,M,2.65,N,4.9,K,D*0D
$GPGGA,191558.000,3748.7751,N,12217.8127,W,2,07,1.0,3.1,M,-25.1,M,4.8,0000*46
$GPGSA,A,3,07,20,10,08,03,16,32,,,,,,2.8,1.0,2.6*34
$GPGSV,3,1,12,23,65,077,31,13,64,341,23,16,43,057,29,07,42,264,27*72
$GPGSV,3,2,12,20,34,178,38,10,31,309,20,08,17,250,30,03,17,107,38*72
$GPGSV,3,3,12,32,16,160,37,06,14,091,17,04,08,269,26,19,02,133,*7C
$GPRMC,191558.000,A,3748.7751,N,12217.8127,W,2.56,119.25,150611,,,D*72
$GPGGA,191559.000,3748.7749,N,12217.8118,W,2,07,1.0,3.5,M,-25.1,M,5.8,0000*47
$GPGSA,A,3,07,20,10,08,03,16,32,,,,,,2.8,1.0,2.6*34
$GPRMC,191559.000,A,3748.7749,N,12217.8118,W,2.58,119.37,150611,,,D*7B
$GPVTG,119.37,T,,M,2.58,N,4.8,K,D*06
$GPGGA,191600.000,3748.7745,N,12217.8110,W,2,07,1.0,3.6,M,-25.1,M,6.8,0000*4C
$GPGSA,A,3,07,20,10,08,03,16,32,,,,,,2.8,1.0,2.6*34
$GPRMC,191600.000,A,3748.7745,N,12217.8110,W,2.56,120.96,150611,,,D*7F
$GPVTG,120.96,T,,M,2.56,N,4.7,K,D*06
$GPGGA,191601.000,3748.7742,N,12217.8102,W,2,07,1.0,3.7,M,-25.1,M,2.8,0000*4C
$GPGSA,A,3,07,20,10,08,03,16,32,,,,,,2.8,1.0,2.6*34
$GPRMC,191601.000,A,3748.7742,N,12217.8102,W,2.39,121.27,150611,,,D*78
$GPVTG,121.27,T,,M,2.39,N,4.4,K,D*07
$GPGGA,191602.000,3748.7736,N,12217.8096,W,2,07,1.0,3.0,M,-25.1,M,2.8,0000*47
$GPGSA,A,3,07,20,10,08,03,16,32,,,,,,2.8,1.0,2.6*34
$GPRMC,191602.000,A,3748.7736,N,12217.8096,W,1.22,130.47,150611,,,D*7B
$GPVTG,130.47,T,,M,1.22,N,2.3,K,D*09
$GPGGA,191603.000,3748.7733,N,12217.8094,W,2,07,1.0,2.5,M,-25.1,M,2.8,0000*45
$GPGSA,A,3,07,20,10,08,03,16,32,,,,,,2.8,1.0,2.6*34
$GPGSV,3,1,12,23,65,077,30,13,64,341,24,16,43,057,22,07,42,264,28*70
$GPGSV,3,2,12,20,34,178,38,10,31,309,20,08,17,250,31,03,17,107,38*73
$GPGSV,3,3,12,32,16,160,38,06,14,091,23,04,08,269,29,19,02,133,*7B
$GPRMC,191603.000,A,3748.7733,N,12217.8094,W,0.32,157.81,150611,,,D*76
$GPVTG,157.81,T,,M,0.32,N,0.6,K,D*05
$GPGGA,191604.000,3748.7730,N,12217.8094,W,2,07,1.0,2.2,M,-25.1,M,3.8,0000*47
$GPGSA,A,3,07,20,10,08,03,16,32,,,,,,2.8,1.0,2.6*34
$GPRMC,191604.000,A,3748.7730,N,12217.8094,W,0.26,194.48,150611,,,D*7D
$GPVTG,194.48,T,,M,0.26,N,0.5,K,D*09
$GPGGA,191605.000,3748.7728,N,12217.8093,W,2,07,1.0,2.5,M,-25.1,M,4.8,0000*48
$GPGSA,A,3,07,20,10,08,03,16,32,,,,,,2.8,1.0,2.6*34
$GPRMC,191605.000,A,3748.7728,N,12217.8093,W,0.22,215.14,150611,,,D*75
$GPVTG,215.14,T,,M,0.22,N,0.4,K,D*0F
$GPGGA,191606.000,3748.7726,N,12217.8093,W,2,07,1.0,2.3,M,-25.1,M,5.8,0000*42
$GPGSA,A,3,07,20,10,08,03,16,32,,,,,,2.8,1.0,2.6*34
$GPRMC,191606.000,A,3748.7726,N,12217.8093,W,0.34,196.34,150611,,,D*75
$GPVTG,196.34,T,,M,0.34,N,0.6,K,D*00
$GPGGA,191607.000,3748.7724,N,12217.8093,W,2,07,1.0,2.7,M,-25.1,M,2.8,0000*42
$GPGSA,A,3,07,20,10,08,03,16,32,,,,,,2.8,1.0,2.6*34
$GPRMC,191607.000,A,3748.7724,N,12217.8093,W,0.57,180.02,150611,,,D*71
$GPVTG,180.02,T,,M,0.57,N,1.1,K,D*01
$GPGGA,191608.000,3748.7722,N,12217.8091,W,2,06,1.2,2.9,M,-25.1,M,2.8,0000*44
$GPGSA,A,3,07,20,10,08,03,32,,,,,,,3.3,1.2,3.1*3D
$GPGSV,3,1,12,23,65,077,31,13,64,341,24,16,43,057,19,07,42,264,29*78
$GPGSV,3,2,12,20,34,178,37,10,31,309,20,08,17,250,32,03,17,107,38*7F
$GPGSV,3,3,12,32,16,160,39,06,14,091,23,04,08,269,29,19,02,133,*7A
$GPRMC,191608.000,A,3748.7722,N,12217.8091,W,1.04,140.02,150611,,,D*71
$GPVTG,140.02,T,,M,1.04,N,1.9,K,D*02
$GPGGA,191609.000,3748.7717,N,12217.8088,W,2,07,1.0,2.0,M,-25.1,M,2.8,0000*41
$GPGSA,A,3,07,20,10,08,03,16,32,,,,,,2.8,1.0,2.6*34
$GPRMC,191609.000,A,3748.7717,N,12217.8088,W,2.00,122.44,150611,,,D*7F
$GPVTG,122.44,T,,M,2.00,N,3.7,K,D*0F
$GPGGA,191610.000,3748.7715,N,12217.8080,W,2,07,1.0,1.6,M,-25.1,M,2.8,0000*46
$GPGSA,A,3,07,20,10,08,03,16,32,,,,,,2.8,1.0,2.6*34
$GPRMC,191610.000,A,3748.7715,N,12217.8080,W,2.09,125.17,150611,,,D*75
$GPVTG,125.17,T,,M,2.09,N,3.9,K,D*09
$GPGGA,191611.000,3748.7712,N,12217.8074,W,2,07,1.0,1.7,M,-25.1,M,3.8,0000*4B
$GPGSA,A,3,07,20,10,08,03,16,32,,,,,,2.8,1.0,2.6*34
$GPRMC,191611.000,A,3748.7712,N,12217.8074,W,2.31,136.02,150611,,,D*75
$GPVTG,136.02,T,,M,2.31,N,4.3,K,D*09
$GPGGA,191612.000,3748.7708,N,12217.8068,W,2,07,1.0,2.3,M,-25.1,M,4.8,0000*4E
$GPGSA,A,3,07,20,10,08,03,16,32,,,,,,2.8,1.0,2.6*34
$GPRMC,191612.000,A,3748.7708,N,12217.8068,W,2.68,129.10,150611,,,D*71
$GPVTG,129.10,T,,M,2.68,N,5.0,K,D*0A
$GPGGA,191613.000,3748.7705,N,12217.8060,W,2,07,1.0,2.2,M,-25.1,M,2.8,0000*4D
$GPGSA,A,3,07,20,10,08,03,16,32,,,,,,2.8,1.0,2.6*34
$GPGSV,3,1,12,23,65,077,31,13,64,341,24,16,43,057,28,07,42,264,29*7A
$GPGSV,3,2,12,20,33,178,38,10,31,309,20,08,17,250,28,03,17,107,34*70
$GPGSV,3,3,12,32,16,160,38,06,14,091,33,04,08,269,29,19,02,133,*7A
$GPRMC,191613.000,A,3748.7705,N,12217.8060,W,2.52,114.93,150611,,,D*79
$GPVTG,114.93,T,,M,2.52,N,4.7,K,D*00
$GPGGA,191614.000,3748.7702,N,12217.8051,W,2,07,1.0,1.6,M,-25.1,M,2.8,0000*48
$GPGSA,A,3,07,20,10,08,03,16,32,,,,,,2.8,1.0,2.6*34
$GPRMC,191614.000,A,3748.7702,N,12217.8051,W,1.67,104.96,150611,,,D*7A
$GPVTG,104.96,T,,M,1.67,N,3.1,K,D*00
$GPGGA,191615.000,3748.7700,N,12217.8045,W,2,07,1.0,1.3,M,-25.1,M,2.8,0000*4B
$GPGSA,A,3,07,20,10,08,03,16,32,,,,,,2.8,1.0,2.6*34
$GPRMC,191615.000,A,3748.7700,N,12217.8045,W,0.75,105.29,150611,,,D*7B
$GPVTG,105.29,T,,M,0.75,N,1.4,K,D*00
$GPGGA,191616.000,3748.7698,N,12217.8043,W,2,07,1.0,0.5,M,-25.1,M,2.8,0000*49
$GPGSA,A,3,07,20,10,08,03,16,32,,,,,,2.8,1.0,2.6*34
$GPRMC,191616.000,A,3748.7698,N,12217.8043,W,0.34,182.70,150611,,,D*78
$GPVTG,182.70,T,,M,0.34,N,0.6,K,D*05
$GPGGA,191617.000,3748.7697,N,12217.8041,W,2,07,1.0,-0.1,M,-25.1,M,3.8,0000*6D
$GPGSA,A,3,07,20,10,08,03,16,32,,,,,,2.8,1.0,2.7*35
$GPRMC,191617.000,A,3748.7697,N,12217.8041,W,0.39,189.85,150611,,,D*78
$GPVTG,189.85,T,,M,0.39,N,0.7,K,D*08
$GPGGA,191618.000,3748.7695,N,12217.8039,W,2,07,1.0,-0.5,M,-25.1,M,2.8,0000*6A
$GPGSA,A,3,07,20,10,08,03,16,32,,,,,,2.8,1.0,2.7*35
$GPGSV,3,1,12,23,65,077,31,13,65,341,24,16,43,057,21,07,42,264,30*7A
$GPGSV,3,2,12,20,33,178,38,10,31,309,21,08,17,250,29,03,17,107,36*72
$GPGSV,3,3,12,32,16,160,35,06,14,091,34,04,08,269,28,19,02,133,*71
$GPRMC,191618.000,A,3748.7695,N,12217.8039,W,0.91,116.16,150611,,,D*74
$GPGGA,191619.000,3748.7692,N,12217.8032,W,2,07,1.0,-0.8,M,-25.1,M,2.8,0000*6A
$GPGSA,A,3,07,20,10,08,03,16,32,,,,,,2.8,1.0,2.7*35
$GPRMC,191619.000,A,3748.7692,N,12217.8032,W,1.97,108.14,150611,,,D*73
$GPVTG,108.14,T,,M,1.97,N,3.6,K,D*0E
$GPGGA,191620.000,3748.7693,N,12217.8022,W,2,07,1.0,0.3,M,-25.1,M,2.8,0000*46
$GPGSA,A,3,07,20,10,08,03,16,32,,,,,,2.9,1.0,2.7*34
$GPRMC,191620.000,A,3748.7693,N,12217.8022,W,2.21,108.17,150611,,,D*74
$GPVTG,108.17,T,,M,2.21,N,4.1,K,D*03
$GPGGA,191621.000,3748.7693,N,12217.8013,W,2,07,1.0,1.3,M,-25.1,M,2.8,0000*44
$GPGSA,A,3,07,20,10,08,03,16,32,,,,,,2.9,1.0,2.7*34
$GPRMC,191621.000,A,3748.7693,N,12217.8013,W,2.19,114.38,150611,,,D*7C
$GPVTG,114.38,T,,M,2.19,N,4.1,K,D*08
$GPGGA,191622.000,3748.7692,N,12217.8004,W,2,07,1.0,1.9,M,-25.1,M,3.8,0000*4B
$GPGSA,A,3,07,20,10,08,03,16,32,,,,,,2.9,1.0,2.7*34
$GPRMC,191622.000,A,3748.7692,N,12217.8004,W,2.57,115.55,150611,,,D*78
$GPVTG,115.55,T,,M,2.57,N,4.8,K,D*01
$GPGGA,191623.000,3748.7690,N,12217.7995,W,2,07,1.0,2.3,M,-25.1,M,4.8,0000*48
$GPGSA,A,3,07,20,10,08,03,16,32,,,,,,2.9,1.0,2.7*34
$GPGSV,3,1,12,23,65,077,31,13,65,341,24,16,43,057,30,07,42,264,27*7C
$GPGSV,3,2,12,20,33,178,39,10,31,309,20,08,17,250,29,03,17,107,33*77
$GPGSV,3,3,12,32,16,160,36,06,14,091,30,04,08,269,27,19,02,133,*79
$GPRMC,191623.000,A,3748.7690,N,12217.7995,W,2.25,113.60,150611,,,D*70
$GPVTG,113.60,T,,M,2.25,N,4.2,K,D*0E
$GPGGA,191624.000,3748.7689,N,12217.7988,W,2,07,1.0,2.9,M,-25.1,M,5.8,0000*40
$GPGSA,A,3,07,20,10,08,03,16,32,,,,,,2.9,1.0,2.7*34
$GPRMC,191624.000,A,3748.7689,N,12217.7988,W,1.99,117.63,150611,,,D*70
$GPVTG,117.63,T,,M,1.99,N,3.7,K,D*0F
$GPGGA,191625.000,3748.7686,N,12217.7980,W,2,07,1.0,3.5,M,-25.1,M,2.8,0000*4C
$GPGSA,A,3,07,20,10,08,03,16,32,,,,,,2.9,1.0,2.7*34
$GPRMC,191625.000,A,3748.7686,N,12217.7980,W,2.59,119.16,150611,,,D*75
$GPVTG,119.16,T,,M,2.59,N,4.8,K,D*04
$GPGGA,191626.000,3748.7683,N,12217.7972,W,2,07,1.0,3.9,M,-25.1,M,2.8,0000*4B
$GPGSA,A,3,07,20,10,08,03,16,32,,,,,,2.9,1.0,2.7*34
$GPRMC,191626.000,A,3748.7683,N,12217.7972,W,2.59,122.16,150611,,,D*76
$GPVTG,122.16,T,,M,2.59,N,4.8,K,D*0C
$GPGGA,191627.000,3748.7678,N,12217.7962,W,2,07,1.0,3.5,M,-25.1,M,2.8,0000*43
$GPGSA,A,3,07,20,10,08,03,16,32,,,,,,2.9,1.0,2.7*34
$GPRMC,191627.000,A,3748.7678,N,12217.7962,W,2.66,122.35,150611,,,D*7F
$GPVTG,122.35,T,,M,2.66,N,4.9,K,D*00
$GPGGA,191628.000,3748.7674,N,12217.7954,W,2,07,1.0,3.7,M,-25.1,M,3.8,0000*46
$GPGSA,A,3,07,20,10,08,03,16,32,,,,,,2.9,1.0,2.7*34
$GPGSV,3,1,12,23,65,077,31,13,65,341,25,16,43,057,22,07,42,264,28*71
$GPGSV,3,2,12,20,33,178,38,10,31,309,20,08,17,250,30,03,17,107,32*7F
$GPGSV,3,3,12,32,16,160,35,06,14,091,24,04,08,269,28,19,02,133,*70
$GPRMC,191628.000,A,3748.7674,N,12217.7954,W,2.59,121.39,150611,,,D*7A
$GPVTG,121.39,T,,M,2.59,N,4.8,K,D*02
$GPGGA,191629.000,3748.7671,N,12217.7946,W,2,07,1.0,3.8,M,-25.1,M,4.8,0000*49
$GPGSA,A,3,07,20,10,08,03,16,32,,,,,,2.9,1.0,2.7*34
$GPRMC,191629.000,A,3748.7671,N,12217.7946,W,2.65,118.31,150611,,,D*70
$GPVTG,118.31,T,,M,2.65,N,4.9,K,D*0E
$GPGGA,191630.000,3748.7666,N,12217.7935,W,2,07,1.0,3.5,M,-25.1,M,5.8,0000*4F
$GPGSA,A,3,07,20,10,08,03,16,32,,,,,,2.9,1.0,2.7*34
$GPRMC,191630.000,A,3748.7666,N,12217.7935,W,2.82,114.05,150611,,,D*78
$GPVTG,114.05,T,,M,2.82,N,5.2,K,D*06
$GPGGA,191631.000,3748.7661,N,12217.7924,W,2,07,1.0,3.2,M,-25.1,M,2.8,0000*49
$GPGSA,A,3,07,20,10,08,03,16,32,,,,,,2.9,1.0,2.7*34
$GPRMC,191631.000,A,3748.7661,N,12217.7924,W,2.93,120.57,150611,,,D*7E
$GPVTG,120.57,T,,M,2.93,N,5.4,K,D*00
$GPGGA,191632.000,3748.7656,N,12217.7915,W,2,07,1.0,3.3,M,-25.1,M,2.8,0000*4D
$GPGSA,A,3,07,20,10,08,03,16,32,,,,,,2.9,1.0,2.7*34
$GPRMC,191632.000,A,3748.7656,N,12217.7915,W,2.76,122.61,150611,,,D*77
$GPVTG,122.61,T,,M,2.76,N,5.1,K,D*09
$GPGGA,191633.000,3748.7651,N,12217.7906,W,2,07,1.0,3.5,M,-25.1,M,2.8,0000*4F
$GPGSA,A,3,07,20,10,08,03,16,32,,,,,,2.9,1.0,2.7*34
$GPGSV,3,1,12,23,65,077,31,13,65,341,23,16,43,057,26,07,42,264,28*73
$GPGSV,3,2,12,20,33,178,38,10,31,309,21,08,17,250,30,03,17,107,26*7B
$GPGSV,3,3,12,32,16,160,28,06,14,091,26,04,08,269,27,19,02,133,*71
$GPRMC,191633.000,A,3748.7651,N,12217.7906,W,2.95,121.38,150611,,,D*71
$GPVTG,121.38,T,,M,2.95,N,5.5,K,D*0F
$GPGGA,191634.000,3748.7646,N,12217.7897,W,2,07,1.0,3.2,M,-25.1,M,3.8,0000*41
$GPGSA,A,3,07,20,10,08,03,16,32,,,,,,2.9,1.0,2.7*34
$GPRMC,191634.000,A,3748.7646,N,12217.7897,W,2.83,110.23,150611,,,D*76
$GPVTG,110.23,T,,M,2.83,N,5.2,K,D*07
$GPGGA,191635.000,3748.7643,N,12217.7887,W,2,07,1.0,3.6,M,-25.1,M,4.8,0000*47
$GPGSA,A,3,07,20,10,08,03,16,32,,,,,,2.9,1.0,2.7*34
$GPRMC,191635.000,A,3748.7643,N,12217.7887,W,2.71,113.20,150611,,,D*7E
$GPVTG,113.20,T,,M,2.71,N,5.0,K,D*08
$GPGGA,191636.000,3748.7640,N,12217.7877,W,2,07,1.0,4.0,M,-25.1,M,5.8,0000*48
$GPGSA,A,3,07,20,10,08,03,16,32,,,,,,2.9,1.0,2.7*34
$GPRMC,191636.000,A,3748.7640,N,12217.7877,W,2.53,110.79,150611,,,D*7E
$GPVTG,110.79,T,,M,2.53,N,4.7,K,D*01
$GPGGA,191637.000,3748.7637,N,12217.7867,W,2,07,1.0,4.0,M,-25.1,M,2.8,0000*4F
$GPGSA,A,3,07,20,10,08,03,16,32,,,,,,2.9,1.0,2.7*34
$GPRMC,191637.000,A,3748.7637,N,12217.7867,W,2.81,110.31,150611,,,D*7D
$GPVTG,110.31,T,,M,2.81,N,5.2,K,D*06
$GPGGA,191638.000,3748.7631,N,12217.7860,W,2,07,1.0,3.8,M,-25.1,M,2.8,0000*4E
$GPGSA,A,3,07,20,10,08,03,16,32,,,,,,2.9,1.0,2.7*34
$GPGSV,3,1,12,23,65,077,27,13,65,341,25,16,43,057,28,07,42,264,32*77
$GPGSV,3,2,12,20,33,178,38,10,31,309,21,08,17,250,31,03,17,107,19*76
$GPGSV,3,3,12,32,16,160,28,06,14,091,21,04,08,269,26,19,02,133,*77
$GPRMC,191638.000,A,3748.7631,N,12217.7860,W,2.80,118.73,150611,,,D*7C
$GPGGA,191639.000,3748.7626,N,12217.7851,W,2,07,1.0,3.9,M,-25.1,M,2.8,0000*4A
$GPGSA,A,3,07,20,10,08,03,16,32,,,,,,2.9,1.0,2.7*34
$GPRMC,191639.000,A,3748.7626,N,12217.7851,W,2.87,116.83,150611,,,D*7F
$GPVTG,116.83,T,,M,2.87,N,5.3,K,D*0E
$GPGGA,191640.000,3748.7616,N,12217.7842,W,2,07,1.0,5.3,M,-25.1,M,3.8,0000*48
$GPGSA,A,3,07,20,10,08,03,16,32,,,,,,2.9,1.0,2.7*34
$GPRMC,191640.000,A,3748.7616,N,12217.7842,W,2.87,118.93,150611,,,D*7F
$GPVTG,118.93,T,,M,2.87,N,5.3,K,D*01
$GPGGA,191641.000,3748.7608,N,12217.7835,W,2,07,1.0,5.7,M,-25.1,M,2.8,0000*43
$GPGSA,A,3,07,20,10,08,03,16,32,,,,,,2.9,1.0,2.7*34
$GPRMC,191641.000,A,3748.7608,N,12217.7835,W,3.12,105.03,150611,,,D*79
$GPVTG,105.03,T,,M,3.12,N,5.8,K,D*02
$GPGGA,191642.000,3748.7599,N,12217.7825,W,2,07,1.0,6.1,M,-25.1,M,2.8,0000*4F
$GPGSA,A,3,07,20,10,08,03,16,32,,,,,,2.9,1.0,2.7*34
$GPRMC,191642.000,A,3748.7599,N,12217.7825,W,3.27,109.44,150611,,,D*79
$GPVTG,109.44,T,,M,3.27,N,6.1,K,D*01
$GPGGA,191643.000,3748.7594,N,12217.7817,W,2,07,1.0,6.9,M,-25.1,M,2.8,0000*4A
$GPGSA,A,3,07,20,10,08,03,16,32,,,,,,2.9,1.0,2.7*34
$GPGSV,3,1,12,23,65,078,28,13,65,341,24,16,43,057,20,07,42,264,30*7C
$GPGSV,3,2,12,20,33,178,33,10,31,308,20,08,17,250,31,03,17,107,19*7D
$GPGSV,3,3,12,32,16,160,30,06,14,091,21,04,08,268,23,19,02,133,*7A
$GPRMC,191643.000,A,3748.7594,N,12217.7817,W,2.83,112.13,150611,,,D*73
$GPVTG,112.13,T,,M,2.83,N,5.2,K,D*06
$GPGGA,191644.000,3748.7586,N,12217.7811,W,2,07,1.0,7.6,M,-25.1,M,2.8,0000*46
$GPGSA,A,3,07,20,10,08,03,16,32,,,,,,2.9,1.0,2.7*34
$GPRMC,191644.000,A,3748.7586,N,12217.7811,W,2.55,116.90,150611,,,D*75
$GPVTG,116.90,T,,M,2.55,N,4.7,K,D*06
$GPGGA,191645.000,3748.7583,N,12217.7804,W,2,07,1.0,8.1,M,-25.1,M,2.8,0000*4E
$GPGSA,A,3,07,20,10,08,03,16,32,,,,,,2.9,1.0,2.7*34
$GPRMC,191645.000,A,3748.7583,N,12217.7804,W,3.19,120.55,150611,,,D*70
$GPVTG,120.55,T,,M,3.19,N,5.9,K,D*0C
$GPGGA,191646.000,3748.7573,N,12217.7796,W,2,07,1.0,9.9,M,-25.1,M,3.8,0000*4E
$GPGSA,A,3,07,20,10,08,03,16,32,,,,,,2.9,1.0,2.7*34
$GPRMC,191646.000,A,3748.7573,N,12217.7796,W,2.64,122.81,150611,,,D*78
$GPVTG,122.81,T,,M,2.64,N,4.9,K,D*0D
$GPGGA,191647.000,3748.7570,N,12217.7788,W,2,07,1.0,10.5,M,-25.1,M,4.8,0000*70
$GPGSA,A,3,07,20,10,08,03,16,32,,,,,,2.9,1.0,2.7*34
$GPRMC,191647.000,A,3748.7570,N,12217.7788,W,2.86,116.62,150611,,,D*73
$GPVTG,116.62,T,,M,2.86,N,5.3,K,D*00
$GPGGA,191648.000,3748.7567,N,12217.7781,W,2,07,1.0,11.6,M,-25.1,M,5.8,0000*73
$GPGSA,A,3,07,20,10,08,03,16,32,,,,,,2.9,1.0,2.7*34
$GPGSV,3,1,12,23,65,078,23,13,65,341,23,16,43,057,20,07,42,264,29*78
$GPGSV,3,2,12,20,33,178,39,10,31,308,19,08,17,250,33,03,17,107,20*75
$GPGSV,3,3,12,32,16,160,26,06,14,091,21,04,08,268,24,19,02,132,*7B
$GPRMC,191648.000,A,3748.7567,N,12217.7781,W,2.82,112.83,150611,,,D*7C
$GPVTG,112.83,T,,M,2.82,N,5.2,K,D*0E
$GPGGA,191649.000,3748.7559,N,12217.7775,W,2,07,1.0,10.8,M,-25.1,M,2.8,0000*7C
$GPGSA,A,3,07,20,10,08,03,16,32,,,,,,2.9,1.0,2.7*34
$GPRMC,191649.000,A,3748.7559,N,12217.7775,W,2.81,125.93,150611,,,D*7D
$GPVTG,125.93,T,,M,2.81,N,5.2,K,D*08
$GPGGA,191650.000,3748.7557,N,12217.7770,W,2,07,1.0,10.5,M,-25.1,M,2.8,0000*72
$GPGSA,A,3,07,20,10,08,03,16,32,,,,,,2.9,1.0,2.7*34
$GPRMC,191650.000,A,3748.7557,N,12217.7770,W,2.23,135.48,150611,,,D*71
$GPVTG,135.48,T,,M,2.23,N,4.1,K,D*05
$GPGGA,191651.000,3748.7552,N,12217.7763,W,2,07,1.0,9.1,M,-25.1,M,3.8,0000*49
$GPGSA,A,3,07,20,10,08,03,16,32,,,,,,2.9,1.0,2.7*34
$GPRMC,191651.000,A,3748.7552,N,12217.7763,W,2.03,112.56,150611,,,D*7F
$GPVTG,112.56,T,,M,2.03,N,3.8,K,D*03
$GPGGA,191652.000,3748.7550,N,12217.7754,W,2,07,1.0,9.6,M,-25.1,M,4.8,0000*4C
$GPGSA,A,3,07,20,10,08,03,16,32,,,,,,2.9,1.0,2.7*34
$GPRMC,191652.000,A,3748.7550,N,12217.7754,W,2.10,94.89,150611,,,D*45
$GPVTG,94.89,T,,M,2.10,N,3.9,K,D*3D
$GPGGA,191653.000,3748.7547,N,12217.7744,W,2,07,1.0,10.5,M,-25.1,M,5.8,0000*70
$GPGSA,A,3,07,20,10,08,03,16,32,,,,,,2.9,1.0,2.7*34
$GPGSV,3,1,12,23,65,078,20,13,65,341,22,16,43,057,20,07,42,264,34*76
$GPGSV,3,2,12,20,33,178,38,10,31,308,20,08,17,250,22,03,17,107,24*7A
$GPGSV,3,3,12,32,16,160,37,06,14,091,21,04,08,268,24,19,02,132,*7B
$GPRMC,191653.000,A,3748.7547,N,12217.7744,W,2.77,111.41,150611,,,D*7A
$GPVTG,111.41,T,,M,2.77,N,5.1,K,D*0A
$GPGGA,191654.000,3748.7541,N,12217.7731,W,2,07,1.0,11.6,M,-25.1,M,6.8,0000*72
$GPGSA,A,3,07,20,10,08,03,16,32,,,,,,2.9,1.0,2.7*34
$GPRMC,191654.000,A,3748.7541,N,12217.7731,W,2.61,125.14,150611,,,D*79
$GPVTG,125.14,T,,M,2.61,N,4.8,K,D*02
$GPGGA,191655.000,3748.7536,N,12217.7723,W,2,07,1.0,13.3,M,-25.1,M,2.8,0000*73
$GPGSA,A,3,07,20,10,08,03,16,32,,,,,,2.9,1.0,2.7*34
$GPRMC,191655.000,A,3748.7536,N,12217.7723,W,2.78,136.72,150611,,,D*71
$GPVTG,136.72,T,,M,2.78,N,5.1,K,D*00
$GPGGA,191656.000,3748.7531,N,12217.7715,W,2,07,1.0,13.6,M,-25.1,M,2.8,0000*77
$GPGSA,A,3,07,20,10,08,03,16,32,,,,,,2.9,1.0,2.7*34
$GPRMC,191656.000,A,3748.7531,N,12217.7715,W,2.93,112.71,150611,,,D*70
$GPVTG,112.71,T,,M,2.93,N,5.4,K,D*05
$GPGGA,191657.000,3748.7529,N,12217.7700,W,2,07,1.0,14.1,M,-25.1,M,3.8,0000*7A
$GPGSA,A,3,07,20,10,08,03,16,32,,,,,,2.9,1.0,2.7*34
$GPRMC,191657.000,A,3748.7529,N,12217.7700,W,3.21,101.90,150611,,,D*79
$GPVTG,101.90,T,,M,3.21,N,5.9,K,D*0D
$GPGGA,191658.000,3748.7526,N,12217.7692,W,2,07,1.0,16.6,M,-25.1,M,4.8,0000*72
$GPGSA,A,3,07,20,10,08,03,16,32,,,,,,2.9,1.0,2.7*34
$GPGSV,3,1,12,23,65,078,22,13,65,341,18,16,43,057,19,07,42,264,28*7A
$GPGSV,3,2,12,20,33,178,33,10,31,308,18,08,17,250,21,03,17,107,18*76
$GPGSV,3,3,12,32,16,160,34,06,14,091,21,04,08,268,24,19,02,132,*78
$GPRMC,191658.000,A,3748.7526,N,12217.7692,W,1.54,115.26,150611,,,D*7B
$GPGGA,191659.000,3748.7522,N,12217.7684,W,2,06,1.3,17.6,M,-25.1,M,5.8,0000*72
$GPGSA,A,3,07,20,08,03,16,32,,,,,,,3.1,1.3,2.8*30
$GPRMC,191659.000,A,3748.7522,N,12217.7684,W,1.49,127.36,150611,,,D*75
$GPVTG,127.36,T,,M,1.49,N,2.8,K,D*0F
$GPGGA,191700.000,3748.7520,N,12217.7675,W,2,07,1.0,18.9,M,-25.1,M,6.8,0000*72
$GPGSA,A,3,07,20,10,08,03,16,32,,,,,,2.9,1.0,2.7*34
$GPRMC,191700.000,A,3748.7520,N,12217.7675,W,1.68,101.21,150611,,,D*75
$GPVTG,101.21,T,,M,1.68,N,3.1,K,D*06
$GPGGA,191701.000,3748.7524,N,12217.7663,W,2,06,1.2,19.0,M,-25.1,M,7.8,0000*7A
$GPGSA,A,3,07,20,10,08,03,32,,,,,,,3.3,1.2,3.1*3D
$GPRMC,191701.000,A,3748.7524,N,12217.7663,W,2.24,107.20,150611,,,D*7B
$GPVTG,107.20,T,,M,2.24,N,4.1,K,D*0D
$GPGGA,191702.000,3748.7528,N,12217.7659,W,2,06,1.2,16.3,M,-25.1,M,8.8,0000*7F
$GPGSA,A,3,07,20,10,08,03,32,,,,,,,3.3,1.2,3.1*3D
$GPRMC,191702.000,A,3748.7528,N,12217.7659,W,2.15,122.05,150611,,,D*7F
$GPVTG,122.05,T,,M,2.15,N,4.0,K,D*0E
$GPGGA,191703.000,3748.7521,N,12217.7654,W,2,06,1.2,14.5,M,-25.1,M,9.8,0000*7F
$GPGSA,A,3,07,20,10,08,03,32,,,,,,,3.3,1.2,3.1*3D
$GPGSV,3,1,12,23,65,078,19,13,65,341,22,16,43,057,18,07,42,264,26*74
$GPGSV,3,2,12,20,33,178,25,10,31,308,18,08,17,250,20,03,17,107,16*7E
$GPGSV,3,3,12,32,16,160,29,06,14,091,14,04,08,268,18,19,02,132,*7D
$GPRMC,191703.000,A,3748.7521,N,12217.7654,W,2.58,157.23,150611,,,D*75
$GPVTG,157.23,T,,M,2.58,N,4.8,K,D*09
$GPGGA,191704.000,3748.7516,N,12217.7651,W,2,05,1.7,12.7,M,-25.1,M,10.8,0000*43
$GPGSA,A,3,07,20,08,03,32,,,,,,,,3.5,1.7,3.1*3F
$GPRMC,191704.000,A,3748.7516,N,12217.7651,W,2.06,176.13,150611,,,D*78
$GPVTG,176.13,T,,M,2.06,N,3.8,K,D*05
$GPGGA,191705.000,3748.7509,N,12217.7644,W,2,06,1.2,12.5,M,-25.1,M,11.8,0000*4D
$GPGSA,A,3,07,20,10,08,03,32,,,,,,,3.3,1.2,3.1*3D
$GPRMC,191705.000,A,3748.7509,N,12217.7644,W,2.73,129.06,150611,,,D*7F
$GPVTG,129.06,T,,M,2.73,N,5.1,K,D*06
$GPGGA,191706.000,3748.7505,N,12217.7636,W,2,07,1.0,12.7,M,-25.1,M,12.8,0000*45
$GPGSA,A,3,07,20,10,08,03,16,32,,,,,,2.9,1.0,2.7*34
$GPRMC,191706.000,A,3748.7505,N,12217.7636,W,2.74,103.29,150611,,,D*77
$GPVTG,103.29,T,,M,2.74,N,5.1,K,D*04
$GPGGA,191707.000,3748.7503,N,12217.7624,W,2,07,1.0,11.8,M,-25.1,M,13.8,0000*4C
$GPGSA,A,3,07,20,10,08,03,16,32,,,,,,2.9,1.0,2.7*34
$GPRMC,191707.000,A,3748.7503,N,12217.7624,W,2.53,110.29,150611,,,D*74
$GPVTG,110.29,T,,M,2.53,N,4.7,K,D*04
$GPGGA,191708.000,3748.7499,N,12217.7616,W,2,07,1.0,11.4,M,-25.1,M,2.8,0000*7C
$GPGSA,A,3,07,20,10,08,03,16,32,,,,,,2.9,1.0,2.7*34
$GPGSV,3,1,12,23,65,078,25,13,65,341,20,16,43,057,18,07,42,264,27*78
$GPGSV,3,2,12,20,33,178,41,10,31,308,18,08,17,250,35,03,17,107,23*7E
$GPGSV,3,3,12,32,16,160,39,06,14,091,,04,08,268,22,19,02,132,*70
$GPRMC,191708.000,A,3748.7499,N,12217.7616,W,2.77,115.95,150611,,,D*7C
$GPVTG,115.95,T,,M,2.77,N,5.1,K,D*07
$GPGGA,191709.000,3748.7494,N,12217.7607,W,2,07,1.0,11.1,M,-25.1,M,2.8,0000*75
$GPGSA,A,3,07,20,10,08,03,16,32,,,,,,2.9,1.0,2.7*34
$GPRMC,191709.000,A,3748.7494,N,12217.7607,W,2.83,126.13,150611,,,D*75
$GPVTG,126.13,T,,M,2.83,N,5.2,K,D*01
$GPGGA,191710.000,3748.7489,N,12217.7600,W,2,07,1.0,11.0,M,-25.1,M,3.8,0000*76
$GPGSA,A,3,07,20,10,08,03,16,32,,,,,,2.9,1.0,2.7*34
$GPRMC,191710.000,A,3748.7489,N,12217.7600,W,2.87,132.64,150611,,,D*77
$GPVTG,132.64,T,,M,2.87,N,5.3,K,D*01
$GPGGA,191711.000,3748.7484,N,12217.7591,W,2,07,1.0,10.4,M,-25.1,M,4.8,0000*73
$GPGSA,A,3,07,20,10,08,03,16,32,,,,,,2.9,1.0,2.7*34
$GPRMC,191711.000,A,3748.7484,N,12217.7591,W,2.58,124.85,150611,,,D*7A
$GPVTG,124.85,T,,M,2.58,N,4.8,K,D*01
$GPGGA,191712.000,3748.7481,N,12217.7583,W,2,07,1.0,10.5,M,-25.1,M,5.8,0000*76
$GPGSA,A,3,07,20,10,08,03,16,32,,,,,,2.9,1.0,2.7*34
$GPRMC,191712.000,A,3748.7481,N,12217.7583,W,2.74,119.05,150611,,,D*77
$GPVTG,119.05,T,,M,2.74,N,5.1,K,D*01
