$ADVER,3080,2.3
$GPRMC,203303.102,A,3748.7997,N,12217.8601,W,0.22,76.83,220611,,,A*42
$GPGGA,203304.102,3748.7997,N,12217.8599,W,1,03,2.0,-4.9,M,-25.1,M,,0000*43
$GPGSA,A,2,13,08,28,,,,,,,,,,2.2,2.0,1.0*30
$GPRMC,203304.102,A,3748.7997,N,12217.8599,W,0.07,93.42,220611,,,A*46
$GPVTG,93.42,T,,M,0.07,N,0.1,K,N*38
$GPGGA,203305.102,3748.7950,N,12217.8629,W,1,03,2.0,-4.9,M,-25.1,M,,0000*41
$GPGSA,A,2,13,08,28,,,,,,,,,,2.2,2.0,1.0*30
$GPGSV,3,1,12,13,59,125,40,08,48,297,31,28,30,219,26,07,65,346,35*7A
$GPGSV,3,2,12,10,38,250,38,19,30,091,36,23,26,134,38,03,24,057,36*71
$GPGSV,3,3,12,05,20,306,24,06,14,046,29,16,04,043,22,51,00,000,40*70
$GPRMC,203305.102,A,3748.7950,N,12217.8629,W,0.31,89.02,220611,,,A*4E
$GPVTG,89.02,T,,M,0.31,N,0.6,K,N*35
$GPGGA,203306.102,3748.7955,N,12217.8605,W,1,03,2.0,-4.9,M,-25.1,M,,0000*49
$GPGSA,A,2,13,08,28,,,,,,,,,,2.2,2.0,1.0*30
$GPRMC,203306.102,A,3748.7955,N,12217.8605,W,1.45,176.78,220611,,,A*78
$GPVTG,176.78,T,,M,1.45,N,2.7,K,N*08
$GPGGA,203307.102,3748.7999,N,12217.8538,W,1,03,2.0,-4.9,M,-25.1,M,,0000*45
$GPGSA,A,2,13,08,28,,,,,,,,,,2.2,2.0,1.0*30
$GPRMC,203307.102,A,3748.7999,N,12217.8538,W,1.38,194.93,220611,,,A*77
$GPVTG,194.93,T,,M,1.38,N,2.5,K,N*09
$GPGGA,203308.102,3748.7990,N,12217.8589,W,1,03,2.0,-4.9,M,-25.1,M,,0000*49
$GPGSA,A,2,13,08,28,,,,,,,,,,2.2,2.0,1.0*30
$GPRMC,203308.102,A,3748.7990,N,12217.8589,W,0.31,30.83,220611,,,A*4D
$GPVTG,30.83,T,,M,0.31,N,0.6,K,N*3E
$GPGGA,203309.102,3748.8001,N,12217.8558,W,1,03,2.0,-4.9,M,-25.1,M,,0000*4A
$GPGSA,A,2,13,08,28,,,,,,,,,,2.2,2.0,1.0*30
$GPRMC,203309.102,A,3748.8001,N,12217.8558,W,0.25,131.83,220611,,,A*7B
$GPVTG,131.83,T,,M,0.25,N,0.5,K,N*08
$GPGGA,203310.102,3748.7993,N,12217.8563,W,1,03,2.0,-4.9,M,-25.1,M,,0000*47
$GPGSA,A,2,13,08,28,,,,,,,,,,2.2,2.0,1.0*30
$GPGSV,3,1,12,13,59,125,31,08,48,297,27,28,30,219,30,07,65,346,24*7C
$GPGSV,3,2,12,10,38,250,28,19,30,091,27,23,26,134,35,03,24,057,26*7C
$GPGSV,3,3,12,05,20,306,24,06,14,046,30,16,04,043,29,51,00,000,31*75
$GPRMC,203310.102,A,3748.7993,N,12217.8563,W,0.58,137.62,220611,,,A*75
$GPVTG,137.62,T,,M,0.58,N,1.1,K,N*0E
$GPGGA,203311.102,3748.7954,N,12217.8554,W,1,03,2.0,-4.9,M,-25.1,M,,0000*49
$GPGSA,A,2,13,08,28,,,,,,,,,,2.2,2.0,1.0*30
$GPRMC,203311.102,A,3748.7954,N,12217.8554,W,0.16,51.07,220611,,,A*43
$GPVTG,51.07,T,,M,0.16,N,0.3,K,N*35
$GPGGA,203312.102,3748.7970,N,12217.8559,W,1,03,2.0,-4.9,M,-25.1,M,,0000*41
$GPGSA,A,2,13,08,28,,,,,,,,,,2.2,2.0,1.0*30
$GPRMC,203312.102,A,3748.7970,N,12217.8559,W,0.78,83.20,220611,,,A*49
$GPVTG,83.20,T,,M,0.78,N,1.4,K,N*31
$GPGGA,203313.102,3748.7980,N,12217.8557,W,1,03,2.0,-4.9,M,-25.1,M,,0000*41
$GPGSA,A,2,13,08,28,,,,,,,,,,2.2,2.0,1.0*30
$GPRMC,203313.102,A,3748.7980,N,12217.8557,W,1.36,132.04,220611,,,A*7F
$GPVTG,132.04,T,,M,1.36,N,2.5,K,N*05
$GPGGA,203314.102,3748.7983,N,12217.8557,W,1,03,2.0,-4.9,M,-25.1,M,,0000*45
$GPGSA,A,2,13,08,28,,,,,,,,,,2.2,2.0,1.0*30
$GPRMC,203314.102,A,3748.7983,N,12217.8557,W,1.65,130.73,220611,,,A*7F
$GPVTG,130.73,T,,M,1.65,N,3.1,K,N*04
$GPGGA,203315.102,3748.7984,N,12217.8554,W,1,03,2.0,-4.9,M,-25.1,M,,0000*40
$GPGSA,A,2,13,08,28,,,,,,,,,,2.2,2.0,1.0*30
$GPGSV,3,1,12,13,59,125,33,08,48,297,32,28,30,219,28,07,65,346,22*75
$GPGSV,3,2,12,10,38,250,37,19,30,091,28,23,26,134,33,03,24,057,28*75
$GPGSV,3,3,12,05,20,306,29,06,14,046,26,16,04,043,25,51,00,000,36*74
$GPVTG,122.71,T,,M,1.84,N,3.4,K,N*0F
$GPGGA,203316.102,3748.7982,N,12217.8551,W,1,03,2.0,-4.9,M,-25.1,M,,0000*40
$GPGSA,A,2,13,08,28,,,,,,,,,,2.2,2.0,1.0*30
$GPRMC,203316.102,A,3748.7982,N,12217.8551,W,1.66,115.46,220611,,,A*78
$GPVTG,115.46,T,,M,1.66,N,3.1,K,N*06
$GPGGA,203317.102,3748.7977,N,12217.8546,W,1,03,2.0,-4.9,M,-25.1,M,,0000*4D
$GPGSA,A,2,13,08,28,,,,,,,,,,2.2,2.0,1.0*30
$GPRMC,203317.102,A,3748.7977,N,12217.8546,W,1.56,123.50,220611,,,A*74
$GPVTG,123.50,T,,M,1.56,N,2.9,K,N*0E
$GPGGA,203318.102,3748.7973,N,12217.8543,W,1,03,2.0,-4.9,M,-25.1,M,,0000*43
$GPGSA,A,2,13,08,28,,,,,,,,,,2.2,2.0,1.0*30
$GPRMC,203318.102,A,3748.7973,N,12217.8543,W,1.72,120.22,220611,,,A*7A
$GPVTG,120.22,T,,M,1.72,N,3.2,K,N*04
$GPGGA,203319.102,3748.7971,N,12217.8538,W,1,03,2.0,-4.9,M,-25.1,M,,0000*4C
$GPGSA,A,2,13,08,28,,,,,,,,,,2.2,2.0,1.0*30
$GPRMC,203319.102,A,3748.7971,N,12217.8538,W,1.58,125.00,220611,,,A*78
$GPVTG,125.00,T,,M,1.58,N,2.9,K,N*03
$GPGGA,203320.102,3748.7968,N,12217.8535,W,1,03,2.0,-4.9,M,-25.1,M,,0000*43
$GPGSA,A,2,13,08,28,,,,,,,,,,2.2,2.0,1.0*30
$GPGSV,3,1,12,13,59,125,34,08,48,297,32,28,30,219,36,07,66,346,25*79
$GPGSV,3,2,12,10,38,250,36,19,30,091,30,23,26,134,36,03,24,057,21*71
$GPGSV,3,3,12,05,20,306,25,06,14,046,24,16,04,043,27,51,43,156,37*7C
$GPRMC,203320.102,A,3748.7968,N,12217.8535,W,1.61,121.17,220611,,,A*7F
$GPVTG,121.17,T,,M,1.61,N,3.0,K,N*03
$GPGGA,203321.102,3748.7939,N,12217.8567,W,1,04,2.3,13.2,M,-25.1,M,,0000*55
$GPGSA,A,3,13,08,28,23,,,,,,,,,4.9,2.3,4.3*38
$GPRMC,203321.102,A,3748.7939,N,12217.8567,W,1.56,125.98,220611,,,A*7A
$GPVTG,125.98,T,,M,1.56,N,2.9,K,A*03
$GPGGA,203322.102,3748.7923,N,12217.8563,W,1,04,2.3,15.1,M,-25.1,M,,0000*5C
$GPGSA,A,3,13,08,28,23,,,,,,,,,4.9,2.3,4.3*38
$GPRMC,203322.102,A,3748.7923,N,12217.8563,W,1.22,110.68,220611,,,A*7C
$GPVTG,110.68,T,,M,1.22,N,2.3,K,A*03
$GPGGA,203323.102,3748.7875,N,12217.8554,W,1,04,2.3,22.2,M,-25.1,M,,0000*5C
$GPGSA,A,3,13,08,28,23,,,,,,,,,4.9,2.3,4.3*38
$GPRMC,203323.102,A,3748.7875,N,12217.8554,W,1.19,112.69,220611,,,A*70
$GPVTG,112.69,T,,M,1.19,N,2.2,K,A*09
$GPGGA,203324.000,3748.7894,N,12217.8543,W,1,04,2.3,15.4,M,-25.1,M,,0000*53
$GPGSA,A,3,13,08,28,23,,,,,,,,,4.9,2.3,4.3*38
$GPRMC,203324.000,A,3748.7894,N,12217.8543,W,0.98,99.61,220611,,,A*4F
$GPVTG,99.61,T,,M,0.98,N,1.8,K,A*32
$GPGGA,203325.000,3748.7914,N,12217.8533,W,1,04,2.3,9.0,M,-25.1,M,,0000*65
$GPGSA,A,3,13,08,28,23,,,,,,,,,4.9,2.3,4.3*38
$GPGSV,3,1,12,13,59,125,30,08,48,297,35,28,30,219,36,23,26,134,28*72
$GPGSV,3,2,12,07,66,346,27,10,38,250,37,19,30,091,25,03,24,057,23*73
$GPGSV,3,3,12,05,20,306,35,06,14,046,23,16,04,043,27,51,43,156,32*7F
$GPRMC,203325.000,A,3748.7914,N,12217.8533,W,1.08,101.25,220611,,,A*78
$GPVTG,101.25,T,,M,1.08,N,2.0,K,A*01
$GPGGA,203326.000,3748.7922,N,12217.8528,W,1,04,2.3,6.5,M,-25.1,M,,0000*63
$GPGSA,A,3,13,08,28,23,,,,,,,,,4.9,2.3,4.3*38
$GPRMC,203326.000,A,3748.7922,N,12217.8528,W,1.56,131.60,220611,,,A*7D
$GPVTG,131.60,T,,M,1.56,N,2.9,K,A*01
$GPGGA,203327.000,3748.7928,N,12217.8524,W,1,04,2.3,5.4,M,-25.1,M,,0000*66
$GPGSA,A,3,13,08,28,23,,,,,,,,,4.9,2.3,4.3*38
$GPRMC,203327.000,A,3748.7928,N,12217.8524,W,1.71,108.71,220611,,,A*75
$GPVTG,108.71,T,,M,1.71,N,3.2,K,A*04
$GPGGA,203328.000,3748.7933,N,12217.8519,W,1,04,2.3,4.6,M,-25.1,M,,0000*6E
$GPGSA,A,3,13,08,28,23,,,,,,,,,4.9,2.3,4.3*38
$GPRMC,203328.000,A,3748.7933,N,12217.8519,W,2.47,112.70,220611,,,A*72
$GPVTG,112.70,T,,M,2.47,N,4.6,K,A*0B
$GPGGA,203329.000,3748.7936,N,12217.8512,W,1,04,2.3,2.9,M,-25.1,M,,0000*68
$GPGSA,A,3,13,08,28,23,,,,,,,,,4.9,2.3,4.3*38
$GPRMC,203329.000,A,3748.7936,N,12217.8512,W,1.97,119.01,220611,,,A*7E
$GPVTG,119.01,T,,M,1.97,N,3.6,K,A*0F
$GPGGA,203330.000,3748.7938,N,12217.8505,W,1,04,2.3,1.5,M,-25.1,M,,0000*67
$GPGSA,A,3,13,08,28,23,,,,,,,,,4.9,2.3,4.3*38
$GPGSV,3,1,12,13,59,125,32,08,48,297,32,28,30,219,36,23,26,134,32*7C
$GPGSV,3,2,12,07,66,346,26,10,38,250,36,19,30,091,25,03,24,057,23*73
$GPGSV,3,3,12,05,20,306,25,06,14,046,22,16,04,043,24,51,43,156,37*79
$GPVTG,117.67,T,,M,2.05,N,3.8,K,A*07
$GPGGA,203331.000,3748.7938,N,12217.8498,W,1,04,2.3,0.2,M,-25.1,M,,0000*65
$GPGSA,A,3,13,08,28,23,,,,,,,,,4.9,2.3,4.3*38
$GPRMC,203331.000,A,3748.7938,N,12217.8498,W,2.02,123.63,220611,,,A*78
$GPVTG,123.63,T,,M,2.02,N,3.7,K,A*0C
$GPGGA,203332.000,3748.7938,N,12217.8491,W,1,04,2.3,-0.9,M,-25.1,M,,0000*49
$GPGSA,A,3,13,08,28,23,,,,,,,,,4.9,2.3,4.3*38
$GPRMC,203332.000,A,3748.7938,N,12217.8491,W,2.13,119.57,220611,,,A*7C
$GPVTG,119.57,T,,M,2.13,N,3.9,K,A*0C
$GPGGA,203333.000,3748.7937,N,12217.8485,W,1,04,2.3,-1.6,M,-25.1,M,,0000*4C
$GPGSA,A,3,13,08,28,23,,,,,,,,,4.9,2.3,4.3*38
$GPRMC,203333.000,A,3748.7937,N,12217.8485,W,2.11,119.53,220611,,,A*71
$GPVTG,119.53,T,,M,2.11,N,3.9,K,A*0A
$GPGGA,203334.000,3748.7936,N,12217.8478,W,1,04,2.3,-2.2,M,-25.1,M,,0000*4F
$GPGSA,A,3,13,08,28,23,,,,,,,,,4.9,2.3,4.3*38
$GPRMC,203334.000,A,3748.7936,N,12217.8478,W,2.16,114.89,220611,,,A*78
$GPVTG,114.89,T,,M,2.16,N,4.0,K,A*09
$GPGGA,203335.000,3748.7935,N,12217.8471,W,1,04,2.3,-2.8,M,-25.1,M,,0000*4E
$GPGSA,A,3,13,08,28,23,,,,,,,,,4.9,2.3,4.3*38
$GPGSV,3,1,12,13,59,125,32,08,48,297,32,28,30,219,37,23,26,134,33*7C
$GPGSV,3,2,12,07,66,346,26,10,38,250,37,19,30,091,33,03,24,057,19*7C
$GPGSV,3,3,12,05,20,306,26,06,14,046,16,16,04,043,18,51,43,156,35*70
$GPRMC,203335.000,A,3748.7935,N,12217.8471,W,2.34,112.45,220611,,,A*75
$GPVTG,112.45,T,,M,2.34,N,4.3,K,A*0C
$GPGGA,203336.000,3748.7934,N,12217.8463,W,1,04,2.3,-3.5,M,-25.1,M,,0000*43
$GPGSA,A,3,13,08,28,23,,,,,,,,,4.9,2.3,4.3*38
$GPRMC,203336.000,A,3748.7934,N,12217.8463,W,2.19,112.33,220611,,,A*7A
$GPVTG,112.33,T,,M,2.19,N,4.1,K,A*00
$GPGGA,203337.000,3748.7931,N,12217.8454,W,1,04,2.3,-4.1,M,-25.1,M,,0000*40
$GPGSA,A,3,13,08,28,23,,,,,,,,,4.9,2.3,4.3*38
$GPRMC,203337.000,A,3748.7931,N,12217.8454,W,2.20,113.20,220611,,,A*73
$GPVTG,113.20,T,,M,2.20,N,4.1,K,A*09
$GPGGA,203338.000,3748.7930,N,12217.8447,W,1,04,2.3,-4.8,M,-25.1,M,,0000*45
$GPGSA,A,3,13,08,28,23,,,,,,,,,4.9,2.3,4.3*38
$GPRMC,203338.000,A,3748.7930,N,12217.8447,W,1.74,102.42,220611,,,A*79
$GPVTG,102.42,T,,M,1.74,N,3.2,K,A*0B
$GPGGA,203339.000,3748.7933,N,12217.8442,W,1,04,2.3,-5.8,M,-25.1,M,,0000*43
$GPGSA,A,3,13,08,28,23,,,,,,,,,4.9,2.3,4.3*38
$GPRMC,203339.000,A,3748.7933,N,12217.8442,W,1.67,101.68,220611,,,A*77
$GPVTG,101.68,T,,M,1.67,N,3.1,K,A*01
$GPGGA,203340.000,3748.7932,N,12217.8436,W,1,04,2.3,-5.5,M,-25.1,M,,0000*42
$GPGSA,A,3,13,08,28,23,,,,,,,,,4.9,2.3,4.3*38
$GPGSV,3,1,12,07,66,347,26,13,59,125,28,08,48,297,31,10,38,250,32*7F
$GPGSV,3,2,12,28,30,219,35,19,30,090,27,23,26,134,31,03,23,057,19*70
$GPGSV,3,3,12,05,20,306,25,06,14,046,17,16,04,043,18,51,43,156,32*75
$GPRMC,203340.000,A,3748.7932,N,12217.8436,W,1.84,107.95,220611,,,A*72
$GPVTG,107.95,T,,M,1.84,N,3.4,K,A*0D
$GPGGA,203341.000,3748.7931,N,12217.8432,W,1,04,2.3,-5.4,M,-25.1,M,,0000*45
$GPGSA,A,3,13,08,28,23,,,,,,,,,4.9,2.3,4.3*38
$GPRMC,203341.000,A,3748.7931,N,12217.8432,W,1.14,108.01,220611,,,A*7F
$GPVTG,108.01,T,,M,1.14,N,2.1,K,A*02
$GPGGA,203342.000,3748.7928,N,12217.8432,W,1,04,2.3,-5.4,M,-25.1,M,,0000*4E
$GPGSA,A,3,13,08,28,23,,,,,,,,,4.9,2.3,4.3*38
$GPRMC,203342.000,A,3748.7928,N,12217.8432,W,0.60,126.19,220611,,,A*73
$GPVTG,126.19,T,,M,0.60,N,1.1,K,A*06
$GPGGA,203343.000,3748.7927,N,12217.8428,W,1,04,2.3,-5.5,M,-25.1,M,,0000*4A
$GPGSA,A,3,13,08,28,23,,,,,,,,,4.9,2.3,4.3*38
$GPRMC,203343.000,A,3748.7927,N,12217.8428,W,1.13,82.50,220611,,,A*41
$GPVTG,82.50,T,,M,1.13,N,2.1,K,A*32
$GPGGA,203344.000,3748.7924,N,12217.8422,W,1,04,2.3,-5.5,M,-25.1,M,,0000*44
$GPGSA,A,3,13,08,28,23,,,,,,,,,4.9,2.3,4.3*38
$GPRMC,203344.000,A,3748.7924,N,12217.8422,W,1.60,101.05,220611,,,A*71
$GPVTG,101.05,T,,M,1.60,N,3.0,K,A*0C
$GPGGA,203345.000,3748.7920,N,12217.8416,W,1,04,2.3,-5.0,M,-25.1,M,,0000*43
$GPGSA,A,3,13,08,28,23,,,,,,,,,4.9,2.3,4.3*38
$GPGSV,3,1,12,07,66,347,25,13,59,125,35,08,48,297,25,10,38,250,37*70
$GPGSV,3,2,12,28,30,219,36,19,30,090,34,23,26,134,34,03,23,057,25*7B
$GPGSV,3,3,12,05,20,306,24,06,14,046,18,16,04,043,19,51,43,156,36*7E
$GPRMC,203345.000,A,3748.7920,N,12217.8416,W,2.05,114.13,220611,,,A*70
$GPGGA,203346.000,3748.7916,N,12217.8411,W,1,04,2.3,-4.3,M,-25.1,M,,0000*40
$GPGSA,A,3,13,08,28,23,,,,,,,,,4.9,2.3,4.3*38
$GPRMC,203346.000,A,3748.7916,N,12217.8411,W,2.04,117.39,220611,,,A*7B
$GPVTG,117.39,T,,M,2.04,N,3.8,K,A*0D
$GPGGA,203347.000,3748.7910,N,12217.8405,W,1,04,2.3,-3.3,M,-25.1,M,,0000*45
$GPGSA,A,3,13,08,28,23,,,,,,,,,4.9,2.3,4.3*38
$GPRMC,203347.000,A,3748.7910,N,12217.8405,W,1.97,114.31,220611,,,A*7B
$GPVTG,114.31,T,,M,1.97,N,3.7,K,A*00
$GPGGA,203348.000,3748.7905,N,12217.8398,W,1,04,2.3,-2.7,M,-25.1,M,,0000*48
$GPGSA,A,3,13,08,28,23,,,,,,,,,4.9,2.3,4.3*38
$GPRMC,203348.000,A,3748.7905,N,12217.8398,W,2.04,121.01,220611,,,A*7F
$GPVTG,121.01,T,,M,2.04,N,3.8,K,A*03
$GPGGA,203349.000,3748.7898,N,12217.8392,W,1,04,2.3,-2.0,M,-25.1,M,,0000*41
$GPGSA,A,3,13,08,28,23,,,,,,,,,4.9,2.3,4.3*38
$GPRMC,203349.000,A,3748.7898,N,12217.8392,W,2.15,123.71,220611,,,A*74
$GPVTG,123.71,T,,M,2.15,N,4.0,K,A*09
$GPGGA,203350.000,3748.7888,N,12217.8385,W,1,04,2.3,-0.9,M,-25.1,M,,0000*45
$GPGSA,A,3,13,08,28,23,,,,,,,,,4.9,2.3,4.3*38
$GPGSV,3,1,12,07,66,347,25,13,59,125,34,08,48,297,30,10,38,250,37*75
$GPGSV,3,2,12,28,30,219,37,19,30,090,27,23,26,134,34,03,23,057,24*79
$GPGSV,3,3,12,05,20,306,25,06,14,046,25,16,04,043,25,51,43,156,36*7E
$GPRMC,203350.000,A,3748.7888,N,12217.8385,W,1.82,111.41,220611,,,A*74
$GPVTG,111.41,T,,M,1.82,N,3.4,K,A*05
$GPGGA,203351.000,3748.7883,N,12217.8380,W,1,05,2.2,-0.2,M,-25.1,M,,0000*41
$GPGSA,A,3,13,08,28,23,10,,,,,,,,4.8,2.2,4.3*39
$GPRMC,203351.000,A,3748.7883,N,12217.8380,W,2.05,113.26,220611,,,A*74
$GPVTG,113.26,T,,M,2.05,N,3.8,K,A*06
$GPGGA,203352.000,3748.7879,N,12217.8374,W,1,05,2.2,0.4,M,-25.1,M,,0000*67
$GPGSA,A,3,13,08,28,23,10,,,,,,,,4.8,2.2,4.3*39
$GPRMC,203352.000,A,3748.7879,N,12217.8374,W,2.03,106.13,220611,,,A*7D
$GPVTG,106.13,T,,M,2.03,N,3.8,K,A*02
$GPGGA,203353.000,3748.7871,N,12217.8369,W,1,05,2.2,1.2,M,-25.1,M,,0000*65
$GPGSA,A,3,13,08,28,23,10,,,,,,,,4.8,2.2,4.3*39
$GPRMC,203353.000,A,3748.7871,N,12217.8369,W,1.95,111.44,220611,,,A*70
$GPVTG,111.44,T,,M,1.95,N,3.6,K,A*04
$GPGGA,203354.000,3748.7865,N,12217.8364,W,1,05,2.2,1.9,M,-25.1,M,,0000*61
$GPGSA,A,3,13,08,28,23,10,,,,,,,,4.8,2.2,4.3*39
$GPRMC,203354.000,A,3748.7865,N,12217.8364,W,1.98,118.34,220611,,,A*7C
$GPVTG,118.34,T,,M,1.98,N,3.7,K,A*06
$GPGGA,203355.000,3748.7860,N,12217.8360,W,1,05,2.2,2.9,M,-25.1,M,,0000*62
$GPGSA,A,3,13,08,28,23,10,,,,,,,,4.8,2.2,4.3*39
$GPGSV,3,1,12,07,66,347,25,13,59,125,34,08,48,297,27,10,38,250,33*77
$GPGSV,3,2,12,28,30,219,33,19,30,090,31,23,26,134,26,03,23,057,24*79
$GPGSV,3,3,12,05,20,306,25,06,14,046,23,16,04,043,,51,43,156,36*7F
$GPRMC,203355.000,A,3748.7860,N,12217.8360,W,1.78,128.78,220611,,,A*79
$GPVTG,128.78,T,,M,1.78,N,3.3,K,A*07
$GPGGA,203356.000,3748.7855,N,12217.8356,W,1,05,2.2,3.9,M,-25.1,M,,0000*63
$GPGSA,A,3,13,08,28,23,10,,,,,,,,4.8,2.2,4.3*39
$GPRMC,203356.000,A,3748.7855,N,12217.8356,W,2.23,130.99,220611,,,A*72
$GPVTG,130.99,T,,M,2.23,N,4.1,K,A*09
$GPGGA,203357.000,3748.7845,N,12217.8351,W,1,05,2.2,5.2,M,-25.1,M,,0000*69
$GPGSA,A,3,13,08,28,23,10,,,,,,,,4.8,2.2,4.3*39
$GPRMC,203357.000,A,3748.7845,N,12217.8351,W,2.37,124.35,220611,,,A*73
$GPVTG,124.35,T,,M,2.37,N,4.4,K,A*0A
$GPGGA,203358.000,3748.7840,N,12217.8345,W,2,05,2.2,5.8,M,-25.1,M,1.8,0000*48
$GPGSA,A,3,13,08,28,23,10,,,,,,,,4.8,2.2,4.3*39
$GPRMC,203358.000,A,3748.7840,N,12217.8345,W,1.94,121.35,220611,,,D*76
$GPVTG,121.35,T,,M,1.94,N,3.6,K,D*05
$GPGGA,203359.000,3748.7837,N,12217.8339,W,2,05,2.2,6.1,M,-25.1,M,1.8,0000*48
$GPGSA,A,3,13,08,28,23,10,,,,,,,,4.8,2.2,4.3*39
$GPRMC,203359.000,A,3748.7837,N,12217.8339,W,1.92,120.87,220611,,,D*72
$GPVTG,120.87,T,,M,1.92,N,3.6,K,D*0B
$GPGGA,203400.000,3748.7833,N,12217.8333,W,2,05,2.2,6.7,M,-25.1,M,1.8,0000*4B
$GPGSA,A,3,13,08,28,23,10,,,,,,,,4.8,2.2,4.3*39
$GPGSV,3,1,12,07,66,347,25,13,59,125,33,08,48,297,34,10,38,250,35*74
$GPGSV,3,2,12,28,30,219,40,19,30,090,31,23,26,134,29,03,23,057,24*72
$GPGSV,3,3,12,05,20,306,25,06,14,046,23,16,04,043,,51,43,156,32*7B
$GPRMC,203400.000,A,3748.7833,N,12217.8333,W,1.83,126.63,220611,,,D*7B
$GPGGA,203401.000,3748.7830,N,12217.8327,W,2,05,2.2,6.8,M,-25.1,M,2.8,0000*40
$GPGSA,A,3,13,08,28,23,10,,,,,,,,4.8,2.2,4.3*39
$GPRMC,203401.000,A,3748.7830,N,12217.8327,W,2.23,120.24,220611,,,D*70
$GPVTG,120.24,T,,M,2.23,N,4.1,K,D*0B
$GPGGA,203402.000,3748.7828,N,12217.8319,W,2,05,2.2,6.6,M,-25.1,M,3.8,0000*48
$GPGSA,A,3,13,08,28,23,10,,,,,,,,4.8,2.2,4.3*39
$GPRMC,203402.000,A,3748.7828,N,12217.8319,W,2.13,119.77,220611,,,D*78
$GPVTG,119.77,T,,M,2.13,N,4.0,K,D*05
$GPGGA,203403.000,3748.7825,N,12217.8312,W,2,05,2.2,6.2,M,-25.1,M,4.8,0000*4C
$GPGSA,A,3,13,08,28,23,10,,,,,,,,4.8,2.2,4.3*39
$GPRMC,203403.000,A,3748.7825,N,12217.8312,W,2.24,128.11,220611,,,D*79
$GPVTG,128.11,T,,M,2.24,N,4.1,K,D*02
$GPGGA,203404.000,3748.7821,N,12217.8307,W,2,05,2.2,6.8,M,-25.1,M,1.8,0000*44
$GPGSA,A,3,13,08,28,23,10,,,,,,,,4.8,2.2,4.3*39
$GPRMC,203404.000,A,3748.7821,N,12217.8307,W,2.08,134.10,220611,,,D*7C
$GPVTG,134.10,T,,M,2.08,N,3.9,K,D*0F
$GPGGA,203405.000,3748.7813,N,12217.8301,W,2,05,2.2,7.8,M,-25.1,M,1.8,0000*43
$GPGSA,A,3,13,08,28,23,10,,,,,,,,4.8,2.2,4.3*39
$GPGSV,3,1,12,07,66,347,26,13,59,125,34,08,48,297,32,10,38,250,35*76
$GPGSV,3,2,12,28,30,219,36,19,30,090,30,23,26,134,28,03,23,057,21*76
$GPGSV,3,3,12,05,20,306,26,06,14,046,19,16,04,043,,51,43,156,29*7B
$GPRMC,203405.000,A,3748.7813,N,12217.8301,W,2.02,121.48,220611,,,D*79
$GPVTG,121.48,T,,M,2.02,N,3.7,K,D*02
$GPGGA,203406.000,3748.7809,N,12217.8295,W,2,05,2.2,8.4,M,-25.1,M,1.8,0000*44
$GPGSA,A,3,13,08,28,23,10,,,,,,,,4.8,2.2,4.3*39
$GPRMC,203406.000,A,3748.7809,N,12217.8295,W,2.19,119.83,220611,,,D*7B
$GPVTG,119.83,T,,M,2.19,N,4.1,K,D*05
$GPGGA,203407.000,3748.7804,N,12217.8287,W,2,05,2.2,8.3,M,-25.1,M,2.8,0000*4F
$GPGSA,A,3,13,08,28,23,10,,,,,,,,4.8,2.2,4.3*39
$GPRMC,203407.000,A,3748.7804,N,12217.8287,W,2.28,112.77,220611,,,D*76
$GPVTG,112.77,T,,M,2.28,N,4.2,K,D*04
$GPGGA,203408.000,3748.7799,N,12217.8279,W,2,05,2.2,8.0,M,-25.1,M,3.8,0000*48
$GPGSA,A,3,13,08,28,23,10,,,,,,,,4.8,2.2,4.3*39
$GPRMC,203408.000,A,3748.7799,N,12217.8279,W,2.58,131.99,220611,,,D*75
$GPVTG,131.99,T,,M,2.58,N,4.8,K,D*08
$GPGGA,203409.000,3748.7791,N,12217.8271,W,2,05,2.2,8.1,M,-25.1,M,4.8,0000*4F
$GPGSA,A,3,13,08,28,23,10,,,,,,,,4.8,2.2,4.3*39
$GPRMC,203409.000,A,3748.7791,N,12217.8271,W,2.51,135.35,220611,,,D*7F
$GPVTG,135.35,T,,M,2.51,N,4.7,K,D*0C
$GPGGA,203410.000,3748.7793,N,12217.8263,W,2,05,2.2,7.1,M,-25.1,M,5.8,0000*48
$GPGSA,A,3,13,08,28,23,10,,,,,,,,4.8,2.2,4.3*39
$GPGSV,3,1,12,07,66,347,25,13,59,125,31,08,48,297,26,10,38,250,30*70
$GPGSV,3,2,12,28,30,219,33,19,30,090,33,23,26,134,39,03,23,057,26*77
$GPGSV,3,3,12,05,20,306,31,06,14,046,19,16,04,043,18,51,43,156,34*78
$GPRMC,203410.000,A,3748.7793,N,12217.8263,W,2.14,124.20,220611,,,D*73
$GPVTG,124.20,T,,M,2.14,N,4.0,K,D*0E
$GPGGA,203411.000,3748.7790,N,12217.8255,W,2,05,2.2,6.4,M,-25.1,M,6.8,0000*48
$GPGSA,A,3,13,08,28,23,10,,,,,,,,4.8,2.2,4.2*38
$GPRMC,203411.000,A,3748.7790,N,12217.8255,W,2.06,109.46,220611,,,D*78
$GPVTG,109.46,T,,M,2.06,N,3.8,K,D*0D
$GPGGA,203412.000,3748.7790,N,12217.8247,W,2,05,2.2,5.8,M,-25.1,M,1.8,0000*40
$GPGSA,A,3,13,08,28,23,10,,,,,,,,4.8,2.2,4.2*38
$GPRMC,203412.000,A,3748.7790,N,12217.8247,W,2.22,112.03,220611,,,D*75
$GPVTG,112.03,T,,M,2.22,N,4.1,K,D*0E
$GPGGA,203413.000,3748.7788,N,12217.8239,W,2,05,2.2,5.0,M,-25.1,M,1.8,0000*49
$GPGSA,A,3,13,08,28,23,10,,,,,,,,4.8,2.2,4.2*38
$GPRMC,203413.000,A,3748.7788,N,12217.8239,W,2.29,118.72,220611,,,D*73
$GPVTG,118.72,T,,M,2.29,N,4.2,K,D*0A
$GPGGA,203414.000,3748.7787,N,12217.8232,W,2,05,2.2,3.9,M,-25.1,M,2.8,0000*46
$GPGSA,A,3,13,08,28,23,10,,,,,,,,4.8,2.2,4.2*38
$GPRMC,203414.000,A,3748.7787,N,12217.8232,W,2.18,124.44,220611,,,D*78
$GPVTG,124.44,T,,M,2.18,N,4.0,K,D*00
$GPGGA,203415.000,3748.7789,N,12217.8225,W,2,05,2.2,1.9,M,-25.1,M,3.8,0000*4C
$GPGSA,A,3,13,08,28,23,10,,,,,,,,4.8,2.2,4.2*38
$GPGSV,3,1,12,07,66,347,25,13,59,125,29,08,48,297,32,10,38,250,37*7B
$GPGSV,3,2,12,28,30,219,39,19,30,090,27,23,26,134,31,03,23,057,19*7C
$GPGSV,3,3,12,05,20,306,22,06,14,046,19,16,04,043,17,51,43,156,38*79
$GPVTG,114.06,T,,M,2.30,N,4.3,K,D*0C
$GPGGA,203416.000,3748.7789,N,12217.8218,W,2,05,2.2,0.5,M,-25.1,M,1.8,0000*4E
$GPGSA,A,3,13,08,28,23,10,,,,,,,,4.8,2.2,4.2*38
$GPRMC,203416.000,A,3748.7789,N,12217.8218,W,2.02,97.70,220611,,,D*49
$GPVTG,97.70,T,,M,2.02,N,3.7,K,D*35
$GPGGA,203417.000,3748.7786,N,12217.8210,W,2,05,2.2,0.7,M,-25.1,M,1.8,0000*4A
$GPGSA,A,3,13,08,28,23,10,,,,,,,,4.8,2.2,4.2*38
$GPRMC,203417.000,A,3748.7786,N,12217.8210,W,1.87,94.49,220611,,,D*48
$GPVTG,94.49,T,,M,1.87,N,3.5,K,D*30
$GPGGA,203418.000,3748.7779,N,12217.8203,W,2,05,2.2,1.7,M,-25.1,M,1.8,0000*46
$GPGSA,A,3,13,08,28,23,10,,,,,,,,4.8,2.2,4.2*38
$GPRMC,203418.000,A,3748.7779,N,12217.8203,W,2.11,117.28,220611,,,D*74
$GPVTG,117.28,T,,M,2.11,N,3.9,K,D*0D
$GPGGA,203419.000,3748.7778,N,12217.8196,W,2,05,2.2,1.4,M,-25.1,M,2.8,0000*49
$GPGSA,A,3,13,08,28,23,10,,,,,,,,4.8,2.2,4.2*38
$GPRMC,203419.000,A,3748.7778,N,12217.8196,W,2.33,116.21,220611,,,D*73
$GPVTG,116.21,T,,M,2.33,N,4.3,K,D*08
$GPGGA,203420.000,3748.7779,N,12217.8188,W,2,05,2.2,1.1,M,-25.1,M,3.8,0000*49
$GPGSA,A,3,13,08,28,23,10,,,,,,,,4.8,2.2,4.2*38
$GPGSV,3,1,12,07,66,347,25,13,59,125,31,08,48,297,29,10,38,250,34*7B
$GPGSV,3,2,12,28,30,219,38,19,30,090,31,23,26,134,35,03,23,057,23*77
$GPGSV,3,3,12,05,20,306,27,06,14,046,19,16,04,043,16,51,43,156,37*72
$GPRMC,203420.000,A,3748.7779,N,12217.8188,W,2.14,106.27,220611,,,D*75
$GPVTG,106.27,T,,M,2.14,N,4.0,K,D*09
$GPGGA,203421.000,3748.7774,N,12217.8181,W,2,05,2.2,1.6,M,-25.1,M,1.8,0000*49
$GPGSA,A,3,13,08,28,23,10,,,,,,,,4.8,2.2,4.2*38
$GPRMC,203421.000,A,3748.7774,N,12217.8181,W,1.82,99.34,220611,,,D*49
$GPVTG,99.34,T,,M,1.82,N,3.4,K,D*33
$GPGGA,203422.000,3748.7768,N,12217.8174,W,2,05,2.2,2.1,M,-25.1,M,1.8,0000*49
$GPGSA,A,3,13,08,28,23,10,,,,,,,,4.8,2.2,4.2*38
$GPRMC,203422.000,A,3748.7768,N,12217.8174,W,1.96,107.85,220611,,,D*74
$GPVTG,107.85,T,,M,1.96,N,3.6,K,D*08
$GPGGA,203423.000,3748.7764,N,12217.8167,W,2,05,2.2,2.4,M,-25.1,M,1.8,0000*43
$GPGSA,A,3,13,08,28,23,10,,,,,,,,4.8,2.2,4.2*38
$GPRMC,203423.000,A,3748.7764,N,12217.8167,W,2.26,108.12,220611,,,D*72
$GPVTG,108.12,T,,M,2.26,N,4.2,K,D*02
$GPGGA,203424.000,3748.7759,N,12217.8160,W,2,05,2.2,2.7,M,-25.1,M,2.8,0000*4D
$GPGSA,A,3,13,08,28,23,10,,,,,,,,4.8,2.2,4.2*38
$GPRMC,203424.000,A,3748.7759,N,12217.8160,W,2.28,116.90,220611,,,D*77
$GPVTG,116.90,T,,M,2.28,N,4.2,K,D*09
$GPGGA,203425.000,3748.7751,N,12217.8153,W,2,05,2.2,3.5,M,-25.1,M,3.8,0000*46
$GPGSA,A,3,13,08,28,23,10,,,,,,,,4.8,2.2,4.2*38
$GPGSV,3,1,12,07,66,347,25,13,59,125,33,08,48,297,24,10,38,250,37*77
$GPGSV,3,2,12,28,30,219,39,19,30,090,31,23,26,134,36,03,23,057,23*75
$GPGSV,3,3,12,05,20,306,28,06,14,046,19,16,04,043,15,51,43,156,38*71
$GPRMC,203425.000,A,3748.7751,N,12217.8153,W,2.09,115.86,220611,,,D*79
$GPVTG,115.86,T,,M,2.09,N,3.9,K,D*02
$GPGGA,203426.000,3748.7746,N,12217.8146,W,2,05,2.2,3.7,M,-25.1,M,4.8,0000*42
$GPGSA,A,3,13,08,28,23,10,,,,,,,,4.8,2.2,4.2*38
$GPRMC,203426.000,A,3748.7746,N,12217.8146,W,2.10,101.41,220611,,,D*7E
$GPVTG,101.41,T,,M,2.10,N,3.9,K,D*04
$GPGGA,203427.000,3748.7738,N,12217.8139,W,2,05,2.2,4.4,M,-25.1,M,5.8,0000*47
$GPGSA,A,3,13,08,28,23,10,,,,,,,,4.8,2.2,4.2*38
$GPRMC,203427.000,A,3748.7738,N,12217.8139,W,2.33,119.78,220611,,,D*7C
$GPVTG,119.78,T,,M,2.33,N,4.3,K,D*0B
$GPGGA,203428.000,3748.7735,N,12217.8131,W,2,05,2.2,4.5,M,-25.1,M,1.8,0000*48
$GPGSA,A,3,13,08,28,23,10,,,,,,,,4.8,2.2,4.2*38
$GPRMC,203428.000,A,3748.7735,N,12217.8131,W,2.34,112.82,220611,,,D*7F
$GPVTG,112.82,T,,M,2.34,N,4.3,K,D*02
$GPGGA,203429.000,3748.7735,N,12217.8124,W,2,05,2.2,4.0,M,-25.1,M,1.8,0000*48
$GPGSA,A,3,13,08,28,23,10,,,,,,,,4.8,2.2,4.2*38
$GPRMC,203429.000,A,3748.7735,N,12217.8124,W,2.49,118.76,220611,,,D*71
$GPVTG,118.76,T,,M,2.49,N,4.6,K,D*0C
$GPGGA,203430.000,3748.7737,N,12217.8117,W,2,05,2.2,3.1,M,-25.1,M,1.8,0000*44
$GPGSA,A,3,13,08,28,23,10,,,,,,,,4.8,2.2,4.2*38
$GPGSV,3,1,12,07,66,347,24,13,59,125,33,08,48,297,28,10,38,250,37*7A
$GPGSV,3,2,12,28,30,219,38,19,30,090,31,23,26,134,36,03,23,057,22*75
$GPGSV,3,3,12,05,20,306,26,06,14,046,20,16,04,043,15,51,43,156,36*7B
$GPRMC,203430.000,A,3748.7737,N,12217.8117,W,2.02,115.34,220611,,,D*7F
$GPVTG,115.34,T,,M,2.02,N,3.7,K,D*0E
$GPGGA,203431.000,3748.7734,N,12217.8111,W,2,05,2.2,2.8,M,-25.1,M,2.8,0000*4B
$GPGSA,A,3,13,08,28,23,10,,,,,,,,4.8,2.2,4.2*38
$GPRMC,203431.000,A,3748.7734,N,12217.8111,W,1.96,118.33,220611,,,D*7F
$GPVTG,118.33,T,,M,1.96,N,3.6,K,D*0B
$GPGGA,203432.000,3748.7730,N,12217.8105,W,2,05,2.2,2.6,M,-25.1,M,3.8,0000*46
$GPGSA,A,3,13,08,28,23,10,,,,,,,,4.8,2.2,4.2*38
$GPRMC,203432.000,A,3748.7730,N,12217.8105,W,2.35,123.82,220611,,,D*75
$GPVTG,123.82,T,,M,2.35,N,4.3,K,D*01
$GPGGA,203433.000,3748.7722,N,12217.8099,W,2,05,2.2,3.0,M,-25.1,M,1.8,0000*45
$GPGSA,A,3,13,08,28,23,10,,,,,,,,4.8,2.2,4.2*38
$GPRMC,203433.000,A,3748.7722,N,12217.8099,W,2.30,115.74,220611,,,D*7A
$GPVTG,115.74,T,,M,2.30,N,4.3,K,D*08
$GPGGA,203434.000,3748.7717,N,12217.8092,W,2,05,2.2,3.1,M,-25.1,M,1.8,0000*4E
$GPGSA,A,3,13,08,28,23,10,,,,,,,,4.8,2.2,4.2*38
$GPRMC,203434.000,A,3748.7717,N,12217.8092,W,2.17,108.89,220611,,,D*7B
$GPVTG,108.89,T,,M,2.17,N,4.0,K,D*00
$GPGGA,203435.000,3748.7715,N,12217.8084,W,2,05,2.2,2.4,M,-25.1,M,1.8,0000*4E
$GPGSA,A,3,13,08,28,23,10,,,,,,,,4.8,2.2,4.2*38
$GPGSV,3,1,12,07,66,347,24,13,59,125,32,08,48,297,22,10,38,250,33*75
$GPGSV,3,2,12,28,30,219,39,19,30,090,29,23,26,134,37,03,23,057,22*7C
$GPGSV,3,3,12,05,20,306,23,06,14,046,24,16,04,043,18,51,43,156,39*78
$GPRMC,203435.000,A,3748.7715,N,12217.8084,W,2.05,101.29,220611,,,D*7F
$GPGGA,203436.000,3748.7712,N,12217.8077,W,2,05,2.2,2.3,M,-25.1,M,1.8,0000*41
$GPGSA,A,3,13,08,28,23,10,,,,,,,,4.8,2.2,4.2*38
$GPRMC,203436.000,A,3748.7712,N,12217.8077,W,2.15,86.06,220611,,,D*45
$GPVTG,86.06,T,,M,2.15,N,4.0,K,D*32
$GPGGA,203437.000,3748.7708,N,12217.8070,W,2,05,2.2,2.5,M,-25.1,M,2.8,0000*49
$GPGSA,A,3,13,08,28,23,10,,,,,,,,4.8,2.2,4.2*38
$GPRMC,203437.000,A,3748.7708,N,12217.8070,W,2.05,88.30,220611,,,D*42
$GPVTG,88.30,T,,M,2.05,N,3.8,K,D*37
$GPGGA,203438.000,3748.7702,N,12217.8063,W,2,05,2.2,2.8,M,-25.1,M,3.8,0000*42
$GPGSA,A,3,13,08,28,23,10,,,,,,,,4.8,2.2,4.2*38
$GPRMC,203438.000,A,3748.7702,N,12217.8063,W,2.03,102.69,220611,,,D*7C
$GPVTG,102.69,T,,M,2.03,N,3.8,K,D*0E
$GPGGA,203439.000,3748.7701,N,12217.8056,W,2,05,2.2,2.3,M,-25.1,M,4.8,0000*4A
$GPGSA,A,3,13,08,28,23,10,,,,,,,,4.8,2.2,4.2*38
$GPRMC,203439.000,A,3748.7701,N,12217.8056,W,2.18,105.48,220611,,,D*76
$GPVTG,105.48,T,,M,2.18,N,4.0,K,D*0F
$GPGGA,203440.000,3748.7704,N,12217.8049,W,2,05,2.2,1.2,M,-25.1,M,1.8,0000*48
$GPGSA,A,3,13,08,28,23,10,,,,,,,,4.8,2.2,4.2*38
$GPGSV,3,1,12,07,66,348,24,13,58,126,33,08,48,298,28,10,38,250,38*77
$GPGSV,3,2,12,28,30,219,38,19,30,090,26,23,26,134,37,03,23,056,23*72
$GPGSV,3,3,12,05,20,306,26,06,14,046,23,16,04,043,16,51,43,156,38*75
$GPRMC,203440.000,A,3748.7704,N,12217.8049,W,2.10,112.25,220611,,,D*76
$GPVTG,112.25,T,,M,2.10,N,3.9,K,D*04
$GPGGA,203441.000,3748.7703,N,12217.8042,W,2,05,2.2,0.5,M,-25.1,M,1.8,0000*43
$GPGSA,A,3,13,08,28,23,10,,,,,,,,4.8,2.2,4.2*38
$GPRMC,203441.000,A,3748.7703,N,12217.8042,W,2.19,118.28,220611,,,D*75
$GPVTG,118.28,T,,M,2.19,N,4.1,K,D*05
$GPGGA,203442.000,3748.7702,N,12217.8036,W,2,05,2.2,-0.1,M,-25.1,M,1.8,0000*6B
$GPGSA,A,3,13,08,28,23,10,,,,,,,,4.8,2.2,4.2*38
$GPRMC,203442.000,A,3748.7702,N,12217.8036,W,2.14,120.25,220611,,,D*7F
$GPVTG,120.25,T,,M,2.14,N,4.0,K,D*0F
$GPGGA,203443.000,3748.7699,N,12217.8029,W,2,05,2.2,-0.5,M,-25.1,M,1.8,0000*63
$GPGSA,A,3,13,08,28,23,10,,,,,,,,4.8,2.2,4.2*38
$GPRMC,203443.000,A,3748.7699,N,12217.8029,W,1.94,108.91,220611,,,D*7D
$GPVTG,108.91,T,,M,1.94,N,3.6,K,D*00
$GPGGA,203444.000,3748.7692,N,12217.8023,W,2,05,2.2,-0.3,M,-25.1,M,2.8,0000*60
$GPGSA,A,3,13,08,28,23,10,,,,,,,,4.8,2.2,4.2*38
$GPRMC,203444.000,A,3748.7692,N,12217.8023,W,2.13,117.22,220611,,,D*71
$GPVTG,117.22,T,,M,2.13,N,3.9,K,D*05
$GPGGA,203445.000,3748.7687,N,12217.8017,W,2,05,2.2,-0.3,M,-25.1,M,3.8,0000*63
$GPGSA,A,3,13,08,28,23,10,,,,,,,,4.8,2.2,4.2*38
$GPGSV,3,1,12,07,66,348,24,13,58,126,34,08,48,298,30,10,38,250,38*79
$GPGSV,3,2,12,28,30,219,38,19,30,090,32,23,26,134,37,03,23,056,20*74
$GPGSV,3,3,12,05,20,306,27,06,14,046,22,16,04,043,17,51,43,156,37*7B
$GPRMC,203445.000,A,3748.7687,N,12217.8017,W,2.09,121.43,220611,,,D*7A
$GPVTG,121.43,T,,M,2.09,N,3.9,K,D*0C
$GPGGA,203446.000,3748.7684,N,12217.8010,W,2,05,2.2,-0.6,M,-25.1,M,1.8,0000*63
$GPGSA,A,3,13,08,28,23,10,,,,,,,,4.8,2.2,4.2*38
$GPRMC,203446.000,A,3748.7684,N,12217.8010,W,2.32,116.31,220611,,,D*74
$GPVTG,116.31,T,,M,2.32,N,4.3,K,D*08
$GPGGA,203447.000,3748.7681,N,12217.8003,W,2,05,2.2,-0.8,M,-25.1,M,1.8,0000*6B
$GPGSA,A,3,13,08,28,23,10,,,,,,,,4.8,2.2,4.2*38
$GPRMC,203447.000,A,3748.7681,N,12217.8003,W,2.36,115.90,220611,,,D*7E
$GPVTG,115.90,T,,M,2.36,N,4.4,K,D*03
$GPGGA,203448.000,3748.7679,N,12217.7996,W,2,05,2.2,-1.2,M,-25.1,M,1.8,0000*62
$GPGSA,A,3,13,08,28,23,10,,,,,,,,4.8,2.2,4.2*38
$GPRMC,203448.000,A,3748.7679,N,12217.7996,W,2.32,116.31,220611,,,D*70
$GPVTG,116.31,T,,M,2.32,N,4.3,K,D*08
$GPGGA,203449.000,3748.7676,N,12217.7989,W,2,05,2.2,-1.6,M,-25.1,M,1.8,0000*66
$GPGSA,A,3,13,08,28,23,10,,,,,,,,4.8,2.2,4.2*38
$GPRMC,203449.000,A,3748.7676,N,12217.7989,W,2.29,117.00,220611,,,D*79
$GPVTG,117.00,T,,M,2.29,N,4.2,K,D*00
$GPGGA,203450.000,3748.7674,N,12217.7982,W,2,05,2.2,-2.0,M,-25.1,M,2.8,0000*61
$GPGSA,A,3,13,08,28,23,10,,,,,,,,4.8,2.2,4.2*38
$GPGSV,3,1,12,07,66,348,25,13,58,126,34,08,48,298,29,10,38,249,38*78
$GPGSV,3,2,12,28,30,219,37,19,30,090,32,23,26,134,36,03,23,056,21*7B
$GPGSV,3,3,12,05,20,306,29,06,14,046,21,16,04,043,17,51,43,156,38*79
$GPVTG,118.44,T,,M,2.27,N,4.2,K,D*01
$GPGGA,203451.000,3748.7672,N,12217.7975,W,2,05,2.2,-2.4,M,-25.1,M,3.8,0000*6B
$GPGSA,A,3,13,08,28,23,10,,,,,,,,4.8,2.2,4.2*38
$GPRMC,203451.000,A,3748.7672,N,12217.7975,W,2.25,120.80,220611,,,D*77
$GPVTG,120.80,T,,M,2.25,N,4.2,K,D*00
$GPGGA,203452.000,3748.7669,N,12217.7968,W,2,05,2.2,-2.8,M,-25.1,M,1.8,0000*60
$GPGSA,A,3,13,08,28,23,10,,,,,,,,4.8,2.2,4.2*38
$GPRMC,203452.000,A,3748.7669,N,12217.7968,W,2.31,118.76,220611,,,D*75
$GPVTG,118.76,T,,M,2.31,N,4.3,K,D*06
$GPGGA,203453.000,3748.7666,N,12217.7961,W,2,05,2.2,-3.2,M,-25.1,M,1.8,0000*6C
$GPGSA,A,3,13,08,28,23,10,,,,,,,,4.8,2.2,4.2*38
$GPRMC,203453.000,A,3748.7666,N,12217.7961,W,2.25,121.09,220611,,,D*75
$GPVTG,121.09,T,,M,2.25,N,4.2,K,D*00
$GPGGA,203454.000,3748.7659,N,12217.7955,W,2,05,2.2,-2.9,M,-25.1,M,1.8,0000*6A
$GPGSA,A,3,13,08,28,23,10,,,,,,,,4.8,2.2,4.2*38
$GPRMC,203454.000,A,3748.7659,N,12217.7955,W,2.34,121.83,220611,,,D*7B
$GPVTG,121.83,T,,M,2.34,N,4.3,K,D*03
$GPGGA,203455.000,3748.7655,N,12217.7948,W,2,05,2.2,-2.9,M,-25.1,M,2.8,0000*68
$GPGSA,A,3,13,08,28,23,10,,,,,,,,4.8,2.2,4.2*38
$GPGSV,3,1,12,07,66,348,24,13,58,126,34,08,48,298,29,10,38,249,39*78
$GPGSV,3,2,12,28,30,219,38,19,30,090,23,23,26,134,36,03,23,056,23*76
$GPGSV,3,3,12,05,20,306,29,06,14,046,20,16,04,043,17,51,43,156,37*77
$GPRMC,203455.000,A,3748.7655,N,12217.7948,W,2.33,121.53,220611,,,D*70
$GPVTG,121.53,T,,M,2.33,N,4.3,K,D*09
$GPGGA,203456.000,3748.7652,N,12217.7941,W,2,05,2.2,-3.0,M,-25.1,M,3.8,0000*6C
$GPGSA,A,3,13,08,28,23,10,,,,,,,,4.8,2.2,4.2*38
$GPRMC,203456.000,A,3748.7652,N,12217.7941,W,2.43,119.77,220611,,,D*77
$GPVTG,119.77,T,,M,2.43,N,4.5,K,D*05
$GPGGA,203457.000,3748.7653,N,12217.7933,W,2,05,2.2,-3.5,M,-25.1,M,4.8,0000*6B
$GPGSA,A,3,13,08,28,23,10,,,,,,,,4.8,2.2,4.2*38
$GPRMC,203457.000,A,3748.7653,N,12217.7933,W,2.42,102.02,220611,,,D*7B
$GPVTG,102.02,T,,M,2.42,N,4.5,K,D*0C
$GPGGA,203458.000,3748.7650,N,12217.7925,W,2,05,2.2,-3.6,M,-25.1,M,1.8,0000*66
$GPGSA,A,3,13,08,28,23,10,,,,,,,,4.8,2.2,4.2*38
$GPRMC,203458.000,A,3748.7650,N,12217.7925,W,2.26,96.63,220611,,,D*49
$GPVTG,96.63,T,,M,2.26,N,4.2,K,D*32
$GPGGA,203459.000,3748.7650,N,12217.7917,W,2,05,2.2,-4.0,M,-25.1,M,1.8,0000*67
$GPGSA,A,3,13,08,28,23,10,,,,,,,,4.8,2.2,4.2*38
$GPRMC,203459.000,A,3748.7650,N,12217.7917,W,2.39,102.88,220611,,,D*7E
$GPVTG,102.88,T,,M,2.39,N,4.4,K,D*03
$GPGGA,203500.000,3748.7646,N,12217.7909,W,2,05,2.2,-3.9,M,-25.1,M,1.8,0000*6C
$GPGSA,A,3,13,08,28,23,10,,,,,,,,4.8,2.2,4.2*38
$GPGSV,3,1,12,07,66,348,25,13,58,126,34,08,48,298,29,10,38,249,38*78
$GPGSV,3,2,12,28,30,219,38,19,30,090,30,23,26,134,37,03,23,056,23*75
$GPGSV,3,3,12,05,20,306,32,06,14,046,26,16,04,043,17,51,43,156,38*74
$GPRMC,203500.000,A,3748.7646,N,12217.7909,W,2.56,112.24,220611,,,D*75
$GPVTG,112.24,T,,M,2.56,N,4.7,K,D*0E
$GPGGA,203501.000,3748.7641,N,12217.7901,W,2,05,2.2,-3.6,M,-25.1,M,2.8,0000*6E
$GPGSA,A,3,13,08,28,23,10,,,,,,,,4.8,2.2,4.2*38
$GPRMC,203501.000,A,3748.7641,N,12217.7901,W,2.31,94.86,220611,,,D*4D
$GPVTG,94.86,T,,M,2.31,N,4.3,K,D*3C
$GPGGA,203502.000,3748.7637,N,12217.7893,W,2,05,2.2,-3.5,M,-25.1,M,3.8,0000*64
$GPGSA,A,3,13,08,28,23,10,,,,,,,,4.8,2.2,4.2*38
$GPRMC,203502.000,A,3748.7637,N,12217.7893,W,2.20,103.43,220611,,,D*73
$GPVTG,103.43,T,,M,2.20,N,4.1,K,D*08
$GPGGA,203503.000,3748.7634,N,12217.7887,W,2,05,2.2,-3.2,M,-25.1,M,4.8,0000*63
$GPGSA,A,3,13,08,28,23,10,,,,,,,,4.8,2.2,4.2*38
$GPRMC,203503.000,A,3748.7634,N,12217.7887,W,2.19,106.51,220611,,,D*78
$GPVTG,106.51,T,,M,2.19,N,4.1,K,D*04
$GPGGA,203504.000,3748.7630,N,12217.7880,W,2,05,2.2,-3.0,M,-25.1,M,1.8,0000*60
$GPGSA,A,3,13,08,28,23,10,,,,,,,,4.8,2.2,4.2*38
$GPRMC,203504.000,A,3748.7630,N,12217.7880,W,2.20,115.48,220611,,,D*7C
$GPVTG,115.48,T,,M,2.20,N,4.1,K,D*04
$GPGGA,203505.000,3748.7627,N,12217.7873,W,2,05,2.2,-3.1,M,-25.1,M,1.8,0000*6A
$GPGSA,A,3,13,08,28,23,10,,,,,,,,4.8,2.2,4.2*38
$GPGSV,3,1,12,07,66,348,26,13,58,126,34,08,48,298,27,10,38,249,38*75
$GPGSV,3,2,12,28,30,219,39,19,30,090,22,23,26,134,38,03,23,056,25*7E
$GPGSV,3,3,12,05,20,306,29,06,14,046,26,16,04,043,18,51,43,156,37*7E
$GPVTG,116.23,T,,M,2.30,N,4.3,K,D*09
$GPGGA,203506.000,3748.7621,N,12217.7866,W,2,05,2.2,-2.8,M,-25.1,M,1.8,0000*63
$GPGSA,A,3,13,08,28,23,10,,,,,,,,4.8,2.2,4.2*38
$GPRMC,203506.000,A,3748.7621,N,12217.7866,W,2.36,119.75,220611,,,D*73
$GPVTG,119.75,T,,M,2.36,N,4.4,K,D*04
$GPGGA,203507.000,3748.7615,N,12217.7859,W,2,05,2.2,-2.7,M,-25.1,M,1.8,0000*66
$GPGSA,A,3,13,08,28,23,10,,,,,,,,4.8,2.2,4.2*38
$GPRMC,203507.000,A,3748.7615,N,12217.7859,W,2.49,114.67,220611,,,D*7F
$GPVTG,114.67,T,,M,2.49,N,4.6,K,D*00
$GPGGA,203508.000,3748.7616,N,12217.7851,W,2,05,2.2,-3.5,M,-25.1,M,1.8,0000*61
$GPGSA,A,3,13,08,28,23,10,,,,,,,,4.8,2.2,4.2*38
$GPRMC,203508.000,A,3748.7616,N,12217.7851,W,2.53,108.93,220611,,,D*76
$GPVTG,108.93,T,,M,2.53,N,4.7,K,D*0C
$GPGGA,203509.000,3748.7615,N,12217.7843,W,2,05,2.2,-4.0,M,-25.1,M,2.8,0000*61
$GPGSA,A,3,13,08,28,23,10,,,,,,,,4.8,2.2,4.2*38
$GPRMC,203509.000,A,3748.7615,N,12217.7843,W,2.34,112.37,220611,,,D*73
$GPVTG,112.37,T,,M,2.34,N,4.3,K,D*0C
$GPGGA,203510.000,3748.7613,N,12217.7835,W,2,05,2.2,-4.3,M,-25.1,M,1.8,0000*6E
$GPGSA,A,3,13,08,28,23,10,,,,,,,,4.8,2.2,4.2*38
$GPGSV,3,1,12,07,66,348,23,13,58,126,34,08,48,298,28,10,38,249,38*7F
$GPGSV,3,2,12,28,30,219,39,19,30,090,20,23,26,134,38,03,23,056,19*73
$GPGSV,3,3,12,05,20,306,30,06,14,046,14,16,04,043,17,51,43,156,37*78
$GPRMC,203510.000,A,3748.7613,N,12217.7835,W,2.45,114.94,220611,,,D*75
$GPVTG,114.94,T,,M,2.45,N,4.5,K,D*03
$GPGGA,203511.000,3748.7608,N,12217.7828,W,2,05,2.2,-4.2,M,-25.1,M,1.8,0000*68
$GPGSA,A,3,13,08,28,23,10,,,,,,,,4.8,2.2,4.2*38
$GPRMC,203511.000,A,3748.7608,N,12217.7828,W,2.24,113.38,220611,,,D*74
$GPVTG,113.38,T,,M,2.24,N,4.1,K,D*01
$GPGGA,203512.000,3748.7604,N,12217.7821,W,2,05,2.2,-4.1,M,-25.1,M,1.8,0000*6D
$GPGSA,A,3,13,08,28,23,10,,,,,,,,4.8,2.2,4.2*38
$GPRMC,203512.000,A,3748.7604,N,12217.7821,W,2.02,95.15,220611,,,D*46
$GPVTG,95.15,T,,M,2.02,N,3.7,K,D*34
$GPGGA,203513.000,3748.7601,N,12217.7814,W,2,05,2.2,-4.0,M,-25.1,M,2.8,0000*6D
$GPGSA,A,3,13,08,28,23,10,,,,,,,,4.8,2.2,4.2*38
$GPRMC,203513.000,A,3748.7601,N,12217.7814,W,2.15,101.82,220611,,,D*70
$GPVTG,101.82,T,,M,2.15,N,4.0,K,D*00
$GPGGA,203514.000,3748.7597,N,12217.7806,W,2,05,2.2,-3.8,M,-25.1,M,1.8,0000*69
$GPGSA,A,3,13,08,28,23,10,,,,,,,,4.7,2.2,4.2*37
$GPRMC,203514.000,A,3748.7597,N,12217.7806,W,2.42,107.72,220611,,,D*73
$GPVTG,107.72,T,,M,2.42,N,4.5,K,D*0E
$GPGGA,203515.000,3748.7592,N,12217.7799,W,2,05,2.2,-3.7,M,-25.1,M,2.8,0000*68
$GPGSA,A,3,13,08,28,23,10,,,,,,,,4.7,2.2,4.2*37
$GPGSV,3,1,12,07,66,348,24,13,58,126,34,08,48,298,28,10,38,249,38*78
$GPGSV,3,2,12,28,30,219,35,19,30,090,21,23,26,134,38,03,23,056,19*7E
$GPGSV,3,3,12,05,20,306,30,06,14,046,,16,04,043,16,51,43,156,36*7D
$GPRMC,203515.000,A,3748.7592,N,12217.7799,W,2.39,119.03,220611,,,D*7B
$GPVTG,119.03,T,,M,2.39,N,4.4,K,D*0A
$GPGGA,203516.000,3748.7588,N,12217.7791,W,2,05,2.2,-3.6,M,-25.1,M,1.8,0000*6A
$GPGSA,A,3,13,08,28,23,10,,,,,,,,4.7,2.2,4.2*37
$GPRMC,203516.000,A,3748.7588,N,12217.7791,W,2.44,119.74,220611,,,D*71
$GPVTG,119.74,T,,M,2.44,N,4.5,K,D*01
$GPGGA,203517.000,3748.7583,N,12217.7784,W,2,05,2.2,-3.5,M,-25.1,M,1.8,0000*67
$GPGSA,A,3,13,08,28,23,10,,,,,,,,4.7,2.2,4.2*37
$GPRMC,203517.000,A,3748.7583,N,12217.7784,W,2.40,122.59,220611,,,D*7C
$GPVTG,122.59,T,,M,2.40,N,4.5,K,D*02
$GPGGA,203518.000,3748.7579,N,12217.7778,W,2,05,2.2,-3.5,M,-25.1,M,1.8,0000*6E
$GPGSA,A,3,13,08,28,23,10,,,,,,,,4.7,2.2,4.2*37
$GPRMC,203518.000,A,3748.7579,N,12217.7778,W,2.39,125.93,220611,,,D*7A
$GPVTG,125.93,T,,M,2.39,N,4.4,K,D*0C
$GPGGA,203519.000,3748.7575,N,12217.7771,W,2,05,2.2,-3.6,M,-25.1,M,2.8,0000*6A
$GPGSA,A,3,13,08,28,23,10,,,,,,,,4.7,2.2,4.2*37
$GPRMC,203519.000,A,3748.7575,N,12217.7771,W,2.27,130.03,220611,,,D*7C
$GPVTG,130.03,T,,M,2.27,N,4.2,K,D*08
$GPGGA,203520.000,3748.7573,N,12217.7763,W,2,05,2.2,-3.7,M,-25.1,M,3.8,0000*65
$GPGSA,A,3,13,08,28,23,10,,,,,,,,4.7,2.2,4.2*37
$GPGSV,3,1,12,07,66,348,19,13,58,126,35,08,48,298,32,10,38,249,38*7C
$GPGSV,3,2,12,28,31,219,25,19,30,090,21,23,25,134,38,03,23,056,19*7D
$GPGSV,3,3,12,05,21,306,29,06,14,045,,16,03,043,16,51,43,156,39*7F
$GPRMC,203520.000,A,3748.7573,N,12217.7763,W,2.40,128.76,220611,,,D*79
$GPVTG,128.76,T,,M,2.40,N,4.4,K,D*04
$GPGGA,203521.000,3748.7572,N,12217.7756,W,2,05,2.2,-3.9,M,-25.1,M,1.8,0000*6F
$GPGSA,A,3,13,08,28,23,10,,,,,,,,4.7,2.2,4.2*37
$GPRMC,203521.000,A,3748.7572,N,12217.7756,W,2.33,126.85,220611,,,D*79
$GPVTG,126.85,T,,M,2.33,N,4.3,K,D*05
$GPGGA,203522.000,3748.7567,N,12217.7750,W,2,05,2.2,-3.9,M,-25.1,M,1.8,0000*6E
$GPGSA,A,3,13,08,28,23,10,,,,,,,,4.7,2.2,4.2*37
$GPRMC,203522.000,A,3748.7567,N,12217.7750,W,2.41,127.94,220611,,,D*7C
$GPVTG,127.94,T,,M,2.41,N,4.5,K,D*07
$GPGGA,203523.000,3748.7562,N,12217.7743,W,2,05,2.2,-3.9,M,-25.1,M,1.8,0000*68
$GPGSA,A,3,13,08,28,23,10,,,,,,,,4.7,2.2,4.2*37
$GPRMC,203523.000,A,3748.7562,N,12217.7743,W,2.40,125.71,220611,,,D*72
$GPVTG,125.71,T,,M,2.40,N,4.4,K,D*0E
$GPGGA,203524.000,3748.7558,N,12217.7737,W,2,05,2.2,-3.9,M,-25.1,M,1.8,0000*65
$GPGSA,A,3,13,08,28,23,10,,,,,,,,4.7,2.2,4.2*37
$GPRMC,203524.000,A,3748.7558,N,12217.7737,W,2.31,123.05,220611,,,D*7C
$GPVTG,123.05,T,,M,2.31,N,4.3,K,D*0A
$GPGGA,203525.000,3748.7554,N,12217.7731,W,2,05,2.2,-4.0,M,-25.1,M,2.8,0000*63
$GPGSA,A,3,13,08,28,23,10,,,,,,,,4.7,2.2,4.2*37
$GPGSV,3,1,12,07,66,348,19,13,58,126,35,08,48,298,30,10,38,249,34*72
$GPGSV,3,2,12,28,31,219,38,19,30,090,21,23,25,134,38,03,23,056,19*71
$GPGSV,3,3,12,05,21,306,28,06,14,045,23,16,03,043,16,51,43,156,40*71
$GPRMC,203525.000,A,3748.7554,N,12217.7731,W,2.33,121.91,220611,,,D*7A
$GPGGA,203526.000,3748.7551,N,12217.7724,W,2,05,2.2,-4.1,M,-25.1,M,3.8,0000*61
$GPGSA,A,3,13,08,28,23,10,,,,,,,,4.7,2.2,4.2*37
$GPRMC,203526.000,A,3748.7551,N,12217.7724,W,2.36,119.02,220611,,,D*7C
$GPVTG,119.02,T,,M,2.36,N,4.4,K,D*04
$GPGGA,203527.000,3748.7550,N,12217.7717,W,2,05,2.2,-4.6,M,-25.1,M,4.8,0000*61
$GPGSA,A,3,13,08,28,23,10,,,,,,,,4.7,2.2,4.2*37
$GPRMC,203527.000,A,3748.7550,N,12217.7717,W,2.45,123.36,220611,,,D*76
$GPVTG,123.36,T,,M,2.45,N,4.5,K,D*0F
$GPGGA,203528.000,3748.7549,N,12217.7710,W,2,05,2.2,-5.1,M,-25.1,M,1.8,0000*62
$GPGSA,A,3,13,08,28,23,10,,,,,,,,4.7,2.2,4.2*37
$GPRMC,203528.000,A,3748.7549,N,12217.7710,W,2.37,119.24,220611,,,D*79
$GPVTG,119.24,T,,M,2.37,N,4.4,K,D*01
$GPGGA,203529.000,3748.7548,N,12217.7704,W,2,05,2.2,-5.6,M,-25.1,M,1.8,0000*60
$GPGSA,A,3,13,08,28,23,10,,,,,,,,4.7,2.2,4.2*37
$GPRMC,203529.000,A,3748.7548,N,12217.7704,W,2.27,120.60,220611,,,D*77
$GPVTG,120.60,T,,M,2.27,N,4.2,K,D*0C
$GPGGA,203530.000,3748.7546,N,12217.7697,W,2,05,2.2,-5.9,M,-25.1,M,1.8,0000*62
$GPGSA,A,3,13,08,28,23,10,,,,,,,,4.7,2.2,4.2*37
$GPGSV,3,1,12,07,66,348,19,13,58,126,35,08,48,298,30,10,38,249,35*73
$GPGSV,3,2,12,28,31,219,40,19,30,090,21,23,25,134,32,03,23,056,19*74
$GPGSV,3,3,12,05,21,306,27,06,14,045,23,16,03,043,16,51,43,156,39*70
$GPRMC,203530.000,A,3748.7546,N,12217.7697,W,2.38,119.31,220611,,,D*7A
$GPVTG,119.31,T,,M,2.38,N,4.4,K,D*0A
$GPGGA,203531.000,3748.7544,N,12217.7690,W,2,05,2.2,-6.1,M,-25.1,M,1.8,0000*6D
$GPGSA,A,3,13,08,28,23,10,,,,,,,,4.7,2.2,4.2*37
$GPRMC,203531.000,A,3748.7544,N,12217.7690,W,2.45,115.90,220611,,,D*73
$GPVTG,115.90,T,,M,2.45,N,4.5,K,D*06
$GPGGA,203532.000,3748.7541,N,12217.7683,W,2,05,2.2,-6.3,M,-25.1,M,2.8,0000*68
$GPGSA,A,3,13,08,28,23,10,,,,,,,,4.7,2.2,4.2*37
$GPRMC,203532.000,A,3748.7541,N,12217.7683,W,2.35,117.46,220611,,,D*79
$GPVTG,117.46,T,,M,2.35,N,4.3,K,D*0E
$GPGGA,203533.000,3748.7539,N,12217.7676,W,2,05,2.2,-6.3,M,-25.1,M,3.8,0000*6D
$GPGSA,A,3,13,08,28,23,10,,,,,,,,4.7,2.2,4.2*37
$GPRMC,203533.000,A,3748.7539,N,12217.7676,W,2.34,115.93,220611,,,D*76
$GPVTG,115.93,T,,M,2.34,N,4.3,K,D*05
$GPGGA,203534.000,3748.7536,N,12217.7668,W,2,05,2.2,-6.4,M,-25.1,M,1.8,0000*6F
$GPGSA,A,3,13,08,28,23,10,,,,,,,,4.7,2.2,4.2*37
$GPRMC,203534.000,A,3748.7536,N,12217.7668,W,2.41,117.01,220611,,,D*7A
$GPVTG,117.01,T,,M,2.41,N,4.5,K,D*08
$GPGGA,203535.000,3748.7534,N,12217.7661,W,2,05,2.2,-6.5,M,-25.1,M,1.8,0000*64
$GPGSA,A,3,13,08,28,23,10,,,,,,,,4.7,2.2,4.2*37
$GPGSV,3,1,12,07,66,348,22,13,58,126,34,08,48,298,30,10,38,249,36*79
$GPGSV,3,2,12,28,31,219,41,19,30,090,21,23,25,134,39,03,23,056,19*7E
$GPGSV,3,3,12,05,21,306,24,06,14,045,23,16,03,043,17,51,43,156,39*72
$GPRMC,203535.000,A,3748.7534,N,12217.7661,W,2.35,115.91,220611,,,D*78
$GPVTG,115.91,T,,M,2.35,N,4.4,K,D*01
$GPGGA,203536.000,3748.7531,N,12217.7654,W,2,05,2.2,-6.7,M,-25.1,M,1.8,0000*66
$GPGSA,A,3,13,08,28,23,10,,,,,,,,4.7,2.2,4.2*37
$GPRMC,203536.000,A,3748.7531,N,12217.7654,W,2.32,119.60,220611,,,D*7D
$GPVTG,119.60,T,,M,2.32,N,4.3,K,D*03
$GPGGA,203537.000,3748.7528,N,12217.7647,W,2,05,2.2,-6.8,M,-25.1,M,1.8,0000*62
$GPGSA,A,3,13,08,28,23,10,,,,,,,,4.7,2.2,4.2*37
$GPRMC,203537.000,A,3748.7528,N,12217.7647,W,2.22,118.66,220611,,,D*70
$GPVTG,118.66,T,,M,2.22,N,4.1,K,D*07
$GPGGA,203538.000,3748.7525,N,12217.7641,W,2,05,2.2,-6.8,M,-25.1,M,1.8,0000*66
$GPGSA,A,3,13,08,28,23,10,,,,,,,,4.7,2.2,4.2*37
$GPRMC,203538.000,A,3748.7525,N,12217.7641,W,2.30,113.79,220611,,,D*72
$GPVTG,113.79,T,,M,2.30,N,4.3,K,D*03
$GPGGA,203539.000,3748.7522,N,12217.7634,W,2,05,2.2,-6.8,M,-25.1,M,2.8,0000*61
$GPGSA,A,3,13,08,28,23,10,,,,,,,,4.7,2.2,4.2*37
$GPRMC,203539.000,A,3748.7522,N,12217.7634,W,2.30,114.58,220611,,,D*72
$GPVTG,114.58,T,,M,2.30,N,4.3,K,D*07
$GPGGA,203540.000,3748.7519,N,12217.7627,W,2,05,2.2,-6.8,M,-25.1,M,1.8,0000*66
$GPGSA,A,3,13,08,28,23,10,,,,,,,,4.7,2.2,4.2*37
$GPGSV,3,1,12,07,66,348,23,13,58,126,34,08,48,298,31,10,38,249,37*78
$GPGSV,3,2,12,28,31,219,41,19,30,090,20,23,25,134,35,03,23,056,19*73
$GPGSV,3,3,12,05,21,306,29,06,14,045,23,16,03,043,18,51,43,156,39*70
$GPVTG,119.68,T,,M,2.30,N,4.3,K,D*09
$GPGGA,203541.000,3748.7516,N,12217.7620,W,2,05,2.2,-6.8,M,-25.1,M,1.8,0000*6F
$GPGSA,A,3,13,08,28,23,10,,,,,,,,4.7,2.2,4.2*37
$GPRMC,203541.000,A,3748.7516,N,12217.7620,W,2.57,120.59,220611,,,D*78
$GPVTG,120.59,T,,M,2.57,N,4.8,K,D*0B
$GPGGA,203542.000,3748.7512,N,12217.7613,W,2,05,2.2,-6.6,M,-25.1,M,1.8,0000*66
$GPGSA,A,3,13,08,28,23,10,,,,,,,,4.7,2.2,4.2*37
$GPRMC,203542.000,A,3748.7512,N,12217.7613,W,2.45,121.44,220611,,,D*71
$GPVTG,121.44,T,,M,2.45,N,4.5,K,D*08
$GPGGA,203543.000,3748.7507,N,12217.7606,W,2,05,2.2,-6.3,M,-25.1,M,2.8,0000*61
$GPGSA,A,3,13,08,28,23,10,,,,,,,,4.7,2.2,4.2*37
$GPRMC,203543.000,A,3748.7507,N,12217.7606,W,2.57,119.78,220611,,,D*77
$GPVTG,119.78,T,,M,2.57,N,4.8,K,D*02
$GPGGA,203544.000,3748.7504,N,12217.7598,W,2,05,2.2,-6.2,M,-25.1,M,3.8,0000*61
$GPGSA,A,3,13,08,28,23,10,,,,,,,,4.7,2.2,4.2*37
$GPRMC,203544.000,A,3748.7504,N,12217.7598,W,2.49,120.56,220611,,,D*7E
$GPVTG,120.56,T,,M,2.49,N,4.6,K,D*05
$GPGGA,203545.000,3748.7500,N,12217.7591,W,2,05,2.2,-6.0,M,-25.1,M,4.8,0000*68
$GPGSA,A,3,13,08,28,23,10,,,,,,,,4.7,2.2,4.2*37
$GPGSV,3,1,12,07,66,348,24,13,58,126,34,08,48,298,32,10,38,249,38*73
$GPGSV,3,2,12,28,31,219,40,19,30,090,21,23,25,134,36,03,23,056,19*70
$GPGSV,3,3,12,05,21,306,30,06,14,045,23,16,03,043,20,51,43,156,37*7D
$GPRMC,203545.000,A,3748.7500,N,12217.7591,W,2.55,119.43,220611,,,D*71
$GPVTG,119.43,T,,M,2.55,N,4.7,K,D*07
$GPGGA,203546.000,3748.7496,N,12217.7584,W,2,05,2.2,-5.9,M,-25.1,M,1.8,0000*6E
$GPGSA,A,3,13,08,28,23,10,,,,,,,,4.7,2.2,4.2*37
$GPRMC,203546.000,A,3748.7496,N,12217.7584,W,2.56,119.16,220611,,,D*7B
$GPVTG,119.16,T,,M,2.56,N,4.7,K,D*04
$GPGGA,203547.000,3748.7490,N,12217.7576,W,2,05,2.2,-5.4,M,-25.1,M,1.8,0000*69
$GPGSA,A,3,13,08,28,23,10,,,,,,,,4.7,2.2,4.2*37
$GPRMC,203547.000,A,3748.7490,N,12217.7576,W,2.61,116.09,220611,,,D*74
$GPVTG,116.09,T,,M,2.61,N,4.8,K,D*0E
$GPGGA,203548.000,3748.7485,N,12217.7568,W,2,05,2.2,-5.2,M,-25.1,M,1.8,0000*6B
$GPGSA,A,3,13,08,28,23,10,,,,,,,,4.7,2.2,4.2*37
$GPRMC,203548.000,A,3748.7485,N,12217.7568,W,2.58,123.83,220611,,,D*7E
$GPVTG,123.83,T,,M,2.58,N,4.8,K,D*00
$GPGGA,203549.000,3748.7481,N,12217.7561,W,2,05,2.2,-5.2,M,-25.1,M,2.8,0000*64
$GPGSA,A,3,13,08,28,23,10,,,,,,,,4.7,2.2,4.2*37
$GPRMC,203549.000,A,3748.7481,N,12217.7561,W,2.58,125.47,220611,,,D*7C
$GPVTG,125.47,T,,M,2.58,N,4.8,K,D*0E
$GPGGA,203550.000,3748.7477,N,12217.7554,W,2,05,2.2,-5.1,M,-25.1,M,3.8,0000*61
$GPGSA,A,3,13,08,28,23,10,,,,,,,,4.7,2.2,4.2*37
$GPGSV,3,1,12,07,66,349,22,13,58,127,34,08,48,298,32,10,37,249,38*7A
$GPGSV,3,2,12,28,31,219,37,19,30,089,31,23,25,135,30,03,23,056,21*75
$GPGSV,3,3,12,05,21,305,26,06,14,045,18,16,03,043,18,51,43,156,38*75
$GPRMC,203550.000,A,3748.7477,N,12217.7554,W,2.57,126.51,220611,,,D*70
$GPVTG,126.51,T,,M,2.57,N,4.8,K,D*05
$GPGGA,203551.000,3748.7472,N,12217.7547,W,2,05,2.2,-5.1,M,-25.1,M,4.8,0000*60
$GPGSA,A,3,13,08,28,23,10,,,,,,,,4.7,2.2,4.2*37
$GPRMC,203551.000,A,3748.7472,N,12217.7547,W,2.60,125.45,220611,,,D*74
$GPVTG,125.45,T,,M,2.60,N,4.8,K,D*07
$GPGGA,203552.000,3748.7466,N,12217.7543,W,2,05,2.2,-3.2,M,-25.1,M,1.8,0000*62
$GPGSA,A,3,13,08,28,23,10,,,,,,,,4.7,2.2,4.2*37
$GPRMC,203552.000,A,3748.7466,N,12217.7543,W,2.46,123.92,220611,,,D*7E
$GPVTG,123.92,T,,M,2.46,N,4.6,K,D*01
$GPGGA,203553.000,3748.7462,N,12217.7536,W,2,05,2.2,-3.5,M,-25.1,M,1.8,0000*62
$GPGSA,A,3,13,08,28,23,10,,,,,,,,4.7,2.2,4.2*37
$GPRMC,203553.000,A,3748.7462,N,12217.7536,W,2.45,122.45,220611,,,D*71
$GPVTG,122.45,T,,M,2.45,N,4.5,K,D*0A
$GPGGA,203554.000,3748.7460,N,12217.7529,W,2,05,2.2,-3.6,M,-25.1,M,1.8,0000*6A
$GPGSA,A,3,13,08,28,23,10,,,,,,,,4.7,2.2,4.2*37
$GPRMC,203554.000,A,3748.7460,N,12217.7529,W,2.59,123.37,220611,,,D*73
$GPVTG,123.37,T,,M,2.59,N,4.8,K,D*0E
$GPGGA,203555.000,3748.7455,N,12217.7523,W,2,05,2.2,-2.6,M,-25.1,M,2.8,0000*65
$GPGSA,A,3,13,08,28,23,10,,,,,,,,4.7,2.2,4.2*37
$GPGSV,3,1,12,07,66,349,24,13,58,127,34,08,48,298,31,10,37,249,38*7F
$GPGSV,3,2,12,28,31,219,40,19,30,089,31,23,25,135,28,03,23,056,24*79
$GPGSV,3,3,12,05,21,305,31,06,14,045,19,16,03,043,17,51,43,156,39*7C
$GPRMC,203555.000,A,3748.7455,N,12217.7523,W,1.97,108.50,220611,,,D*77
$GPVTG,108.50,T,,M,1.97,N,3.6,K,D*0E
$GPGGA,203556.000,3748.7450,N,12217.7518,W,2,05,2.2,-1.1,M,-25.1,M,3.8,0000*6E
$GPGSA,A,3,13,08,28,23,10,,,,,,,,4.7,2.2,4.2*37
$GPRMC,203556.000,A,3748.7450,N,12217.7518,W,2.17,119.26,220611,,,D*73
$GPVTG,119.26,T,,M,2.17,N,4.0,K,D*05
$GPGGA,203557.000,3748.7444,N,12217.7512,W,2,05,2.2,-0.2,M,-25.1,M,4.8,0000*65
$GPGSA,A,3,13,08,28,23,10,,,,,,,,4.7,2.2,4.2*37
$GPRMC,203557.000,A,3748.7444,N,12217.7512,W,2.38,122.17,220611,,,D*7A
$GPVTG,122.17,T,,M,2.38,N,4.4,K,D*06
$GPGGA,203558.000,3748.7439,N,12217.7505,W,2,05,2.2,0.2,M,-25.1,M,5.8,0000*4A
$GPGSA,A,3,13,08,28,23,10,,,,,,,,4.7,2.2,4.2*37
$GPRMC,203558.000,A,3748.7439,N,12217.7505,W,2.47,123.74,220611,,,D*75
$GPVTG,123.74,T,,M,2.47,N,4.6,K,D*08
$GPGGA,203559.000,3748.7440,N,12217.7498,W,2,05,2.2,-0.1,M,-25.1,M,6.8,0000*6D
$GPGSA,A,3,13,08,28,23,10,,,,,,,,4.7,2.2,4.2*37
$GPRMC,203559.000,A,3748.7440,N,12217.7498,W,2.12,106.50,220611,,,D*7E
$GPVTG,106.50,T,,M,2.12,N,3.9,K,D*01
$GPGGA,203600.000,3748.7438,N,12217.7491,W,2,05,2.2,-0.2,M,-25.1,M,7.8,0000*66
$GPGSA,A,3,13,08,28,23,10,,,,,,,,4.7,2.2,4.2*37
$GPGSV,3,1,12,07,66,349,25,13,58,127,34,08,48,298,31,10,37,249,38*7E
$GPGSV,3,2,12,28,31,219,39,19,30,089,23,23,25,135,30,03,23,056,24*7D
$GPGSV,3,3,12,05,21,305,27,06,14,045,26,16,03,043,16,51,43,156,29*77
$GPRMC,203600.000,A,3748.7438,N,12217.7491,W,2.31,113.95,220611,,,D*7B
$GPGGA,203601.000,3748.7436,N,12217.7483,W,2,05,2.2,-0.2,M,-25.1,M,8.8,0000*65
$GPGSA,A,3,13,08,28,23,10,,,,,,,,4.7,2.2,4.2*37
$GPRMC,203601.000,A,3748.7436,N,12217.7483,W,2.57,121.41,220611,,,D*7F
$GPVTG,121.41,T,,M,2.57,N,4.8,K,D*03
$GPGGA,203602.000,3748.7434,N,12217.7475,W,2,05,2.2,-0.9,M,-25.1,M,1.8,0000*6F
$GPGSA,A,3,13,08,28,23,10,,,,,,,,4.7,2.2,4.2*37
$GPRMC,203602.000,A,3748.7434,N,12217.7475,W,2.23,121.58,220611,,,D*7C
$GPVTG,121.58,T,,M,2.23,N,4.1,K,D*01
$GPGGA,203603.000,3748.7432,N,12217.7466,W,2,05,2.2,-0.9,M,-25.1,M,2.8,0000*69
$GPGSA,A,3,13,08,28,23,10,,,,,,,,4.7,2.2,4.2*37
$GPRMC,203603.000,A,3748.7432,N,12217.7466,W,2.17,115.66,220611,,,D*74
$GPVTG,115.66,T,,M,2.17,N,4.0,K,D*0D
$GPGGA,203604.000,3748.7432,N,12217.7461,W,2,05,2.2,-2.4,M,-25.1,M,3.8,0000*67
$GPGSA,A,3,13,08,28,23,10,,,,,,,,4.7,2.2,4.2*37
$GPRMC,203604.000,A,3748.7432,N,12217.7461,W,1.98,113.77,220611,,,D*76
$GPVTG,113.77,T,,M,1.98,N,3.7,K,D*0F
$GPGGA,203605.000,3748.7428,N,12217.7456,W,2,05,2.2,-1.3,M,-25.1,M,4.8,0000*6A
$GPGSA,A,3,13,08,28,23,10,,,,,,,,4.7,2.2,4.2*37
$GPGSV,3,1,12,07,66,349,25,13,58,127,27,08,48,298,31,10,37,249,33*77
$GPGSV,3,2,12,28,31,219,31,19,30,089,27,23,25,135,29,03,23,056,22*7F
$GPGSV,3,3,12,05,21,305,26,06,14,045,23,16,03,043,15,51,43,156,35*7D
$GPRMC,203605.000,A,3748.7428,N,12217.7456,W,2.12,120.63,220611,,,D*7C
$GPVTG,120.63,T,,M,2.12,N,3.9,K,D*05
$GPGGA,203606.000,3748.7425,N,12217.7450,W,2,05,2.2,-0.8,M,-25.1,M,5.8,0000*69
$GPGSA,A,3,13,08,28,23,10,,,,,,,,4.7,2.2,4.2*37
$GPRMC,203606.000,A,3748.7425,N,12217.7450,W,2.34,137.21,220611,,,D*70
$GPVTG,137.21,T,,M,2.34,N,4.3,K,D*0C
$GPGGA,203607.000,3748.7415,N,12217.7446,W,2,05,2.2,2.7,M,-25.1,M,6.8,0000*4F
$GPGSA,A,3,13,08,28,23,10,,,,,,,,4.7,2.2,4.2*37
$GPRMC,203607.000,A,3748.7415,N,12217.7446,W,2.37,127.02,220611,,,D*76
$GPVTG,127.02,T,,M,2.37,N,4.4,K,D*08
$GPGGA,203608.000,3748.7405,N,12217.7443,W,2,05,2.2,4.0,M,-25.1,M,7.8,0000*44
$GPGSA,A,3,13,08,28,23,10,,,,,,,,4.7,2.2,4.2*37
$GPRMC,203608.000,A,3748.7405,N,12217.7443,W,1.66,135.80,220611,,,D*73
$GPVTG,135.80,T,,M,1.66,N,3.1,K,D*04
$GPGGA,203609.000,3748.7401,N,12217.7437,W,2,05,2.2,4.5,M,-25.1,M,8.8,0000*48
$GPGSA,A,3,13,08,28,23,10,,,,,,,,4.7,2.2,4.2*37
$GPRMC,203609.000,A,3748.7401,N,12217.7437,W,1.29,130.92,220611,,,D*78
$GPVTG,130.92,T,,M,1.29,N,2.4,K,D*0D
$GPGGA,203610.000,3748.7395,N,12217.7431,W,2,05,2.2,5.5,M,-25.1,M,9.8,0000*4C
$GPGSA,A,3,13,08,28,23,10,,,,,,,,4.7,2.2,4.2*37
$GPGSV,3,1,12,07,66,349,24,13,58,127,30,08,48,298,26,10,37,249,31*74
$GPGSV,3,2,12,28,31,219,31,19,30,089,34,23,25,135,26,03,23,056,23*73
$GPGSV,3,3,12,05,21,305,27,06,14,045,21,16,03,043,14,51,43,156,34*7E
$GPRMC,203610.000,A,3748.7395,N,12217.7431,W,1.75,122.73,220611,,,D*79
$GPVTG,122.73,T,,M,1.75,N,3.3,K,D*0E
$GPGGA,203611.000,3748.7390,N,12217.7424,W,2,05,2.2,6.4,M,-25.1,M,10.8,0000*76
$GPGSA,A,3,13,08,28,23,10,,,,,,,,4.7,2.2,4.2*37
$GPRMC,203611.000,A,3748.7390,N,12217.7424,W,2.23,119.74,220611,,,D*76
$GPVTG,119.74,T,,M,2.23,N,4.1,K,D*04
$GPGGA,203612.000,3748.7389,N,12217.7417,W,2,05,2.2,6.4,M,-25.1,M,11.8,0000*7C
$GPGSA,A,3,13,08,28,23,10,,,,,,,,4.7,2.2,4.2*37
$GPRMC,203612.000,A,3748.7389,N,12217.7417,W,1.66,109.20,220611,,,D*7F
$GPVTG,109.20,T,,M,1.66,N,3.1,K,D*01
$GPGGA,203613.000,3748.7384,N,12217.7407,W,2,05,2.2,5.2,M,-25.1,M,12.8,0000*77
$GPGSA,A,3,13,08,28,23,10,,,,,,,,4.7,2.2,4.2*37
$GPRMC,203613.000,A,3748.7384,N,12217.7407,W,1.87,116.59,220611,,,D*7D
$GPVTG,116.59,T,,M,1.87,N,3.5,K,D*0A
$GPGGA,203614.000,3748.7379,N,12217.7398,W,2,05,2.2,4.7,M,-25.1,M,13.8,0000*76
$GPGSA,A,3,13,08,28,23,10,,,,,,,,4.7,2.2,4.2*37
$GPRMC,203614.000,A,3748.7379,N,12217.7398,W,2.09,123.90,220611,,,D*7F
$GPVTG,123.90,T,,M,2.09,N,3.9,K,D*00
$GPGGA,203615.000,3748.7369,N,12217.7394,W,2,05,2.2,6.9,M,-25.1,M,14.8,0000*71
$GPGSA,A,3,13,08,28,23,10,,,,,,,,4.7,2.2,4.2*37
$GPGSV,3,1,12,07,66,349,24,13,58,127,31,08,48,298,26,10,37,249,32*76
$GPGSV,3,2,12,28,31,219,39,19,30,089,29,23,25,135,26,03,23,056,23*77
$GPGSV,3,3,12,05,21,305,28,06,14,045,21,16,03,043,15,51,43,156,31*75
$GPVTG,128.10,T,,M,1.64,N,3.0,K,D*02
$GPGGA,203616.000,3748.7366,N,12217.7389,W,2,05,2.2,7.0,M,-25.1,M,15.8,0000*78
$GPGSA,A,3,13,08,28,23,10,,,,,,,,4.7,2.2,4.2*37
$GPRMC,203616.000,A,3748.7366,N,12217.7389,W,1.77,115.43,220611,,,D*72
$GPVTG,115.43,T,,M,1.77,N,3.3,K,D*0B
$GPGGA,203617.000,3748.7360,N,12217.7382,W,2,05,2.2,7.7,M,-25.1,M,16.8,0000*70
$GPGSA,A,3,13,08,28,23,10,,,,,,,,4.7,2.2,4.2*37
$GPRMC,203617.000,A,3748.7360,N,12217.7382,W,2.11,121.14,220611,,,D*78
$GPVTG,121.14,T,,M,2.11,N,3.9,K,D*07
$GPGGA,203618.000,3748.7356,N,12217.7375,W,2,05,2.2,8.8,M,-25.1,M,17.8,0000*73
$GPGSA,A,3,13,08,28,23,10,,,,,,,,4.7,2.2,4.2*37
$GPRMC,203618.000,A,3748.7356,N,12217.7375,W,2.02,122.57,220611,,,D*7C
$GPVTG,122.57,T,,M,2.02,N,3.7,K,D*0F
$GPGGA,203619.000,3748.7351,N,12217.7369,W,1,05,2.2,8.5,M,-25.1,M,,0000*66
$GPGSA,A,3,13,08,28,23,10,,,,,,,,4.7,2.2,4.2*37
$GPRMC,203619.000,A,3748.7351,N,12217.7369,W,2.14,115.54,220611,,,A*72
$GPVTG,115.54,T,,M,2.14,N,4.0,K,A*0A
$GPGGA,203620.000,3748.7349,N,12217.7362,W,1,05,2.2,7.9,M,-25.1,M,,0000*6D
$GPGSA,A,3,13,08,28,23,10,,,,,,,,4.7,2.2,4.2*37
$GPGSV,3,1,12,07,66,349,24,13,58,127,27,08,48,298,26,10,37,249,32*71
$GPGSV,3,2,12,28,31,219,30,19,30,089,28,23,25,135,29,03,23,056,24*77
$GPGSV,3,3,12,05,21,305,20,06,14,045,22,16,03,043,15,51,43,156,29*77
$GPRMC,203620.000,A,3748.7349,N,12217.7362,W,1.96,117.11,220611,,,A*70
$GPVTG,117.11,T,,M,1.96,N,3.6,K,A*01
$GPGGA,203621.000,3748.7348,N,12217.7356,W,1,05,2.2,7.0,M,-25.1,M,,0000*63
$GPGSA,A,3,13,08,28,23,10,,,,,,,,4.7,2.2,4.2*37
$GPRMC,203621.000,A,3748.7348,N,12217.7356,W,2.06,125.11,220611,,,A*7C
$GPVTG,125.11,T,,M,2.06,N,3.8,K,A*04
$GPGGA,203622.000,3748.7346,N,12217.7348,W,1,05,2.2,6.0,M,-25.1,M,,0000*60
$GPGSA,A,3,13,08,28,23,10,,,,,,,,4.7,2.2,4.2*37
$GPRMC,203622.000,A,3748.7346,N,12217.7348,W,2.22,114.54,220611,,,A*7B
$GPVTG,114.54,T,,M,2.22,N,4.1,K,A*0F
$GPGGA,203623.000,3748.7345,N,12217.7340,W,1,05,2.2,4.6,M,-25.1,M,,0000*6E
$GPGSA,A,3,13,08,28,23,10,,,,,,,,4.7,2.2,4.2*37
$GPRMC,203623.000,A,3748.7345,N,12217.7340,W,1.93,105.30,220611,,,A*7A
$GPVTG,105.30,T,,M,1.93,N,3.6,K,A*04
$GPGGA,203624.000,3748.7341,N,12217.7332,W,1,05,2.2,4.3,M,-25.1,M,,0000*6D
$GPGSA,A,3,13,08,28,23,10,,,,,,,,4.7,2.2,4.2*37
$GPRMC,203624.000,A,3748.7341,N,12217.7332,W,1.89,106.10,220611,,,A*76
$GPVTG,106.10,T,,M,1.89,N,3.5,K,A*0D
$GPGGA,203625.000,3748.7332,N,12217.7324,W,1,05,2.2,4.6,M,-25.1,M,,0000*6A
$GPGSA,A,3,13,08,28,23,10,,,,,,,,4.7,2.2,4.2*37
$GPGSV,3,1,12,07,66,349,24,13,58,127,36,08,48,298,25,10,37,249,32*72
$GPGSV,3,2,12,28,31,219,32,19,30,089,31,23,25,135,34,03,23,056,24*71
$GPGSV,3,3,12,05,21,305,21,06,14,045,22,16,03,043,14,51,43,156,35*7A
$GPRMC,203625.000,A,3748.7332,N,12217.7324,W,2.09,110.18,220611,,,A*70
$GPVTG,110.18,T,,M,2.09,N,3.9,K,A*05
$GPGGA,203626.000,3748.7325,N,12217.7318,W,1,05,2.2,4.8,M,-25.1,M,,0000*6E
$GPGSA,A,3,13,08,28,23,10,,,,,,,,4.7,2.2,4.2*37
$GPRMC,203626.000,A,3748.7325,N,12217.7318,W,2.26,129.12,220611,,,A*77
$GPVTG,129.12,T,,M,2.26,N,4.2,K,A*04
$GPGGA,203627.000,3748.7317,N,12217.7312,W,1,05,2.2,5.2,M,-25.1,M,,0000*6F
$GPGSA,A,3,13,08,28,23,10,,,,,,,,4.7,2.2,4.2*37
$GPRMC,203627.000,A,3748.7317,N,12217.7312,W,2.62,132.30,220611,,,A*77
$GPVTG,132.30,T,,M,2.62,N,4.9,K,A*05
$GPGGA,203628.000,3748.7311,N,12217.7304,W,2,05,2.2,5.4,M,-25.1,M,1.8,0000*43
$GPGSA,A,3,13,08,28,23,10,,,,,,,,4.7,2.2,4.2*37
$GPRMC,203628.000,A,3748.7311,N,12217.7304,W,2.31,114.14,220611,,,D*78
$GPVTG,114.14,T,,M,2.31,N,4.3,K,D*0E
$GPGGA,203629.000,3748.7305,N,12217.7296,W,2,05,2.2,5.8,M,-25.1,M,1.8,0000*41
$GPGSA,A,3,13,08,28,23,10,,,,,,,,4.7,2.2,4.2*37
$GPRMC,203629.000,A,3748.7305,N,12217.7296,W,2.29,110.79,220611,,,D*70
$GPVTG,110.79,T,,M,2.29,N,4.2,K,D*09
$GPGGA,203630.000,3748.7303,N,12217.7287,W,2,05,2.2,5.6,M,-25.1,M,1.8,0000*41
$GPGSA,A,3,13,08,28,23,10,,,,,,,,4.7,2.2,4.2*37
$GPGSV,3,1,12,07,66,349,24,13,58,127,35,08,48,298,24,10,37,249,36*74
$GPGSV,3,2,12,28,31,219,38,19,30,089,26,23,25,135,37,03,23,056,24*7E
$GPGSV,3,3,12,05,21,305,20,06,14,045,22,16,03,043,14,51,43,156,38*76
$GPVTG,111.81,T,,M,2.25,N,4.2,K,D*03
$GPGGA,203631.000,3748.7294,N,12217.7279,W,2,05,2.2,6.0,M,-25.1,M,2.8,0000*48
$GPGSA,A,3,13,08,28,23,10,,,,,,,,4.7,2.2,4.2*37
$GPRMC,203631.000,A,3748.7294,N,12217.7279,W,2.27,109.06,220611,,,D*7F
$GPVTG,109.06,T,,M,2.27,N,4.2,K,D*07
$GPGGA,203632.000,3748.7297,N,12217.7270,W,2,05,2.2,5.2,M,-25.1,M,3.8,0000*41
$GPGSA,A,3,13,08,28,23,10,,,,,,,,4.7,2.2,4.2*37
$GPRMC,203632.000,A,3748.7297,N,12217.7270,W,2.22,106.67,220611,,,D*7B
$GPVTG,106.67,T,,M,2.22,N,4.1,K,D*09
$GPGGA,203633.000,3748.7298,N,12217.7262,W,2,05,2.2,4.6,M,-25.1,M,4.8,0000*4E
$GPGSA,A,3,13,08,28,23,10,,,,,,,,4.7,2.2,4.2*37
$GPRMC,203633.000,A,3748.7298,N,12217.7262,W,2.28,117.53,220611,,,D*7B
$GPVTG,117.53,T,,M,2.28,N,4.2,K,D*07
$GPGGA,203634.000,3748.7299,N,12217.7254,W,2,05,2.2,3.9,M,-25.1,M,1.8,0000*40
$GPGSA,A,3,13,08,28,23,10,,,,,,,,4.7,2.2,4.2*37
$GPRMC,203634.000,A,3748.7299,N,12217.7254,W,2.31,120.18,220611,,,D*7B
$GPVTG,120.18,T,,M,2.31,N,4.3,K,D*05
$GPGGA,203635.000,3748.7298,N,12217.7247,W,2,05,2.2,3.5,M,-25.1,M,1.8,0000*4E
$GPGSA,A,3,13,08,28,23,10,,,,,,,,4.7,2.2,4.2*37
$GPGSV,3,1,12,07,66,349,26,13,58,127,35,08,48,298,33,10,37,249,38*7E
$GPGSV,3,2,12,28,31,219,38,19,30,089,25,23,25,135,37,03,23,056,23*7A
$GPGSV,3,3,12,05,21,305,25,06,14,045,22,16,03,043,15,51,43,156,37*7D
$GPRMC,203635.000,A,3748.7298,N,12217.7247,W,2.26,120.70,220611,,,D*71
$GPVTG,120.70,T,,M,2.26,N,4.2,K,D*0C
$GPGGA,203636.000,3748.7296,N,12217.7240,W,2,05,2.2,3.0,M,-25.1,M,1.8,0000*41
$GPGSA,A,3,13,08,28,23,10,,,,,,,,4.7,2.2,4.2*37
$GPRMC,203636.000,A,3748.7296,N,12217.7240,W,2.19,115.94,220611,,,D*7B
$GPVTG,115.94,T,,M,2.19,N,4.0,K,D*0E
$GPGGA,203637.000,3748.7295,N,12217.7232,W,2,05,2.2,2.5,M,-25.1,M,2.8,0000*41
$GPGSA,A,3,13,08,28,23,10,,,,,,,,4.7,2.2,4.2*37
$GPRMC,203637.000,A,3748.7295,N,12217.7232,W,2.23,107.03,220611,,,D*78
$GPVTG,107.03,T,,M,2.23,N,4.1,K,D*0B
$GPGGA,203638.000,3748.7289,N,12217.7224,W,2,05,2.2,2.7,M,-25.1,M,3.8,0000*47
$GPGSA,A,3,13,08,28,23,10,,,,,,,,4.7,2.2,4.2*37
$GPRMC,203638.000,A,3748.7289,N,12217.7224,W,2.32,111.97,220611,,,D*77
$GPVTG,111.97,T,,M,2.32,N,4.3,K,D*03
$GPGGA,203639.000,3748.7284,N,12217.7217,W,2,05,2.2,2.9,M,-25.1,M,4.8,0000*42
$GPGSA,A,3,13,08,28,23,10,,,,,,,,4.7,2.2,4.2*37
$GPRMC,203639.000,A,3748.7284,N,12217.7217,W,2.21,102.98,220611,,,D*74
$GPVTG,102.98,T,,M,2.21,N,4.1,K,D*0E
$GPGGA,203640.000,3748.7279,N,12217.7209,W,2,05,2.2,2.9,M,-25.1,M,1.8,0000*44
$GPGSA,A,3,13,08,28,23,10,,,,,,,,4.7,2.2,4.2*37
$GPGSV,3,1,12,07,66,349,27,13,58,127,35,08,48,298,26,10,37,249,39*7A
$GPGSV,3,2,12,28,31,219,39,19,30,089,30,23,25,135,37,03,23,056,23*7F
$GPGSV,3,3,12,05,21,305,27,06,14,045,22,16,03,043,16,51,43,156,39*72
$GPRMC,203640.000,A,3748.7279,N,12217.7209,W,2.35,111.50,220611,,,D*74
$GPVTG,111.50,T,,M,2.35,N,4.4,K,D*08
$GPGGA,203641.000,3748.7275,N,12217.7201,W,2,05,2.2,2.7,M,-25.1,M,1.8,0000*4F
$GPGSA,A,3,13,08,28,23,10,,,,,,,,4.7,2.2,4.2*37
$GPRMC,203641.000,A,3748.7275,N,12217.7201,W,2.37,119.32,220611,,,D*7F
$GPVTG,119.32,T,,M,2.37,N,4.4,K,D*06
$GPGGA,203642.000,3748.7272,N,12217.7194,W,2,05,2.2,2.4,M,-25.1,M,1.8,0000*47
$GPGSA,A,3,13,08,28,23,10,,,,,,,,4.7,2.2,4.2*37
$GPRMC,203642.000,A,3748.7272,N,12217.7194,W,2.39,120.06,220611,,,D*77
$GPVTG,120.06,T,,M,2.39,N,4.4,K,D*05
$GPGGA,203643.000,3748.7269,N,12217.7186,W,2,05,2.2,2.2,M,-25.1,M,2.8,0000*4A
$GPGSA,A,3,13,08,28,23,10,,,,,,,,4.7,2.2,4.2*37
$GPRMC,203643.000,A,3748.7269,N,12217.7186,W,2.38,117.21,220611,,,D*7F
$GPVTG,117.21,T,,M,2.38,N,4.4,K,D*05
$GPGGA,203644.000,3748.7266,N,12217.7178,W,2,05,2.2,2.0,M,-25.1,M,1.8,0000*42
$GPGSA,A,3,13,08,28,23,10,,,,,,,,4.7,2.2,4.2*37
$GPRMC,203644.000,A,3748.7266,N,12217.7178,W,2.55,113.34,220611,,,D*7D
$GPVTG,113.34,T,,M,2.55,N,4.7,K,D*0D
