$ADVER,3080,2.3
$GPRMC,212033.890,A,3747.7014,N,12215.4814,W,0.13,114.49,300412,,,A*7A
$GPGGA,212034.890,3747.6984,N,12215.4759,W,1,03,2.6,25.1,M,-25.1,M,,0000*5D
$GPGSA,A,2,20,13,07,,,,,,,,,,2.8,2.6,1.0*3B
$GPRMC,212034.890,A,3747.6984,N,12215.4759,W,0.39,349.85,300412,,,A*78
$GPVTG,349.85,T,,M,0.39,N,0.7,K,N*0C
$GPGGA,212035.890,3747.6948,N,12215.4834,W,1,03,2.6,25.1,M,-25.1,M,,0000*58
$GPGSA,A,2,20,13,07,,,,,,,,,,2.8,2.6,1.0*3B
$GPRMC,212035.890,A,3747.6948,N,12215.4834,W,0.16,208.16,300412,,,A*7E
$GPVTG,208.16,T,,M,0.16,N,0.3,K,N*0B
$GPGGA,212036.890,3747.6990,N,12215.4819,W,1,03,2.6,25.1,M,-25.1,M,,0000*51
$GPGSA,A,2,20,13,07,,,,,,,,,,2.8,2.6,1.0*3B
$GPGSV,3,1,12,13,60,331,34,07,47,266,39,20,34,179,33,23,70,063,*7F
$GPGSV,3,2,12,16,44,058,,10,34,306,35,30,20,043,,03,17,109,*7F
$GPGSV,3,3,12,32,16,160,23,06,14,093,,08,13,247,28,04,08,272,*79
$GPRMC,212036.890,A,3747.6990,N,12215.4819,W,0.24,211.59,300412,,,A*75
$GPVTG,211.59,T,,M,0.24,N,0.4,K,N*0E
$GPGGA,212037.890,3747.7007,N,12215.4860,W,1,03,2.6,25.1,M,-25.1,M,,0000*58
$GPGSA,A,2,20,13,07,,,,,,,,,,2.8,2.6,1.0*3B
$GPRMC,212037.890,A,3747.7007,N,12215.4860,W,0.07,143.19,300412,,,A*7D
$GPVTG,143.19,T,,M,0.07,N,0.1,K,N*0A
$GPGGA,212038.890,3747.6983,N,12215.4857,W,1,03,2.6,25.1,M,-25.1,M,,0000*57
$GPGSA,A,2,20,13,07,,,,,,,,,,2.8,2.6,1.0*3B
$GPRMC,212038.890,A,3747.6983,N,12215.4857,W,1.40,255.84,300412,,,A*70
$GPVTG,255.84,T,,M,1.40,N,2.6,K,N*0D
$GPGGA,212039.890,3747.6992,N,12215.4877,W,1,03,2.6,25.1,M,-25.1,M,,0000*54
$GPGSA,A,2,20,13,07,,,,,,,,,,2.8,2.6,1.0*3B
$GPRMC,212039.890,A,3747.6992,N,12215.4877,W,0.39,309.75,300412,,,A*7A
$GPVTG,309.75,T,,M,0.39,N,0.7,K,N*07
$GPGGA,212040.890,3747.6989,N,12215.4849,W,1,03,2.6,25.1,M,-25.1,M,,0000*5D
$GPGSA,A,2,20,13,07,,,,,,,,,,2.8,2.6,1.0*3B
$GPRMC,212040.890,A,3747.6989,N,12215.4849,W,1.17,357.29,300412,,,A*7C
$GPVTG,357.29,T,,M,1.17,N,2.2,K,N*0F
$GPGGA,212041.890,3747.6995,N,12215.4847,W,1,03,2.6,25.1,M,-25.1,M,,0000*5F
$GPGSA,A,2,20,13,07,,,,,,,,,,2.8,2.6,1.0*3B
$GPGSV,3,1,12,13,60,331,33,07,47,266,39,20,34,179,27,23,70,063,*7D
$GPGSV,3,2,12,16,44,058,,10,34,306,37,30,20,043,,03,17,109,*7D
$GPGSV,3,3,12,32,16,160,24,06,14,093,,08,13,247,28,04,08,272,*7E
$GPRMC,212041.890,A,3747.6995,N,12215.4847,W,0.89,45.79,300412,,,A*4D
$GPVTG,45.79,T,,M,0.89,N,1.6,K,N*3B
$GPGGA,212042.890,3747.6973,N,12215.4825,W,1,03,2.6,25.1,M,-25.1,M,,0000*50
$GPGSA,A,2,20,13,07,,,,,,,,,,2.8,2.6,1.0*3B
$GPRMC,212042.890,A,3747.6973,N,12215.4825,W,0.31,71.88,300412,,,A*48
$GPVTG,71.88,T,,M,0.31,N,0.6,K,N*30
$GPGGA,212043.890,3747.6993,N,12215.4819,W,1,03,2.6,25.1,M,-25.1,M,,0000*50
$GPGSA,A,2,20,13,07,,,,,,,,,,2.8,2.6,1.0*3B
$GPRMC,212043.890,A,3747.6993,N,12215.4819,W,0.20,142.67,300412,,,A*78
$GPVTG,142.67,T,,M,0.20,N,0.4,K,N*02
$GPGGA,212044.890,3747.6988,N,12215.4860,W,1,03,2.6,25.1,M,-25.1,M,,0000*53
$GPGSA,A,2,20,13,07,,,,,,,,,,2.8,2.6,1.0*3B
$GPRMC,212044.890,A,3747.6988,N,12215.4860,W,0.09,175.77,300412,,,A*75
$GPVTG,175.77,T,,M,0.09,N,0.2,K,N*0A
$GPGGA,212048.890,3747.7015,N,12215.4755,W,1,03,2.6,25.1,M,-25.1,M,,0000*5A
$GPGSA,A,2,20,13,07,,,,,,,,,,2.8,2.6,1.0*3B
$GPRMC,212048.890,A,3747.7015,N,12215.4755,W,0.29,298.77,300412,,,A*7E
$GPVTG,298.77,T,,M,0.29,N,0.5,K,N*0F
$GPGGA,212049.890,3747.7015,N,12215.4746,W,1,03,2.6,25.1,M,-25.1,M,,0000*59
$GPGSA,A,2,20,13,07,,,,,,,,,,2.8,2.6,1.0*3B
$GPRMC,212049.890,A,3747.7015,N,12215.4746,W,0.35,251.70,300412,,,A*72
$GPVTG,251.70,T,,M,0.35,N,0.6,K,N*03
$GPGGA,212050.890,3747.7018,N,12215.4746,W,1,03,2.6,25.1,M,-25.1,M,,0000*5C
$GPGSA,A,2,20,13,07,,,,,,,,,,2.8,2.6,1.0*3B
$GPRMC,212050.890,A,3747.7018,N,12215.4746,W,0.13,328.37,300412,,,A*7F
$GPVTG,328.37,T,,M,0.13,N,0.2,K,N*0F
$GPGGA,212051.890,3747.7018,N,12215.4761,W,1,03,2.6,25.1,M,-25.1,M,,0000*58
$GPGSA,A,2,20,13,07,,,,,,,,,,2.8,2.6,1.0*3B
$GPGSV,3,1,12,13,60,331,34,07,47,266,30,20,34,179,30,23,70,063,*75
$GPGSV,3,2,12,16,44,058,,10,34,306,32,30,20,043,,03,17,109,*78
$GPGSV,3,3,12,32,16,160,28,06,14,093,,08,13,248,24,04,08,272,*71
$GPRMC,212051.890,A,3747.7018,N,12215.4761,W,0.10,29.59,300412,,,A*42
$GPVTG,29.59,T,,M,0.10,N,0.2,K,N*36
$GPGGA,212056.890,3747.7005,N,12215.4865,W,1,03,2.6,25.1,M,-25.1,M,,0000*58
$GPGSA,A,2,20,13,07,,,,,,,,,,2.8,2.6,1.0*3B
$GPGSV,3,1,12,13,60,331,33,07,47,266,18,20,34,179,27,23,70,063,*7E
$GPGSV,3,2,12,16,44,058,,10,34,306,26,30,20,043,,03,17,109,*7D
$GPGSV,3,3,12,32,16,160,21,06,14,093,,08,13,248,20,04,08,272,*7C
$GPRMC,212056.890,A,3747.7005,N,12215.4865,W,2.90,255.78,300412,,,A*72
$GPVTG,255.78,T,,M,2.90,N,5.4,K,N*05
$GPGGA,212057.890,3747.7021,N,12215.4759,W,1,03,2.6,25.1,M,-25.1,M,,0000*5F
$GPGSA,A,2,20,13,07,,,,,,,,,,2.8,2.6,1.0*3B
$GPRMC,212057.890,A,3747.7021,N,12215.4759,W,0.17,77.68,300412,,,A*4B
$GPVTG,77.68,T,,M,0.17,N,0.3,K,N*39
$GPGGA,212058.890,3747.7035,N,12215.4629,W,1,03,2.6,25.1,M,-25.1,M,,0000*53
$GPGSA,A,2,20,13,07,,,,,,,,,,2.8,2.6,1.0*3B
$GPRMC,212058.890,A,3747.7035,N,12215.4629,W,0.45,78.55,300412,,,A*41
$GPVTG,78.55,T,,M,0.45,N,0.8,K,N*34
$GPGGA,212059.890,3747.6986,N,12215.4756,W,1,03,2.6,25.1,M,-25.1,M,,0000*5B
$GPGSA,A,2,20,13,07,,,,,,,,,,2.8,2.6,1.0*3B
$GPRMC,212059.890,A,3747.6986,N,12215.4756,W,0.44,145.68,300412,,,A*79
$GPVTG,145.68,T,,M,0.44,N,0.8,K,N*04
$GPGGA,212100.890,3747.7028,N,12215.4760,W,1,03,2.6,25.1,M,-25.1,M,,0000*5F
$GPGSA,A,2,20,13,07,,,,,,,,,,2.8,2.6,1.0*3B
$GPRMC,212100.890,A,3747.7028,N,12215.4760,W,0.24,295.19,300412,,,A*73
$GPVTG,295.19,T,,M,0.24,N,0.4,K,N*06
$GPGGA,212101.890,3747.7082,N,12215.4879,W,1,03,2.6,25.1,M,-25.1,M,,0000*59
$GPGSA,A,2,20,13,07,,,,,,,,,,2.8,2.6,1.0*3B
$GPGSV,3,1,12,13,60,331,26,07,47,266,30,20,34,179,28,23,70,063,*7F
$GPGSV,3,2,12,16,44,058,,10,34,306,27,30,20,043,,03,17,109,*7C
$GPGSV,3,3,12,32,16,160,20,06,14,093,,08,13,248,28,04,08,272,*75
$GPRMC,212101.890,A,3747.7082,N,12215.4879,W,0.49,74.16,300412,,,A*4C
$GPGGA,212102.890,3747.7020,N,12215.4874,W,1,03,2.6,25.1,M,-25.1,M,,0000*5F
$GPGSA,A,2,20,13,07,,,,,,,,,,2.8,2.6,1.0*3B
$GPRMC,212102.890,A,3747.7020,N,12215.4874,W,0.38,217.58,300412,,,A*71
$GPVTG,217.58,T,,M,0.38,N,0.7,K,N*07
$GPGGA,212103.890,3747.7020,N,12215.4843,W,1,03,2.6,25.1,M,-25.1,M,,0000*5A
$GPGSA,A,2,20,13,07,,,,,,,,,,2.8,2.6,1.0*3B
$GPRMC,212103.890,A,3747.7020,N,12215.4843,W,0.22,179.51,300412,,,A*7D
$GPVTG,179.51,T,,M,0.22,N,0.4,K,N*0D
$GPGGA,212104.890,3747.7059,N,12215.4771,W,1,03,2.6,25.1,M,-25.1,M,,0000*5D
$GPGSA,A,2,20,13,07,,,,,,,,,,2.8,2.6,1.0*3B
$GPRMC,212104.890,A,3747.7059,N,12215.4771,W,0.43,79.10,300412,,,A*49
$GPVTG,79.10,T,,M,0.43,N,0.8,K,N*32
$GPGGA,212105.890,3747.7052,N,12215.4788,W,1,03,2.6,25.1,M,-25.1,M,,0000*51
$GPGSA,A,2,20,13,07,,,,,,,,,,2.8,2.6,1.0*3B
$GPRMC,212105.890,A,3747.7052,N,12215.4788,W,0.59,66.64,300412,,,A*43
$GPVTG,66.64,T,,M,0.59,N,1.1,K,N*3C
$GPGGA,212106.890,3747.7048,N,12215.4818,W,1,03,2.6,25.1,M,-25.1,M,,0000*5F
$GPGSA,A,2,20,13,07,,,,,,,,,,2.8,2.6,1.0*3B
$GPGSV,3,1,12,13,60,331,27,07,47,266,29,20,34,179,21,23,70,063,*7F
$GPGSV,3,2,12,16,44,058,,10,34,306,28,30,20,043,,03,17,109,*73
$GPGSV,3,3,12,32,16,160,20,06,14,093,,08,13,248,31,04,08,272,*7D
$GPRMC,212106.890,A,3747.7048,N,12215.4818,W,1.96,120.78,300412,,,A*71
$GPVTG,120.78,T,,M,1.96,N,3.6,K,N*05
$GPGGA,212107.890,3747.7007,N,12215.4774,W,1,03,2.6,25.1,M,-25.1,M,,0000*50
$GPGSA,A,2,20,13,07,,,,,,,,,,2.8,2.6,1.0*3B
$GPRMC,212107.890,A,3747.7007,N,12215.4774,W,0.40,204.19,300412,,,A*76
$GPVTG,204.19,T,,M,0.40,N,0.7,K,N*0F
$GPGGA,212108.890,3747.7003,N,12215.4850,W,1,03,2.6,25.1,M,-25.1,M,,0000*52
$GPGSA,A,2,20,13,07,,,,,,,,,,2.8,2.6,1.0*3B
$GPRMC,212108.890,A,3747.7003,N,12215.4850,W,0.44,164.91,300412,,,A*75
$GPVTG,164.91,T,,M,0.44,N,0.8,K,N*01
$GPGGA,212109.890,3747.6979,N,12215.4918,W,1,03,2.6,25.1,M,-25.1,M,,0000*5B
$GPGSA,A,2,20,13,07,,,,,,,,,,2.8,2.6,1.0*3B
$GPRMC,212109.890,A,3747.6979,N,12215.4918,W,1.65,170.12,300412,,,A*70
$GPVTG,170.12,T,,M,1.65,N,3.1,K,N*07
$GPGGA,212110.890,3747.6990,N,12215.4799,W,1,03,2.6,25.1,M,-25.1,M,,0000*53
$GPGSA,A,2,20,13,07,,,,,,,,,,2.8,2.6,1.0*3B
$GPRMC,212110.890,A,3747.6990,N,12215.4799,W,2.52,205.89,300412,,,A*7C
$GPVTG,205.89,T,,M,2.52,N,4.7,K,N*02
$GPGGA,212111.890,3747.7006,N,12215.4703,W,1,03,2.6,25.1,M,-25.1,M,,0000*56
$GPGSA,A,2,20,13,07,,,,,,,,,,2.8,2.6,1.0*3B
$GPGSV,3,1,12,13,60,331,25,07,47,266,27,20,34,179,32,23,70,063,*71
$GPGSV,3,2,12,16,44,058,,10,34,306,30,30,20,043,,03,17,109,*7A
$GPGSV,3,3,12,32,16,160,27,06,14,093,,08,13,248,30,04,08,272,*7B
$GPVTG,125.46,T,,M,1.63,N,3.0,K,N*01
$GPGGA,212112.890,3747.7012,N,12215.4768,W,1,03,2.6,25.1,M,-25.1,M,,0000*5D
$GPGSA,A,2,20,13,07,,,,,,,,,,2.8,2.6,1.0*3B
$GPRMC,212112.890,A,3747.7012,N,12215.4768,W,2.75,92.70,300412,,,A*4D
$GPVTG,92.70,T,,M,2.75,N,5.1,K,N*3A
$GPGGA,212113.890,3747.6989,N,12215.4841,W,1,03,2.6,25.1,M,-25.1,M,,0000*52
$GPGSA,A,2,20,13,07,,,,,,,,,,2.8,2.6,1.0*3B
$GPRMC,212113.890,A,3747.6989,N,12215.4841,W,2.45,112.60,300412,,,A*79
$GPVTG,112.60,T,,M,2.45,N,4.5,K,N*04
$GPGGA,212114.890,3747.6986,N,12215.4776,W,1,03,2.6,25.1,M,-25.1,M,,0000*51
$GPGSA,A,2,20,13,07,,,,,,,,,,2.8,2.6,1.0*3B
$GPRMC,212114.890,A,3747.6986,N,12215.4776,W,1.84,139.66,300412,,,A*7B
$GPVTG,139.66,T,,M,1.84,N,3.4,K,N*03
$GPGGA,212115.890,3747.6927,N,12215.4902,W,1,03,2.6,25.1,M,-25.1,M,,0000*56
$GPGSA,A,2,20,13,07,,,,,,,,,,2.8,2.6,1.0*3B
$GPRMC,212115.890,A,3747.6927,N,12215.4902,W,2.63,118.48,300412,,,A*79
$GPVTG,118.48,T,,M,2.63,N,4.9,K,N*0C
$GPGGA,212116.890,3747.6926,N,12215.4929,W,1,03,2.6,25.1,M,-25.1,M,,0000*5D
$GPGSA,A,2,20,13,07,,,,,,,,,,2.8,2.6,1.0*3B
$GPGSV,3,1,12,13,60,331,25,07,47,266,28,20,34,179,34,23,70,063,*78
$GPGSV,3,2,12,16,44,058,,10,34,306,30,30,20,043,,03,17,109,*7A
$GPGSV,3,3,12,32,16,160,31,06,14,093,,08,13,248,33,04,08,272,*7F
$GPRMC,212116.890,A,3747.6926,N,12215.4929,W,2.56,139.78,300412,,,A*74
$GPVTG,139.78,T,,M,2.56,N,4.7,K,N*04
$GPGGA,212117.890,3747.6906,N,12215.4915,W,1,03,2.6,25.1,M,-25.1,M,,0000*51
$GPGSA,A,2,20,13,07,,,,,,,,,,2.8,2.6,1.0*3B
$GPRMC,212117.890,A,3747.6906,N,12215.4915,W,2.49,116.83,300412,,,A*7F
$GPVTG,116.83,T,,M,2.49,N,4.6,K,N*02
$GPGGA,212118.890,3747.6872,N,12215.4946,W,1,03,2.6,25.1,M,-25.1,M,,0000*5A
$GPGSA,A,2,20,13,07,,,,,,,,,,2.8,2.6,1.0*3B
$GPRMC,212118.890,A,3747.6872,N,12215.4946,W,2.46,138.92,300412,,,A*77
$GPVTG,138.92,T,,M,2.46,N,4.6,K,N*01
$GPGGA,212119.890,3747.6935,N,12215.4795,W,1,03,2.6,25.1,M,-25.1,M,,0000*59
$GPGSA,A,2,20,13,07,,,,,,,,,,2.8,2.6,1.0*3B
$GPRMC,212119.890,A,3747.6935,N,12215.4795,W,3.47,86.50,300412,,,A*4E
$GPVTG,86.50,T,,M,3.47,N,6.4,K,N*3B
$GPGGA,212120.890,3747.6904,N,12215.4724,W,1,03,2.6,25.1,M,-25.1,M,,0000*5B
$GPGSA,A,2,20,13,07,,,,,,,,,,2.8,2.6,1.0*3B
$GPRMC,212120.890,A,3747.6904,N,12215.4724,W,1.91,138.37,300412,,,A*70
$GPVTG,138.37,T,,M,1.91,N,3.5,K,N*03
$GPGGA,212121.890,3747.6904,N,12215.4921,W,1,03,2.6,25.1,M,-25.1,M,,0000*51
$GPGSA,A,2,20,13,07,,,,,,,,,,2.8,2.6,1.0*3B
$GPGSV,3,1,12,13,60,331,25,07,47,266,29,20,34,179,29,23,70,063,*75
$GPGSV,3,2,12,16,44,058,,10,34,306,27,30,20,043,,03,17,109,*7C
$GPGSV,3,3,12,32,16,160,31,06,14,093,,08,13,248,30,04,08,272,*7C
$GPRMC,212121.890,A,3747.6904,N,12215.4921,W,2.68,89.27,300412,,,A*45
$GPVTG,89.27,T,,M,2.68,N,5.0,K,N*3F
$GPGGA,212122.890,3747.6901,N,12215.4809,W,1,03,2.6,25.1,M,-25.1,M,,0000*5C
$GPGSA,A,2,20,13,07,,,,,,,,,,2.8,2.6,1.0*3B
$GPRMC,212122.890,A,3747.6901,N,12215.4809,W,4.59,93.93,300412,,,A*48
$GPVTG,93.93,T,,M,4.59,N,8.5,K,N*37
$GPGGA,212123.890,3747.6951,N,12215.4721,W,1,03,2.6,25.1,M,-25.1,M,,0000*5D
$GPGSA,A,2,20,13,07,,,,,,,,,,2.8,2.6,1.0*3B
$GPRMC,212123.890,A,3747.6951,N,12215.4721,W,2.84,114.30,300412,,,A*78
$GPVTG,114.30,T,,M,2.84,N,5.3,K,N*0D
$GPGGA,212124.890,3747.6918,N,12215.4762,W,1,03,2.6,25.1,M,-25.1,M,,0000*50
$GPGSA,A,2,20,13,07,,,,,,,,,,2.8,2.6,1.0*3B
$GPRMC,212124.890,A,3747.6918,N,12215.4762,W,2.83,113.99,300412,,,A*76
$GPVTG,113.99,T,,M,2.83,N,5.2,K,N*0F
$GPGGA,212125.890,3747.6898,N,12215.4770,W,1,03,2.6,25.1,M,-25.1,M,,0000*5B
$GPGSA,A,2,20,13,07,,,,,,,,,,2.8,2.6,1.0*3B
$GPRMC,212125.890,A,3747.6898,N,12215.4770,W,3.95,92.45,300412,,,A*42
$GPVTG,92.45,T,,M,3.95,N,7.3,K,N*33
$GPGGA,212126.890,3747.6865,N,12215.4827,W,1,03,2.6,25.1,M,-25.1,M,,0000*57
$GPGSA,A,2,20,13,07,,,,,,,,,,2.8,2.6,1.0*3B
$GPGSV,3,1,12,13,60,331,25,07,47,266,29,20,34,179,33,23,70,063,*7E
$GPGSV,3,2,12,16,44,058,,10,34,306,27,30,20,043,,03,17,109,*7C
$GPGSV,3,3,12,32,16,160,32,06,14,093,,08,13,248,36,04,08,272,*79
$GPRMC,212126.890,A,3747.6865,N,12215.4827,W,3.21,84.51,300412,,,A*43
$GPGGA,212127.890,3747.6949,N,12215.4670,W,1,03,2.6,25.1,M,-25.1,M,,0000*55
$GPGSA,A,2,20,13,07,,,,,,,,,,2.8,2.6,1.0*3B
$GPRMC,212127.890,A,3747.6949,N,12215.4670,W,3.93,105.21,300412,,,A*77
$GPVTG,105.21,T,,M,3.93,N,7.3,K,N*08
$GPGGA,212128.890,3747.6932,N,12215.4669,W,1,03,2.6,25.1,M,-25.1,M,,0000*5E
$GPGSA,A,2,20,13,07,,,,,,,,,,2.8,2.6,1.0*3B
$GPRMC,212128.890,A,3747.6932,N,12215.4669,W,2.77,96.84,300412,,,A*43
$GPVTG,96.84,T,,M,2.77,N,5.1,K,N*37
$GPGGA,212129.890,3747.6878,N,12215.4699,W,1,03,2.6,25.1,M,-25.1,M,,0000*5F
$GPGSA,A,2,20,13,07,,,,,,,,,,2.8,2.6,1.0*3B
$GPRMC,212129.890,A,3747.6878,N,12215.4699,W,3.24,92.90,300412,,,A*44
$GPVTG,92.90,T,,M,3.24,N,6.0,K,N*33
$GPGGA,212130.890,3747.6897,N,12215.4717,W,1,03,2.6,25.1,M,-25.1,M,,0000*51
$GPGSA,A,2,20,13,07,,,,,,,,,,2.8,2.6,1.0*3B
$GPRMC,212130.890,A,3747.6897,N,12215.4717,W,3.21,113.77,300412,,,A*7E
$GPVTG,113.77,T,,M,3.21,N,5.9,K,N*0D
$GPGGA,212131.890,3747.6887,N,12215.4726,W,1,03,2.6,25.1,M,-25.1,M,,0000*53
$GPGSA,A,2,20,13,07,,,,,,,,,,2.8,2.6,1.0*3B
$GPGSV,3,1,12,13,60,331,25,07,47,266,28,20,34,179,33,23,70,063,*7F
$GPGSV,3,2,12,16,44,058,,10,34,306,27,30,20,043,,03,17,109,*7C
$GPGSV,3,3,12,32,16,160,32,06,14,093,,08,13,248,24,04,08,272,*7A
$GPRMC,212131.890,A,3747.6887,N,12215.4726,W,3.62,92.34,300412,,,A*44
$GPVTG,92.34,T,,M,3.62,N,6.7,K,N*38
$GPGGA,212132.890,3747.6861,N,12215.4754,W,1,03,2.6,25.1,M,-25.1,M,,0000*5D
$GPGSA,A,2,20,13,07,,,,,,,,,,2.8,2.6,1.0*3B
$GPRMC,212132.890,A,3747.6861,N,12215.4754,W,2.58,115.58,300412,,,A*76
$GPVTG,115.58,T,,M,2.58,N,4.8,K,N*09
$GPGGA,212133.890,3747.6858,N,12215.4750,W,1,03,2.6,25.1,M,-25.1,M,,0000*52
$GPGSA,A,2,20,13,07,,,,,,,,,,2.8,2.6,1.0*3B
$GPRMC,212133.890,A,3747.6858,N,12215.4750,W,2.00,158.42,300412,,,A*76
$GPVTG,158.42,T,,M,2.00,N,3.7,K,N*0E
$GPGGA,212134.890,3747.6847,N,12215.4785,W,1,03,2.6,25.1,M,-25.1,M,,0000*53
$GPGSA,A,2,20,13,07,,,,,,,,,,2.8,2.6,1.0*3B
$GPRMC,212134.890,A,3747.6847,N,12215.4785,W,2.03,125.07,300412,,,A*7F
$GPVTG,125.07,T,,M,2.03,N,3.8,K,N*09
$GPGGA,212135.890,3747.6879,N,12215.4693,W,1,03,2.6,25.1,M,-25.1,M,,0000*59
$GPGSA,A,2,20,13,07,,,,,,,,,,2.8,2.6,1.0*3B
$GPRMC,212135.890,A,3747.6879,N,12215.4693,W,2.71,137.82,300412,,,A*7E
$GPVTG,137.82,T,,M,2.71,N,5.0,K,N*0C
$GPGGA,212136.890,3747.6864,N,12215.4678,W,1,03,2.6,25.1,M,-25.1,M,,0000*53
$GPGSA,A,2,20,13,07,,,,,,,,,,2.8,2.6,1.0*3B
$GPGSV,3,1,12,13,60,331,24,07,47,266,28,20,34,179,34,23,70,063,*79
$GPGSV,3,2,12,16,44,058,,10,34,306,28,30,20,043,,03,17,109,*73
$GPGSV,3,3,12,32,16,160,32,06,14,093,,08,13,248,21,04,08,272,*7F
$GPVTG,160.44,T,,M,3.41,N,6.3,K,N*06
$GPGGA,212137.890,3747.6888,N,12215.4609,W,1,03,2.6,25.1,M,-25.1,M,,0000*56
$GPGSA,A,2,20,13,07,,,,,,,,,,2.8,2.6,1.0*3B
$GPRMC,212137.890,A,3747.6888,N,12215.4609,W,3.13,109.84,300412,,,A*7F
$GPVTG,109.84,T,,M,3.13,N,5.8,K,N*0A
$GPGGA,212138.890,3747.6845,N,12215.4657,W,1,03,2.6,25.1,M,-25.1,M,,0000*53
$GPGSA,A,2,20,13,07,,,,,,,,,,2.8,2.6,1.0*3B
$GPRMC,212138.890,A,3747.6845,N,12215.4657,W,2.47,149.19,300412,,,A*7A
$GPVTG,149.19,T,,M,2.47,N,4.6,K,N*05
$GPGGA,212139.890,3747.6816,N,12215.4733,W,1,03,2.6,25.1,M,-25.1,M,,0000*57
$GPGSA,A,2,20,13,07,,,,,,,,,,2.8,2.6,1.0*3B
$GPRMC,212139.890,A,3747.6816,N,12215.4733,W,2.71,122.04,300412,,,A*7A
$GPVTG,122.04,T,,M,2.71,N,5.0,K,N*06
$GPGGA,212140.890,3747.6806,N,12215.4630,W,1,03,2.6,25.1,M,-25.1,M,,0000*5A
$GPGSA,A,2,20,13,07,,,,,,,,,,2.8,2.6,1.0*3B
$GPRMC,212140.890,A,3747.6806,N,12215.4630,W,2.84,108.77,300412,,,A*71
$GPVTG,108.77,T,,M,2.84,N,5.3,K,N*03
$GPGGA,212141.890,3747.6830,N,12215.4652,W,1,03,2.6,25.1,M,-25.1,M,,0000*5A
$GPGSA,A,2,20,13,07,,,,,,,,,,2.8,2.6,1.0*3B
$GPGSV,3,1,12,13,60,331,24,07,47,266,28,20,34,179,34,23,70,063,*79
$GPGSV,3,2,12,16,44,058,,10,34,306,28,30,20,043,,03,17,109,*73
$GPGSV,3,3,12,32,16,160,32,06,14,093,,08,13,248,27,04,08,272,*79
$GPRMC,212141.890,A,3747.6830,N,12215.4652,W,3.13,104.75,300412,,,A*70
$GPVTG,104.75,T,,M,3.13,N,5.8,K,N*09
$GPGGA,212142.890,3747.6781,N,12215.4761,W,1,03,2.6,25.1,M,-25.1,M,,0000*5D
$GPGSA,A,2,20,13,07,,,,,,,,,,2.8,2.6,1.0*3B
$GPRMC,212142.890,A,3747.6781,N,12215.4761,W,2.73,149.38,300412,,,A*70
$GPVTG,149.38,T,,M,2.73,N,5.1,K,N*07
$GPGGA,212143.890,3747.6785,N,12215.4709,W,1,03,2.6,25.1,M,-25.1,M,,0000*56
$GPGSA,A,2,20,13,07,,,,,,,,,,2.8,2.6,1.0*3B
$GPRMC,212143.890,A,3747.6785,N,12215.4709,W,3.45,95.45,300412,,,A*45
$GPVTG,95.45,T,,M,3.45,N,6.4,K,N*3F
$GPGGA,212144.890,3747.6841,N,12215.4622,W,1,03,2.6,25.1,M,-25.1,M,,0000*5E
$GPGSA,A,2,20,13,07,,,,,,,,,,2.8,2.6,1.0*3B
$GPRMC,212144.890,A,3747.6841,N,12215.4622,W,2.45,107.72,300412,,,A*72
$GPVTG,107.72,T,,M,2.45,N,4.5,K,N*03
$GPGGA,212145.890,3747.6800,N,12215.4649,W,1,03,2.6,25.1,M,-25.1,M,,0000*57
$GPGSA,A,2,20,13,07,,,,,,,,,,2.8,2.6,1.0*3B
$GPRMC,212145.890,A,3747.6800,N,12215.4649,W,3.38,137.45,300412,,,A*77
$GPVTG,137.45,T,,M,3.38,N,6.3,K,N*0B
$GPGGA,212146.890,3747.6801,N,12215.4698,W,1,03,2.6,25.1,M,-25.1,M,,0000*59
$GPGSA,A,2,20,13,07,,,,,,,,,,2.8,2.6,1.0*3B
$GPGSV,3,1,12,13,60,331,23,07,47,266,27,20,34,179,34,23,70,063,*71
$GPGSV,3,2,12,16,44,058,,10,34,306,27,30,20,043,,03,17,109,*7C
$GPGSV,3,3,12,32,16,160,33,06,14,093,,08,13,248,33,04,08,272,*7D
$GPRMC,212146.890,A,3747.6801,N,12215.4698,W,3.29,135.44,300412,,,A*7A
$GPVTG,135.44,T,,M,3.29,N,6.1,K,N*0A
$GPGGA,212147.890,3747.6806,N,12215.4614,W,1,03,2.6,25.1,M,-25.1,M,,0000*5B
$GPGSA,A,2,20,13,07,,,,,,,,,,2.8,2.6,1.0*3B
$GPRMC,212147.890,A,3747.6806,N,12215.4614,W,2.36,145.49,300412,,,A*7D
$GPVTG,145.49,T,,M,2.36,N,4.4,K,N*08
$GPGGA,212148.890,3747.6755,N,12215.4762,W,1,03,2.6,25.1,M,-25.1,M,,0000*5D
$GPGSA,A,2,20,13,07,,,,,,,,,,2.8,2.6,1.0*3B
$GPRMC,212148.890,A,3747.6755,N,12215.4762,W,2.21,162.60,300412,,,A*73
$GPVTG,162.60,T,,M,2.21,N,4.1,K,N*05
$GPGGA,212149.890,3747.6799,N,12215.4596,W,1,03,2.6,25.1,M,-25.1,M,,0000*55
$GPGSA,A,2,20,13,07,,,,,,,,,,2.8,2.6,1.0*3B
$GPRMC,212149.890,A,3747.6799,N,12215.4596,W,2.71,117.75,300412,,,A*78
$GPVTG,117.75,T,,M,2.71,N,5.0,K,N*06
$GPGGA,212150.890,3747.6752,N,12215.4609,W,1,03,2.6,25.1,M,-25.1,M,,0000*5F
$GPGSA,A,2,20,13,07,,,,,,,,,,2.8,2.6,1.0*3B
$GPRMC,212150.890,A,3747.6752,N,12215.4609,W,2.43,140.36,300412,,,A*76
$GPVTG,140.36,T,,M,2.43,N,4.5,K,N*06
$GPGGA,212151.890,3747.6786,N,12215.4595,W,1,03,2.6,25.1,M,-25.1,M,,0000*51
$GPGSA,A,2,20,13,07,,,,,,,,,,2.8,2.6,1.0*3B
$GPGSV,3,1,12,13,60,331,24,07,47,266,28,20,34,179,34,23,70,063,*79
$GPGSV,3,2,12,16,44,058,,10,34,306,28,30,20,043,,03,17,109,*73
$GPGSV,3,3,12,32,16,160,29,06,14,093,,08,13,248,38,04,08,272,*7D
$GPRMC,212151.890,A,3747.6786,N,12215.4595,W,3.42,99.10,300412,,,A*49
$GPGGA,212152.890,3747.6848,N,12215.4496,W,1,03,2.6,25.1,M,-25.1,M,,0000*5D
$GPGSA,A,2,20,13,07,,,,,,,,,,2.8,2.6,1.0*3B
$GPRMC,212152.890,A,3747.6848,N,12215.4496,W,2.73,143.36,300412,,,A*74
$GPVTG,143.36,T,,M,2.73,N,5.0,K,N*02
$GPGGA,212153.890,3747.6750,N,12215.4617,W,1,03,2.6,25.1,M,-25.1,M,,0000*51
$GPGSA,A,2,20,13,07,,,,,,,,,,2.8,2.6,1.0*3B
$GPRMC,212153.890,A,3747.6750,N,12215.4617,W,2.74,144.65,300412,,,A*7E
$GPVTG,144.65,T,,M,2.74,N,5.1,K,N*05
$GPGGA,212154.890,3747.6752,N,12215.4581,W,1,03,2.6,25.1,M,-25.1,M,,0000*58
$GPGSA,A,2,20,13,07,,,,,,,,,,2.8,2.6,1.0*3B
$GPRMC,212154.890,A,3747.6752,N,12215.4581,W,2.62,128.32,300412,,,A*78
$GPVTG,128.32,T,,M,2.62,N,4.9,K,N*03
$GPGGA,212155.890,3747.6706,N,12215.4694,W,1,03,2.6,25.1,M,-25.1,M,,0000*5F
$GPGSA,A,2,20,13,07,,,,,,,,,,2.8,2.6,1.0*3B
$GPRMC,212155.890,A,3747.6706,N,12215.4694,W,2.27,161.38,300412,,,A*79
$GPVTG,161.38,T,,M,2.27,N,4.2,K,N*0E
$GPGGA,212156.890,3747.6698,N,12215.4631,W,1,03,2.6,25.1,M,-25.1,M,,0000*55
$GPGSA,A,2,20,13,07,,,,,,,,,,2.8,2.6,1.0*3B
$GPGSV,3,1,12,13,60,331,23,07,47,266,28,20,34,179,34,23,70,063,*7E
$GPGSV,3,2,12,16,44,058,,10,34,306,27,30,20,043,,03,17,109,17*7A
$GPGSV,3,3,12,32,16,160,33,06,14,093,,08,13,248,33,04,08,272,*7D
$GPRMC,212156.890,A,3747.6698,N,12215.4631,W,2.86,160.61,300412,,,A*75
$GPVTG,160.61,T,,M,2.86,N,5.3,K,N*08
$GPGGA,212157.890,3747.6719,N,12215.4595,W,1,03,2.6,25.1,M,-25.1,M,,0000*51
$GPGSA,A,2,20,13,07,,,,,,,,,,2.8,2.6,1.0*3B
$GPRMC,212157.890,A,3747.6719,N,12215.4595,W,2.79,120.25,300412,,,A*75
$GPVTG,120.25,T,,M,2.79,N,5.2,K,N*0D
$GPGGA,212158.890,3747.6732,N,12215.4573,W,1,03,2.6,25.1,M,-25.1,M,,0000*5F
$GPGSA,A,2,20,13,07,,,,,,,,,,2.8,2.6,1.0*3B
$GPRMC,212158.890,A,3747.6732,N,12215.4573,W,2.47,145.48,300412,,,A*7E
$GPVTG,145.48,T,,M,2.47,N,4.6,K,N*0D
$GPGGA,212159.890,3747.6727,N,12215.4568,W,1,03,2.6,25.1,M,-25.1,M,,0000*50
$GPGSA,A,2,20,13,07,,,,,,,,,,2.8,2.6,1.0*3B
$GPRMC,212159.890,A,3747.6727,N,12215.4568,W,2.52,156.29,300412,,,A*70
$GPVTG,156.29,T,,M,2.52,N,4.7,K,N*0D
$GPGGA,212200.890,3747.6715,N,12215.4570,W,1,03,2.6,25.1,M,-25.1,M,,0000*57
$GPGSA,A,2,20,13,07,,,,,,,,,,2.8,2.6,1.0*3B
$GPRMC,212200.890,A,3747.6715,N,12215.4570,W,2.66,140.92,300412,,,A*77
$GPVTG,140.92,T,,M,2.66,N,4.9,K,N*03
$GPGGA,212201.890,3747.6706,N,12215.4574,W,1,03,2.6,25.1,M,-25.1,M,,0000*50
$GPGSA,A,2,20,13,07,,,,,,,,,,2.8,2.6,1.0*3B
$GPGSV,3,1,12,13,60,331,23,07,47,266,28,20,34,179,35,23,70,063,*7F
$GPGSV,3,2,12,16,44,058,,10,34,306,27,30,20,043,,03,17,109,21*7F
$GPGSV,3,3,12,32,16,160,34,06,14,093,,08,13,248,34,04,08,272,*7D
$GPRMC,212201.890,A,3747.6706,N,12215.4574,W,3.65,188.83,300412,,,A*76
$GPVTG,188.83,T,,M,3.65,N,6.8,K,N*06
$GPGGA,212202.890,3747.6716,N,12215.4592,W,1,03,2.6,25.1,M,-25.1,M,,0000*5A
$GPGSA,A,2,20,13,07,,,,,,,,,,2.8,2.6,1.0*3B
$GPRMC,212202.890,A,3747.6716,N,12215.4592,W,1.82,137.84,300412,,,A*74
$GPVTG,137.84,T,,M,1.82,N,3.4,K,N*07
$GPGGA,212203.889,3747.6712,N,12215.4581,W,1,03,2.6,25.1,M,-25.1,M,,0000*55
$GPGSA,A,2,20,13,07,,,,,,,,,,2.8,2.6,1.0*3B
$GPRMC,212203.889,A,3747.6712,N,12215.4581,W,1.95,126.32,300412,,,A*70
$GPVTG,126.32,T,,M,1.95,N,3.6,K,N*0E
$GPGGA,212204.889,3747.6727,N,12215.4549,W,1,03,2.6,25.1,M,-25.1,M,,0000*50
$GPGSA,A,2,20,13,07,,,,,,,,,,2.8,2.6,1.0*3B
$GPRMC,212204.889,A,3747.6727,N,12215.4549,W,2.23,195.78,300412,,,A*7D
$GPVTG,195.78,T,,M,2.23,N,4.1,K,N*06
$GPGGA,212205.889,3747.6734,N,12215.4527,W,1,03,2.6,25.1,M,-25.1,M,,0000*5B
$GPGSA,A,2,20,13,07,,,,,,,,,,2.8,2.6,1.0*3B
$GPRMC,212205.889,A,3747.6734,N,12215.4527,W,1.41,157.08,300412,,,A*78
$GPVTG,157.08,T,,M,1.41,N,2.6,K,N*09
$GPGGA,212206.889,3747.6721,N,12215.4512,W,1,03,2.6,25.1,M,-25.1,M,,0000*5A
$GPGSA,A,2,20,13,07,,,,,,,,,,2.8,2.6,1.0*3B
$GPGSV,3,1,12,13,60,331,27,07,47,266,33,20,34,179,26,23,70,063,*73
$GPGSV,3,2,12,16,44,058,24,10,34,306,27,30,20,043,,03,17,109,20*78
$GPGSV,3,3,12,32,16,160,25,06,14,093,16,08,13,248,33,04,08,272,*7D
$GPRMC,212206.889,A,3747.6721,N,12215.4512,W,1.73,219.22,300412,,,A*79
$GPVTG,219.22,T,,M,1.73,N,3.2,K,N*0C
$GPGGA,212207.889,3747.6678,N,12215.4530,W,1,03,2.6,25.1,M,-25.1,M,,0000*56
$GPGSA,A,2,20,13,07,,,,,,,,,,2.8,2.6,1.0*3B
$GPRMC,212207.889,A,3747.6678,N,12215.4530,W,1.77,111.04,300412,,,A*7E
$GPVTG,111.04,T,,M,1.77,N,3.3,K,N*06
$GPGGA,212208.889,3747.6718,N,12215.4490,W,1,03,2.6,25.1,M,-25.1,M,,0000*55
$GPGSA,A,2,20,13,07,,,,,,,,,,2.8,2.6,1.0*3B
$GPRMC,212208.889,A,3747.6718,N,12215.4490,W,1.49,203.40,300412,,,A*70
$GPVTG,203.40,T,,M,1.49,N,2.8,K,N*01
$GPGGA,212209.889,3747.6694,N,12215.4555,W,1,03,2.6,25.1,M,-25.1,M,,0000*59
$GPGSA,A,2,20,13,07,,,,,,,,,,2.8,2.6,1.0*3B
$GPRMC,212209.889,A,3747.6694,N,12215.4555,W,1.50,156.09,300412,,,A*7A
$GPVTG,156.09,T,,M,1.50,N,2.8,K,N*07
$GPGGA,212210.889,3747.6717,N,12215.4596,W,1,03,2.6,25.1,M,-25.1,M,,0000*54
$GPGSA,A,2,20,13,07,,,,,,,,,,2.8,2.6,1.0*3B
$GPRMC,212210.889,A,3747.6717,N,12215.4596,W,2.81,226.09,300412,,,A*7C
$GPVTG,226.09,T,,M,2.81,N,5.2,K,N*01
$GPGGA,212211.889,3747.6704,N,12215.4581,W,1,03,2.6,25.1,M,-25.1,M,,0000*51
$GPGSA,A,2,20,13,07,,,,,,,,,,2.8,2.6,1.0*3B
$GPGSV,3,1,12,13,60,331,28,07,47,266,31,20,34,179,28,23,70,063,*70
$GPGSV,3,2,12,16,44,058,24,10,34,306,31,30,20,043,,03,17,109,19*75
$GPGSV,3,3,12,32,16,160,25,06,14,093,16,08,13,248,33,04,08,272,*7D
$GPRMC,212211.889,A,3747.6704,N,12215.4581,W,2.39,206.23,300412,,,A*70
$GPVTG,206.23,T,,M,2.39,N,4.4,K,N*0F
$GPGGA,212212.889,3747.6714,N,12215.4513,W,1,03,2.6,25.1,M,-25.1,M,,0000*58
$GPGSA,A,2,20,13,07,,,,,,,,,,2.8,2.6,1.0*3B
$GPRMC,212212.889,A,3747.6714,N,12215.4513,W,1.57,192.92,300412,,,A*76
$GPVTG,192.92,T,,M,1.57,N,2.9,K,N*0B
$GPGGA,212213.889,3747.6730,N,12215.4465,W,1,03,2.6,25.1,M,-25.1,M,,0000*5F
$GPGSA,A,2,20,13,07,,,,,,,,,,2.8,2.6,1.0*3B
$GPRMC,212213.889,A,3747.6730,N,12215.4465,W,2.15,213.72,300412,,,A*70
$GPVTG,213.72,T,,M,2.15,N,4.0,K,N*05
$GPGGA,212214.889,3747.6679,N,12215.4544,W,1,03,2.6,25.1,M,-25.1,M,,0000*56
$GPGSA,A,2,20,13,07,,,,,,,,,,2.8,2.6,1.0*3B
$GPRMC,212214.889,A,3747.6679,N,12215.4544,W,1.90,216.10,300412,,,A*76
$GPVTG,216.10,T,,M,1.90,N,3.5,K,N*08
$GPGGA,212215.889,3747.6664,N,12215.4575,W,1,03,2.6,25.1,M,-25.1,M,,0000*59
$GPGSA,A,2,20,13,07,,,,,,,,,,2.8,2.6,1.0*3B
$GPRMC,212215.889,A,3747.6664,N,12215.4575,W,2.94,231.17,300412,,,A*7C
$GPVTG,231.17,T,,M,2.94,N,5.4,K,N*0A
$GPGGA,212216.889,3747.6666,N,12215.4590,W,1,03,2.6,25.1,M,-25.1,M,,0000*53
$GPGSA,A,2,20,13,07,,,,,,,,,,2.8,2.6,1.0*3B
$GPGSV,3,1,12,13,60,331,29,07,47,266,30,20,34,179,28,23,70,063,*70
$GPGSV,3,2,12,16,44,058,24,10,34,306,32,30,20,043,,03,17,109,20*7C
$GPGSV,3,3,12,32,16,160,24,06,14,093,15,08,13,248,29,04,08,272,*74
$GPRMC,212216.889,A,3747.6666,N,12215.4590,W,1.93,211.77,300412,,,A*76
$GPVTG,211.77,T,,M,1.93,N,3.6,K,N*0E
$GPGGA,212217.889,3747.6667,N,12215.4583,W,1,03,2.6,25.1,M,-25.1,M,,0000*51
$GPGSA,A,2,20,13,07,,,,,,,,,,2.8,2.6,1.0*3B
$GPRMC,212217.889,A,3747.6667,N,12215.4583,W,1.38,207.78,300412,,,A*7D
$GPVTG,207.78,T,,M,1.38,N,2.6,K,N*06
$GPGGA,212218.889,3747.6703,N,12215.4547,W,1,03,2.6,25.1,M,-25.1,M,,0000*55
$GPGSA,A,2,20,13,07,,,,,,,,,,2.8,2.6,1.0*3B
$GPRMC,212218.889,A,3747.6703,N,12215.4547,W,1.29,191.87,300412,,,A*75
$GPVTG,191.87,T,,M,1.29,N,2.4,K,N*08
$GPGGA,212219.889,3747.6693,N,12215.4579,W,1,03,2.6,25.1,M,-25.1,M,,0000*51
$GPGSA,A,2,20,13,07,,,,,,,,,,2.8,2.6,1.0*3B
$GPRMC,212219.889,A,3747.6693,N,12215.4579,W,2.51,219.00,300412,,,A*71
$GPVTG,219.00,T,,M,2.51,N,4.7,K,N*0D
$GPGGA,212220.889,3747.6695,N,12215.4717,W,1,03,2.6,25.1,M,-25.1,M,,0000*57
$GPGSA,A,2,20,13,07,,,,,,,,,,2.8,2.6,1.0*3B
$GPRMC,212220.889,A,3747.6695,N,12215.4717,W,1.59,218.74,300412,,,A*7E
$GPVTG,218.74,T,,M,1.59,N,2.9,K,N*0C
$GPGGA,212221.889,3747.6649,N,12215.4644,W,1,03,2.6,25.1,M,-25.1,M,,0000*50
$GPGSA,A,2,20,13,07,,,,,,,,,,2.8,2.6,1.0*3B
$GPGSV,3,1,12,13,60,331,29,07,47,266,30,20,34,179,28,23,70,063,*70
$GPGSV,3,2,12,16,44,058,24,10,34,306,32,30,20,043,,03,17,109,22*7E
$GPGSV,3,3,12,32,16,160,25,06,14,093,18,08,13,248,22,04,08,272,*73
$GPRMC,212221.889,A,3747.6649,N,12215.4644,W,2.21,189.20,300412,,,A*7F
$GPVTG,189.20,T,,M,2.21,N,4.1,K,N*04
$GPGGA,212222.889,3747.6611,N,12215.4623,W,1,03,2.6,25.1,M,-25.1,M,,0000*5F
$GPGSA,A,2,20,13,07,,,,,,,,,,2.8,2.6,1.0*3B
$GPRMC,212222.889,A,3747.6611,N,12215.4623,W,1.73,168.99,300412,,,A*79
$GPVTG,168.99,T,,M,1.73,N,3.2,K,N*09
$GPGGA,212223.889,3747.6669,N,12215.4383,W,1,03,2.6,25.1,M,-25.1,M,,0000*5E
$GPGSA,A,2,20,13,07,,,,,,,,,,2.8,2.6,1.0*3B
$GPRMC,212223.889,A,3747.6669,N,12215.4383,W,1.29,170.27,300412,,,A*7B
$GPVTG,170.27,T,,M,1.29,N,2.4,K,N*0D
$GPGGA,212224.889,3747.6654,N,12215.4553,W,1,03,2.6,25.1,M,-25.1,M,,0000*5C
$GPGSA,A,2,20,13,07,,,,,,,,,,2.8,2.6,1.0*3B
$GPRMC,212224.889,A,3747.6654,N,12215.4553,W,1.94,170.86,300412,,,A*74
$GPVTG,170.86,T,,M,1.94,N,3.6,K,N*03
$GPGGA,212225.889,3747.6646,N,12215.4562,W,1,03,2.6,25.1,M,-25.1,M,,0000*5C
$GPGSA,A,2,20,13,07,,,,,,,,,,2.8,2.6,1.0*3B
$GPRMC,212225.889,A,3747.6646,N,12215.4562,W,3.16,147.04,300412,,,A*72
$GPVTG,147.04,T,,M,3.16,N,5.8,K,N*0D
$GPGGA,212226.889,3747.6614,N,12215.4550,W,1,03,2.6,25.1,M,-25.1,M,,0000*59
$GPGSA,A,2,20,13,07,,,,,,,,,,2.8,2.6,1.0*3B
$GPGSV,3,1,12,13,60,331,26,07,47,266,23,20,34,179,27,23,70,063,*72
$GPGSV,3,2,12,16,44,058,33,10,34,306,29,30,20,043,,03,17,109,31*70
$GPGSV,3,3,12,32,16,160,21,06,14,093,31,08,13,248,22,04,08,272,*7C
$GPRMC,212226.889,A,3747.6614,N,12215.4550,W,1.67,109.60,300412,,,A*7B
$GPVTG,109.60,T,,M,1.67,N,3.1,K,N*0E
$GPGGA,212227.889,3747.6655,N,12215.4355,W,1,03,2.6,25.1,M,-25.1,M,,0000*5E
$GPGSA,A,2,20,13,07,,,,,,,,,,2.8,2.6,1.0*3B
$GPRMC,212227.889,A,3747.6655,N,12215.4355,W,1.98,131.06,300412,,,A*77
$GPVTG,131.06,T,,M,1.98,N,3.7,K,N*03
$GPGGA,212228.889,3747.6605,N,12215.4409,W,1,03,2.6,25.1,M,-25.1,M,,0000*5A
$GPGSA,A,2,20,13,07,,,,,,,,,,2.8,2.6,1.0*3B
$GPRMC,212228.889,A,3747.6605,N,12215.4409,W,3.34,135.48,300412,,,A*79
$GPVTG,135.48,T,,M,3.34,N,6.2,K,N*09
$GPGGA,212229.889,3747.6580,N,12215.4547,W,1,03,2.6,25.1,M,-25.1,M,,0000*5E
$GPGSA,A,2,20,13,07,,,,,,,,,,2.8,2.6,1.0*3B
$GPRMC,212229.889,A,3747.6580,N,12215.4547,W,2.99,102.32,300412,,,A*72
$GPVTG,102.32,T,,M,2.99,N,5.5,K,N*02
$GPGGA,212230.889,3747.6597,N,12215.4529,W,1,03,2.6,25.1,M,-25.1,M,,0000*58
$GPGSA,A,2,20,13,07,,,,,,,,,,2.8,2.6,1.0*3B
$GPRMC,212230.889,A,3747.6597,N,12215.4529,W,1.66,131.85,300412,,,A*7B
$GPVTG,131.85,T,,M,1.66,N,3.1,K,N*0F
$GPGGA,212231.889,3747.6600,N,12215.4510,W,1,03,2.6,25.1,M,-25.1,M,,0000*5E
$GPGSA,A,2,20,13,07,,,,,,,,,,2.8,2.6,1.0*3B
$GPGSV,3,1,12,13,60,331,24,07,47,266,25,20,34,179,27,23,70,063,*76
$GPGSV,3,2,12,16,44,058,34,10,34,306,27,30,20,043,30,03,17,109,31*7A
$GPGSV,3,3,12,32,16,160,22,06,14,093,35,08,13,248,30,04,08,272,*78
$GPRMC,212231.889,A,3747.6600,N,12215.4510,W,3.62,136.34,300412,,,A*76
$GPVTG,136.34,T,,M,3.62,N,6.7,K,N*07
$GPGGA,212232.889,3747.6642,N,12215.4420,W,1,03,2.6,25.1,M,-25.1,M,,0000*59
$GPGSA,A,2,20,13,07,,,,,,,,,,2.8,2.6,1.0*3B
$GPRMC,212232.889,A,3747.6642,N,12215.4420,W,1.82,134.59,300412,,,A*74
$GPVTG,134.59,T,,M,1.82,N,3.4,K,N*04
$GPGGA,212233.889,3747.6567,N,12215.4459,W,1,03,2.6,25.1,M,-25.1,M,,0000*52
$GPGSA,A,2,20,13,07,,,,,,,,,,2.8,2.6,1.0*3B
$GPRMC,212233.889,A,3747.6567,N,12215.4459,W,1.31,166.12,300412,,,A*7F
$GPVTG,166.12,T,,M,1.31,N,2.4,K,N*05
$GPGGA,212234.889,3747.6499,N,12215.4561,W,1,03,2.6,25.1,M,-25.1,M,,0000*5F
$GPGSA,A,2,20,13,07,,,,,,,,,,2.8,2.6,1.0*3B
$GPRMC,212234.889,A,3747.6499,N,12215.4561,W,1.87,112.65,300412,,,A*7C
$GPVTG,112.65,T,,M,1.87,N,3.5,K,N*0B
$GPGGA,212235.889,3747.6537,N,12215.4573,W,1,03,2.6,25.1,M,-25.1,M,,0000*58
$GPGSA,A,2,20,13,07,,,,,,,,,,2.8,2.6,1.0*3B
$GPRMC,212235.889,A,3747.6537,N,12215.4573,W,1.13,102.91,300412,,,A*7C
$GPVTG,102.91,T,,M,1.13,N,2.1,K,N*09
$GPGGA,212236.889,3747.6596,N,12215.4568,W,1,03,2.6,25.1,M,-25.1,M,,0000*5A
$GPGSA,A,2,20,13,07,,,,,,,,,,2.8,2.6,1.0*3B
$GPGSV,3,1,12,13,60,331,24,07,47,266,24,20,34,179,25,23,70,063,27*70
$GPGSV,3,2,12,16,44,058,34,10,34,306,26,30,20,043,32,03,17,109,31*79
$GPGSV,3,3,12,32,16,160,20,06,14,093,31,08,13,248,27,04,08,272,*78
$GPRMC,212236.889,A,3747.6596,N,12215.4568,W,1.90,189.96,300412,,,A*71
$GPVTG,189.96,T,,M,1.90,N,3.5,K,N*03
$GPGGA,212237.889,3747.6630,N,12215.4436,W,1,03,2.6,25.1,M,-25.1,M,,0000*5E
$GPGSA,A,2,20,13,07,,,,,,,,,,2.8,2.6,1.0*3B
$GPRMC,212237.889,A,3747.6630,N,12215.4436,W,1.85,137.70,300412,,,A*7C
$GPVTG,137.70,T,,M,1.85,N,3.4,K,N*0B
$GPGGA,212238.889,3747.6611,N,12215.4418,W,1,03,2.6,25.1,M,-25.1,M,,0000*5E
$GPGSA,A,2,20,13,07,,,,,,,,,,2.8,2.6,1.0*3B
$GPRMC,212238.889,A,3747.6611,N,12215.4418,W,2.39,215.18,300412,,,A*75
$GPVTG,215.18,T,,M,2.39,N,4.4,K,N*05
$GPGGA,212239.889,3747.6621,N,12215.4408,W,1,03,2.6,25.1,M,-25.1,M,,0000*5D
$GPGSA,A,2,20,13,07,,,,,,,,,,2.8,2.6,1.0*3B
$GPRMC,212239.889,A,3747.6621,N,12215.4408,W,1.90,175.95,300412,,,A*76
$GPVTG,175.95,T,,M,1.90,N,3.5,K,N*03
$GPGGA,212240.889,3747.6589,N,12215.4476,W,1,03,2.6,25.1,M,-25.1,M,,0000*5B
$GPGSA,A,2,20,13,07,,,,,,,,,,2.8,2.6,1.0*3B
$GPRMC,212240.889,A,3747.6589,N,12215.4476,W,2.16,161.88,300412,,,A*74
$GPVTG,161.88,T,,M,2.16,N,4.0,K,N*05
$GPGGA,212241.889,3747.6561,N,12215.4580,W,1,03,2.6,25.1,M,-25.1,M,,0000*54
$GPGSA,A,2,20,13,07,,,,,,,,,,2.8,2.6,1.0*3B
$GPGSV,3,1,12,13,60,331,24,07,47,266,24,20,34,179,25,23,70,063,27*70
$GPGSV,3,2,12,16,44,058,28,10,34,306,28,30,20,043,30,03,17,109,34*7D
$GPGSV,3,3,12,32,16,160,22,06,14,093,31,08,13,248,28,04,08,272,*75
$GPRMC,212241.889,A,3747.6561,N,12215.4580,W,1.34,111.84,300412,,,A*73
$GPVTG,111.84,T,,M,1.34,N,2.5,K,N*0E
$GPGGA,212242.889,3747.6571,N,12215.4498,W,1,03,2.6,25.1,M,-25.1,M,,0000*5E
$GPGSA,A,2,20,13,07,,,,,,,,,,2.8,2.6,1.0*3B
$GPRMC,212242.889,A,3747.6571,N,12215.4498,W,4.49,123.05,300412,,,A*7E
$GPVTG,123.05,T,,M,4.49,N,8.3,K,N*05
$GPGGA,212243.889,3747.6590,N,12215.4371,W,1,03,2.6,25.1,M,-25.1,M,,0000*50
$GPGSA,A,2,20,13,07,,,,,,,,,,2.8,2.6,1.0*3B
$GPRMC,212243.889,A,3747.6590,N,12215.4371,W,2.50,118.37,300412,,,A*77
$GPVTG,118.37,T,,M,2.50,N,4.6,K,N*0B
$GPGGA,212244.889,3747.6572,N,12215.4381,W,1,03,2.6,25.1,M,-25.1,M,,0000*54
$GPGSA,A,2,20,13,07,,,,,,,,,,2.8,2.6,1.0*3B
$GPRMC,212244.889,A,3747.6572,N,12215.4381,W,1.71,156.32,300412,,,A*7C
$GPVTG,156.32,T,,M,1.71,N,3.2,K,N*07
$GPGGA,212245.889,3747.6589,N,12215.4413,W,1,03,2.6,25.1,M,-25.1,M,,0000*5D
$GPGSA,A,2,20,13,07,,,,,,,,,,2.8,2.6,1.0*3B
$GPRMC,212245.889,A,3747.6589,N,12215.4413,W,2.02,130.18,300412,,,A*7A
$GPVTG,130.18,T,,M,2.02,N,3.7,K,N*0D
$GPGGA,212246.889,3747.6562,N,12215.4517,W,1,03,2.6,25.1,M,-25.1,M,,0000*5E
$GPGSA,A,2,20,13,07,,,,,,,,,,2.8,2.6,1.0*3B
$GPGSV,3,1,12,13,60,331,24,07,47,266,24,20,34,179,24,23,70,063,27*71
$GPGSV,3,2,12,16,44,058,31,10,34,306,29,30,20,043,33,03,17,109,24*76
$GPGSV,3,3,12,32,16,160,12,06,14,093,29,08,13,248,27,04,08,272,*70
$GPRMC,212246.889,A,3747.6562,N,12215.4517,W,0.76,252.88,300412,,,A*76
$GPVTG,252.88,T,,M,0.76,N,1.4,K,N*03
$GPGGA,212247.889,3747.6569,N,12215.4417,W,1,03,2.6,25.1,M,-25.1,M,,0000*55
$GPGSA,A,2,20,13,07,,,,,,,,,,2.8,2.6,1.0*3B
$GPRMC,212247.889,A,3747.6569,N,12215.4417,W,1.56,225.30,300412,,,A*7D
$GPVTG,225.30,T,,M,1.56,N,2.9,K,N*0D
$GPGGA,212248.889,3747.6599,N,12215.4459,W,1,03,2.6,25.1,M,-25.1,M,,0000*5F
$GPGSA,A,2,20,13,07,,,,,,,,,,2.8,2.6,1.0*3B
$GPRMC,212248.889,A,3747.6599,N,12215.4459,W,2.45,144.61,300412,,,A*76
$GPVTG,144.61,T,,M,2.45,N,4.5,K,N*06
$GPGGA,212249.889,3747.6532,N,12215.4518,W,1,03,2.6,25.1,M,-25.1,M,,0000*5B
$GPGSA,A,2,20,13,07,,,,,,,,,,2.8,2.6,1.0*3B
$GPRMC,212249.889,A,3747.6532,N,12215.4518,W,2.49,139.86,300412,,,A*7D
$GPVTG,139.86,T,,M,2.49,N,4.6,K,N*0A
$GPGGA,212250.889,3747.6511,N,12215.4510,W,1,03,2.6,25.1,M,-25.1,M,,0000*5A
$GPGSA,A,2,20,13,07,,,,,,,,,,2.8,2.6,1.0*3B
$GPRMC,212250.889,A,3747.6511,N,12215.4510,W,1.79,123.82,300412,,,A*73
$GPVTG,123.82,T,,M,1.79,N,3.3,K,N*07
$GPGGA,212251.889,3747.6525,N,12215.4470,W,1,03,2.6,25.1,M,-25.1,M,,0000*5B
$GPGSA,A,2,20,13,07,,,,,,,,,,2.8,2.6,1.0*3B
$GPGSV,3,1,12,13,60,331,25,07,47,266,25,20,34,179,21,23,70,063,27*74
$GPGSV,3,2,12,16,44,058,32,10,34,306,29,30,20,043,34,03,17,109,29*7F
$GPGSV,3,3,12,32,16,160,13,06,14,093,31,08,13,248,28,04,08,272,*77
$GPRMC,212251.889,A,3747.6525,N,12215.4470,W,0.42,109.33,300412,,,A*79
$GPVTG,109.33,T,,M,0.42,N,0.8,K,N*04
$GPGGA,212252.889,3747.6542,N,12215.4508,W,1,03,2.6,25.1,M,-25.1,M,,0000*57
$GPGSA,A,2,20,13,07,,,,,,,,,,2.8,2.6,1.0*3B
$GPRMC,212252.889,A,3747.6542,N,12215.4508,W,2.94,107.68,300412,,,A*7C
$GPVTG,107.68,T,,M,2.94,N,5.5,K,N*05
$GPGGA,212253.889,3747.6522,N,12215.4546,W,1,03,2.6,25.1,M,-25.1,M,,0000*5A
$GPGSA,A,2,20,13,07,,,,,,,,,,2.8,2.6,1.0*3B
$GPRMC,212253.889,A,3747.6522,N,12215.4546,W,2.23,128.46,300412,,,A*7C
$GPVTG,128.46,T,,M,2.23,N,4.1,K,N*0D
$GPGGA,212254.889,3747.6540,N,12215.4520,W,1,03,2.6,25.1,M,-25.1,M,,0000*59
$GPGSA,A,2,20,13,07,,,,,,,,,,2.8,2.6,1.0*3B
$GPRMC,212254.889,A,3747.6540,N,12215.4520,W,1.65,88.39,300412,,,A*4D
$GPVTG,88.39,T,,M,1.65,N,3.1,K,N*38
$GPGGA,212255.889,3747.6532,N,12215.4519,W,1,03,2.6,25.1,M,-25.1,M,,0000*57
$GPGSA,A,2,20,13,07,,,,,,,,,,2.8,2.6,1.0*3B
$GPRMC,212255.889,A,3747.6532,N,12215.4519,W,2.51,128.09,300412,,,A*7F
$GPVTG,128.09,T,,M,2.51,N,4.7,K,N*05
$GPGGA,212256.889,3747.6498,N,12215.4432,W,1,03,2.6,25.1,M,-25.1,M,,0000*5D
$GPGSA,A,2,20,13,07,,,,,,,,,,2.8,2.6,1.0*3B
$GPGSV,3,1,12,13,60,331,26,07,47,266,24,20,34,179,22,23,70,063,26*74
$GPGSV,3,2,12,16,44,058,35,10,34,306,30,30,20,043,35,03,17,109,28*70
$GPGSV,3,3,12,32,16,160,14,06,14,093,29,08,13,248,23,04,08,272,*72
$GPRMC,212256.889,A,3747.6498,N,12215.4432,W,2.02,153.64,300412,,,A*74
$GPVTG,153.64,T,,M,2.02,N,3.7,K,N*03
$GPGGA,212257.889,3747.6472,N,12215.4515,W,1,03,2.6,25.1,M,-25.1,M,,0000*5C
$GPGSA,A,2,20,13,07,,,,,,,,,,2.8,2.6,1.0*3B
$GPRMC,212257.889,A,3747.6472,N,12215.4515,W,2.24,120.43,300412,,,A*70
$GPVTG,120.43,T,,M,2.24,N,4.2,K,N*04
$GPGGA,212258.889,3747.6479,N,12215.4426,W,1,03,2.6,25.1,M,-25.1,M,,0000*59
$GPGSA,A,2,20,13,07,,,,,,,,,,2.8,2.6,1.0*3B
$GPRMC,212258.889,A,3747.6479,N,12215.4426,W,3.78,113.97,300412,,,A*74
$GPVTG,113.97,T,,M,3.78,N,7.0,K,N*04
$GPGGA,212259.889,3747.6476,N,12215.4446,W,1,03,2.6,25.1,M,-25.1,M,,0000*51
$GPGSA,A,2,20,13,07,,,,,,,,,,2.8,2.6,1.0*3B
$GPRMC,212259.889,A,3747.6476,N,12215.4446,W,3.06,124.44,300412,,,A*7F
$GPVTG,124.44,T,,M,3.06,N,5.7,K,N*02
$GPGGA,212300.889,3747.6525,N,12215.4373,W,1,03,2.6,25.1,M,-25.1,M,,0000*5A
$GPGSA,A,2,20,13,07,,,,,,,,,,2.8,2.6,1.0*3B
$GPRMC,212300.889,A,3747.6525,N,12215.4373,W,2.17,165.95,300412,,,A*7C
$GPVTG,165.95,T,,M,2.17,N,4.0,K,N*0C
$GPGGA,212301.889,3747.6500,N,12215.4464,W,1,03,2.6,25.1,M,-25.1,M,,0000*5D
$GPGSA,A,2,20,13,07,,,,,,,,,,2.8,2.6,1.0*3B
$GPGSV,3,1,12,13,60,331,26,07,47,266,24,20,34,179,21,23,70,063,26*77
$GPGSV,3,2,12,16,44,058,31,10,34,306,31,30,20,043,34,03,17,109,29*75
$GPGSV,3,3,12,32,16,160,17,06,14,093,29,08,13,248,23,04,08,272,*71
$GPRMC,212301.889,A,3747.6500,N,12215.4464,W,2.14,157.18,300412,,,A*7C
$GPVTG,157.18,T,,M,2.14,N,4.0,K,N*0B
$GPGGA,212302.889,3747.6508,N,12215.4499,W,1,03,2.6,25.1,M,-25.1,M,,0000*54
$GPGSA,A,2,20,13,07,,,,,,,,,,2.8,2.6,1.0*3B
$GPRMC,212302.889,A,3747.6508,N,12215.4499,W,2.08,206.70,300412,,,A*71
$GPVTG,206.70,T,,M,2.08,N,3.9,K,N*01
$GPGGA,212303.889,3747.6446,N,12215.4605,W,1,03,2.6,25.1,M,-25.1,M,,0000*59
$GPGSA,A,2,20,13,07,,,,,,,,,,2.8,2.6,1.0*3B
$GPRMC,212303.889,A,3747.6446,N,12215.4605,W,1.05,226.34,300412,,,A*70
$GPVTG,226.34,T,,M,1.05,N,1.9,K,N*0F
$GPGGA,212304.889,3747.6502,N,12215.4411,W,1,03,2.6,25.1,M,-25.1,M,,0000*58
$GPGSA,A,2,20,13,07,,,,,,,,,,2.8,2.6,1.0*3B
$GPRMC,212304.889,A,3747.6502,N,12215.4411,W,1.74,143.82,300412,,,A*7A
$GPVTG,143.82,T,,M,1.74,N,3.2,K,N*0D
$GPGGA,212305.889,3747.6448,N,12215.4357,W,1,03,2.6,25.1,M,-25.1,M,,0000*53
$GPGSA,A,2,20,13,07,,,,,,,,,,2.8,2.6,1.0*3B
$GPRMC,212305.889,A,3747.6448,N,12215.4357,W,2.16,166.45,300412,,,A*7A
$GPVTG,166.45,T,,M,2.16,N,4.0,K,N*03
$GPGGA,212306.889,3747.6520,N,12215.4276,W,1,03,2.6,25.1,M,-25.1,M,,0000*5D
$GPGSA,A,2,20,13,07,,,,,,,,,,2.8,2.6,1.0*3B
$GPGSV,3,1,12,13,60,331,28,07,47,266,24,20,34,179,22,23,70,063,27*7B
$GPGSV,3,2,12,16,44,058,32,10,34,306,30,30,20,043,35,03,17,109,33*7D
$GPGSV,3,3,12,32,16,160,17,06,14,093,25,08,13,248,29,04,08,272,*77
$GPRMC,212306.889,A,3747.6520,N,12215.4276,W,3.01,230.24,300412,,,A*74
$GPGGA,212307.889,3747.6506,N,12215.4459,W,1,03,2.6,25.1,M,-25.1,M,,0000*53
$GPGSA,A,2,20,13,07,,,,,,,,,,2.8,2.6,1.0*3B
$GPRMC,212307.889,A,3747.6506,N,12215.4459,W,1.36,107.32,300412,,,A*7C
$GPVTG,107.32,T,,M,1.36,N,2.5,K,N*06
$GPGGA,212308.889,3747.6485,N,12215.4512,W,1,03,2.6,25.1,M,-25.1,M,,0000*58
$GPGSA,A,2,20,13,07,,,,,,,,,,2.8,2.6,1.0*3B
$GPRMC,212308.889,A,3747.6485,N,12215.4512,W,2.15,165.32,300412,,,A*71
$GPVTG,165.32,T,,M,2.15,N,4.0,K,N*03
$GPGGA,212309.889,3747.6532,N,12215.4375,W,1,03,2.6,25.1,M,-25.1,M,,0000*53
$GPGSA,A,2,20,13,07,,,,,,,,,,2.8,2.6,1.0*3B
$GPRMC,212309.889,A,3747.6532,N,12215.4375,W,1.81,172.91,300412,,,A*7B
$GPVTG,172.91,T,,M,1.81,N,3.4,K,N*01
$GPGGA,212310.889,3747.6472,N,12215.4627,W,1,03,2.6,25.1,M,-25.1,M,,0000*5C
$GPGSA,A,2,20,13,07,,,,,,,,,,2.8,2.6,1.0*3B
$GPRMC,212310.889,A,3747.6472,N,12215.4627,W,0.90,126.49,300412,,,A*71
$GPVTG,126.49,T,,M,0.90,N,1.7,K,N*05
$GPGGA,212311.889,3747.6471,N,12215.4585,W,1,03,2.6,25.1,M,-25.1,M,,0000*55
$GPGSA,A,2,20,13,07,,,,,,,,,,2.8,2.6,1.0*3B
$GPGSV,3,1,12,13,60,331,26,07,47,266,24,20,34,179,21,23,70,063,19*7B
$GPGSV,3,2,12,16,44,058,33,10,34,306,30,30,20,043,34,03,17,109,30*7E
$GPGSV,3,3,12,32,16,160,18,06,14,093,25,08,13,248,26,04,08,272,*77
$GPRMC,212311.889,A,3747.6471,N,12215.4585,W,1.31,136.19,300412,,,A*76
$GPVTG,136.19,T,,M,1.31,N,2.4,K,N*0B
$GPGGA,212312.889,3747.6483,N,12215.4495,W,1,03,2.6,25.1,M,-25.1,M,,0000*5B
$GPGSA,A,2,20,13,07,,,,,,,,,,2.8,2.6,1.0*3B
$GPRMC,212312.889,A,3747.6483,N,12215.4495,W,1.83,174.80,300412,,,A*77
$GPVTG,174.80,T,,M,1.83,N,3.4,K,N*05
$GPGGA,212313.889,3747.6420,N,12215.4360,W,1,03,2.6,25.1,M,-25.1,M,,0000*5E
$GPGSA,A,2,20,13,07,,,,,,,,,,2.8,2.6,1.0*3B
$GPRMC,212313.889,A,3747.6420,N,12215.4360,W,3.89,231.59,300412,,,A*7C
$GPVTG,231.59,T,,M,3.89,N,7.2,K,N*09
$GPGGA,212314.889,3747.6379,N,12215.4218,W,1,03,2.6,25.1,M,-25.1,M,,0000*5C
$GPGSA,A,2,20,13,07,,,,,,,,,,2.8,2.6,1.0*3B
$GPRMC,212314.889,A,3747.6379,N,12215.4218,W,1.56,189.04,300412,,,A*76
$GPVTG,189.04,T,,M,1.56,N,2.9,K,N*0F
$GPGGA,212315.889,3747.6417,N,12215.4343,W,1,03,2.6,25.1,M,-25.1,M,,0000*5D
$GPGSA,A,2,20,13,07,,,,,,,,,,2.8,2.6,1.0*3B
$GPRMC,212315.889,A,3747.6417,N,12215.4343,W,2.31,107.80,300412,,,A*7F
$GPVTG,107.80,T,,M,2.31,N,4.3,K,N*0B
$GPGGA,212316.889,3747.6417,N,12215.4192,W,1,03,2.6,25.1,M,-25.1,M,,0000*50
$GPGSA,A,2,20,13,07,,,,,,,,,,2.8,2.6,1.0*3B
$GPGSV,3,1,12,13,60,331,25,07,47,266,18,20,34,179,25,23,70,063,31*79
$GPGSV,3,2,12,16,44,058,33,10,34,306,22,30,20,043,27,03,17,109,30*7F
$GPGSV,3,3,12,32,16,160,17,06,14,093,29,08,13,248,,04,08,272,*70
$GPVTG,93.21,T,,M,5.66,N,10.5,K,N*0A
$GPGGA,212317.889,3747.6337,N,12215.4181,W,1,03,2.6,25.1,M,-25.1,M,,0000*56
$GPGSA,A,2,20,13,07,,,,,,,,,,2.8,2.6,1.0*3B
$GPRMC,212317.889,A,3747.6337,N,12215.4181,W,10.97,94.89,300412,,,A*79
$GPVTG,94.89,T,,M,10.97,N,20.3,K,N*30
$GPGGA,212318.889,3747.6308,N,12215.4271,W,1,03,2.6,25.1,M,-25.1,M,,0000*59
$GPGSA,A,2,20,13,07,,,,,,,,,,2.8,2.6,1.0*3B
$GPRMC,212318.889,A,3747.6308,N,12215.4271,W,5.77,89.83,300412,,,A*4A
$GPVTG,89.83,T,,M,5.77,N,10.7,K,N*0B
$GPGGA,212319.889,3747.6389,N,12215.4234,W,1,03,2.6,25.1,M,-25.1,M,,0000*50
$GPGSA,A,2,20,13,07,,,,,,,,,,2.8,2.6,1.0*3B
$GPRMC,212319.889,A,3747.6389,N,12215.4234,W,3.38,93.06,300412,,,A*48
$GPVTG,93.06,T,,M,3.38,N,6.3,K,N*33
$GPGGA,212320.889,3747.6455,N,12215.4174,W,1,03,2.6,25.1,M,-25.1,M,,0000*5B
$GPGSA,A,2,20,13,07,,,,,,,,,,2.8,2.6,1.0*3B
$GPRMC,212320.889,A,3747.6455,N,12215.4174,W,1.53,84.44,300412,,,A*4C
$GPVTG,84.44,T,,M,1.53,N,2.8,K,N*33
$GPGGA,212321.889,3747.6422,N,12215.4152,W,1,03,2.6,25.1,M,-25.1,M,,0000*5E
$GPGSA,A,2,20,13,07,,,,,,,,,,2.8,2.6,1.0*3B
$GPGSV,3,1,12,13,60,331,31,07,47,266,20,20,34,179,24,23,70,063,31*76
$GPGSV,3,2,12,16,44,058,36,10,34,306,30,30,20,043,30,03,17,109,36*79
$GPGSV,3,3,12,32,16,160,17,06,14,093,29,08,13,248,,04,08,272,*70
$GPRMC,212321.889,A,3747.6422,N,12215.4152,W,2.14,235.17,300412,,,A*77
$GPVTG,235.17,T,,M,2.14,N,4.0,K,N*03
$GPGGA,212322.889,3747.6488,N,12215.4220,W,1,03,2.6,25.1,M,-25.1,M,,0000*5B
$GPGSA,A,2,20,13,07,,,,,,,,,,2.8,2.6,1.0*3B
$GPRMC,212322.889,A,3747.6488,N,12215.4220,W,3.58,238.51,300412,,,A*74
$GPVTG,238.51,T,,M,3.58,N,6.6,K,N*01
$GPGGA,212323.889,3747.6403,N,12215.4343,W,1,03,2.6,25.1,M,-25.1,M,,0000*5D
$GPGSA,A,2,20,13,07,,,,,,,,,,2.8,2.6,1.0*3B
$GPRMC,212323.889,A,3747.6403,N,12215.4343,W,1.87,231.28,300412,,,A*75
$GPVTG,231.28,T,,M,1.87,N,3.5,K,N*00
$GPGGA,212324.889,3747.6410,N,12215.4284,W,1,03,2.6,25.1,M,-25.1,M,,0000*52
$GPGSA,A,2,20,13,07,,,,,,,,,,2.8,2.6,1.0*3B
$GPRMC,212324.889,A,3747.6410,N,12215.4284,W,1.02,258.91,300412,,,A*7A
$GPVTG,258.91,T,,M,1.02,N,1.9,K,N*0E
$GPGGA,212325.889,3747.6425,N,12215.4254,W,1,03,2.6,25.1,M,-25.1,M,,0000*58
$GPGSA,A,2,20,13,07,,,,,,,,,,2.8,2.6,1.0*3B
$GPRMC,212325.889,A,3747.6425,N,12215.4254,W,1.52,80.81,300412,,,A*43
$GPVTG,80.81,T,,M,1.52,N,2.8,K,N*3F
$GPGGA,212326.889,3747.6422,N,12215.4312,W,2,03,2.6,25.1,M,-25.1,M,1.7,0000*74
$GPGSA,A,2,20,13,07,,,,,,,,,,2.8,2.6,1.0*3B
$GPGSV,3,1,12,13,60,331,28,07,47,266,20,20,34,179,29,23,70,063,32*70
$GPGSV,3,2,12,16,44,058,32,10,34,306,19,30,20,043,31,03,17,109,35*74
$GPGSV,3,3,12,32,16,160,18,06,14,093,35,08,13,248,,04,08,272,*72
$GPRMC,212326.889,A,3747.6422,N,12215.4312,W,2.55,82.34,300412,,,D*49
$GPVTG,82.34,T,,M,2.55,N,4.7,K,N*3E
$GPGGA,212327.889,3747.6428,N,12215.4286,W,2,03,2.6,25.1,M,-25.1,M,0.7,0000*72
$GPGSA,A,2,20,13,07,,,,,,,,,,2.8,2.6,1.0*3B
$GPRMC,212327.889,A,3747.6428,N,12215.4286,W,2.70,82.72,300412,,,D*4B
$GPVTG,82.72,T,,M,2.70,N,5.0,K,N*3D
$GPGGA,212328.889,3747.6417,N,12215.4337,W,2,03,2.6,25.1,M,-25.1,M,1.7,0000*7B
$GPGSA,A,2,20,13,07,,,,,,,,,,2.8,2.6,1.0*3B
$GPRMC,212328.889,A,3747.6417,N,12215.4337,W,0.72,84.75,300412,,,D*42
$GPVTG,84.75,T,,M,0.72,N,1.3,K,N*3B
$GPGGA,212329.889,3747.6413,N,12215.4310,W,2,03,2.6,25.1,M,-25.1,M,2.7,0000*78
$GPGSA,A,2,20,13,07,,,,,,,,,,2.8,2.6,1.0*3B
$GPRMC,212329.889,A,3747.6413,N,12215.4310,W,0.79,259.94,300412,,,D*74
$GPVTG,259.94,T,,M,0.79,N,1.5,K,N*0B
$GPGGA,212330.889,3747.6396,N,12215.4388,W,2,03,2.6,25.1,M,-25.1,M,3.7,0000*7A
$GPGSA,A,2,20,13,07,,,,,,,,,,2.8,2.6,1.0*3B
$GPRMC,212330.889,A,3747.6396,N,12215.4388,W,0.26,96.29,300412,,,D*4A
$GPVTG,96.29,T,,M,0.26,N,0.5,K,N*37
$GPGGA,212331.889,3747.6415,N,12215.4354,W,2,03,2.6,25.1,M,-25.1,M,4.7,0000*71
$GPGSA,A,2,20,13,07,,,,,,,,,,2.8,2.6,1.0*3B
$GPGSV,3,1,12,13,60,331,28,07,47,266,20,20,34,179,30,23,70,063,33*79
$GPGSV,3,2,12,16,44,058,32,10,34,306,18,30,20,043,30,03,17,109,36*77
$GPGSV,3,3,12,32,16,160,17,06,14,093,35,08,13,248,,04,08,272,*7D
$GPRMC,212331.889,A,3747.6415,N,12215.4354,W,0.67,255.28,300412,,,D*7F
$GPGGA,212332.889,3747.6407,N,12215.4340,W,2,03,2.6,25.1,M,-25.1,M,5.7,0000*75
$GPGSA,A,2,20,13,07,,,,,,,,,,2.8,2.6,1.0*3B
$GPRMC,212332.889,A,3747.6407,N,12215.4340,W,0.25,97.29,300412,,,D*41
$GPVTG,97.29,T,,M,0.25,N,0.5,K,N*35
$GPGGA,212333.889,3747.6447,N,12215.4231,W,2,03,2.6,25.1,M,-25.1,M,6.7,0000*74
$GPGSA,A,2,20,13,07,,,,,,,,,,2.8,2.6,1.0*3B
$GPRMC,212333.889,A,3747.6447,N,12215.4231,W,1.00,95.05,300412,,,D*49
$GPVTG,95.05,T,,M,1.00,N,1.8,K,N*33
$GPGGA,212334.889,3747.6428,N,12215.4257,W,2,03,2.6,25.1,M,-25.1,M,1.7,0000*7D
$GPGSA,A,2,20,13,07,,,,,,,,,,2.8,2.6,1.0*3B
$GPRMC,212334.889,A,3747.6428,N,12215.4257,W,1.71,205.38,300412,,,D*74
$GPVTG,205.38,T,,M,1.71,N,3.2,K,N*08
$GPGGA,212335.889,3747.6447,N,12215.4062,W,2,03,2.6,25.1,M,-25.1,M,2.7,0000*72
$GPGSA,A,2,20,13,07,,,,,,,,,,2.8,2.6,1.0*3B
$GPRMC,212335.889,A,3747.6447,N,12215.4062,W,1.59,161.49,300412,,,D*75
$GPVTG,161.49,T,,M,1.59,N,2.9,K,N*0F
$GPGGA,212336.889,3747.6400,N,12215.4354,W,2,03,2.6,25.1,M,-25.1,M,3.7,0000*75
$GPGSA,A,2,20,13,07,,,,,,,,,,2.8,2.6,1.0*3B
$GPGSV,3,1,12,13,60,331,23,07,47,266,21,20,34,179,18,23,70,063,24*7F
$GPGSV,3,2,12,16,44,058,33,10,34,306,23,30,20,043,29,03,17,109,29*78
$GPGSV,3,3,12,32,16,160,17,06,14,093,35,08,13,248,,04,08,272,*7D
$GPRMC,212336.889,A,3747.6400,N,12215.4354,W,2.20,168.67,300412,,,D*7B
$GPVTG,168.67,T,,M,2.20,N,4.1,K,N*09
$GPGGA,212337.889,3747.6364,N,12215.4309,W,2,03,2.6,25.1,M,-25.1,M,4.7,0000*7E
$GPGSA,A,2,20,13,07,,,,,,,,,,2.8,2.6,1.0*3B
$GPRMC,212337.889,A,3747.6364,N,12215.4309,W,2.62,136.61,300412,,,D*7C
$GPVTG,136.61,T,,M,2.62,N,4.8,K,N*0B
$GPGGA,212338.889,3747.6363,N,12215.4378,W,2,03,2.6,25.1,M,-25.1,M,5.7,0000*71
$GPGSA,A,2,20,13,07,,,,,,,,,,2.8,2.6,1.0*3B
$GPRMC,212338.889,A,3747.6363,N,12215.4378,W,2.45,115.00,300412,,,D*71
$GPVTG,115.00,T,,M,2.45,N,4.5,K,N*05
$GPGGA,212339.889,3747.6333,N,12215.4374,W,2,03,2.6,25.1,M,-25.1,M,6.7,0000*7A
$GPGSA,A,2,20,13,07,,,,,,,,,,2.8,2.6,1.0*3B
$GPRMC,212339.889,A,3747.6333,N,12215.4374,W,1.50,102.33,300412,,,D*78
$GPVTG,102.33,T,,M,1.50,N,2.8,K,N*0F
$GPGGA,212340.889,3747.6396,N,12215.4194,W,2,03,2.6,25.1,M,-25.1,M,7.7,0000*76
$GPGSA,A,2,20,13,07,,,,,,,,,,2.8,2.6,1.0*3B
$GPRMC,212340.889,A,3747.6396,N,12215.4194,W,1.10,268.32,300412,,,D*7F
$GPVTG,268.32,T,,M,1.10,N,2.0,K,N*0D
$GPGGA,212341.889,3747.6367,N,12215.4210,W,2,03,2.6,25.1,M,-25.1,M,8.7,0000*79
$GPGSA,A,2,20,13,07,,,,,,,,,,2.8,2.6,1.0*3B
$GPGSV,3,1,12,13,60,331,24,07,47,266,33,20,34,179,18,23,70,063,23*7C
$GPGSV,3,2,12,16,44,058,32,10,34,306,26,30,20,043,23,03,17,109,37*79
$GPGSV,3,3,12,32,16,160,18,06,14,093,31,08,13,248,,04,08,272,*76
$GPRMC,212341.889,A,3747.6367,N,12215.4210,W,1.37,291.00,300412,,,D*7D
$GPVTG,291.00,T,,M,1.37,N,2.5,K,N*0A
$GPGGA,212342.889,3747.6333,N,12215.4148,W,2,03,2.6,25.1,M,-25.1,M,9.7,0000*74
$GPGSA,A,2,20,13,07,,,,,,,,,,2.8,2.6,1.0*3B
$GPRMC,212342.889,A,3747.6333,N,12215.4148,W,1.47,295.61,300412,,,D*75
$GPVTG,295.61,T,,M,1.47,N,2.7,K,N*0C
$GPGGA,212343.889,3747.6375,N,12215.4223,W,2,03,2.6,25.1,M,-25.1,M,10.7,0000*41
$GPGSA,A,2,20,13,07,,,,,,,,,,2.8,2.6,1.0*3B
$GPRMC,212343.889,A,3747.6375,N,12215.4223,W,2.03,304.58,300412,,,D*78
$GPVTG,304.58,T,,M,2.03,N,3.8,K,N*02
$GPGGA,212344.889,3747.6388,N,12215.4246,W,2,03,2.6,25.1,M,-25.1,M,11.7,0000*46
$GPGSA,A,2,20,13,07,,,,,,,,,,2.8,2.6,1.0*3B
$GPRMC,212344.889,A,3747.6388,N,12215.4246,W,1.71,355.23,300412,,,D*70
$GPVTG,355.23,T,,M,1.71,N,3.2,K,N*06
$GPGGA,212345.889,3747.6309,N,12215.4336,W,2,03,2.6,25.1,M,-25.1,M,12.7,0000*4B
$GPGSA,A,2,20,13,07,,,,,,,,,,2.8,2.6,1.0*3B
$GPRMC,212345.889,A,3747.6309,N,12215.4336,W,1.18,322.70,300412,,,D*77
$GPVTG,322.70,T,,M,1.18,N,2.2,K,N*0E
$GPGGA,212346.889,3747.6437,N,12215.4263,W,2,03,2.6,25.1,M,-25.1,M,13.7,0000*42
$GPGSA,A,2,20,13,07,,,,,,,,,,2.8,2.6,1.0*3B
$GPGSV,3,1,12,13,61,333,23,07,48,268,34,20,32,179,18,23,70,067,27*78
$GPGSV,3,2,12,16,43,056,28,10,35,305,28,30,19,042,25,03,18,108,32*71
$GPGSV,3,3,12,32,14,160,21,06,14,092,33,08,14,249,,04,08,271,*78
$GPVTG,49.84,T,,M,1.61,N,3.0,K,N*36
$GPGGA,212347.889,3747.6446,N,12215.4227,W,2,03,2.6,25.1,M,-25.1,M,14.7,0000*42
$GPGSA,A,2,20,13,07,,,,,,,,,,2.8,2.6,1.0*3B
$GPRMC,212347.889,A,3747.6446,N,12215.4227,W,1.16,155.62,300412,,,D*77
$GPVTG,155.62,T,,M,1.16,N,2.2,K,N*01
$GPGGA,212348.889,3747.6461,N,12215.4328,W,2,03,2.6,25.1,M,-25.1,M,15.7,0000*47
$GPGSA,A,2,20,13,07,,,,,,,,,,2.8,2.6,1.0*3B
$GPRMC,212348.889,A,3747.6461,N,12215.4328,W,0.51,200.69,300412,,,D*79
$GPVTG,200.69,T,,M,0.51,N,0.9,K,N*02
$GPGGA,212349.889,3747.6437,N,12215.4358,W,2,03,2.6,25.1,M,-25.1,M,16.7,0000*41
$GPGSA,A,2,20,13,07,,,,,,,,,,2.8,2.6,1.0*3B
$GPRMC,212349.889,A,3747.6437,N,12215.4358,W,0.56,232.17,300412,,,D*73
$GPVTG,232.17,T,,M,0.56,N,1.0,K,N*05
$GPGGA,212350.889,3747.6412,N,12215.4409,W,2,03,2.6,25.1,M,-25.1,M,17.7,0000*4C
$GPGSA,A,2,20,13,07,,,,,,,,,,2.8,2.6,1.0*3B
$GPRMC,212350.889,A,3747.6412,N,12215.4409,W,0.32,335.41,300412,,,D*78
$GPVTG,335.41,T,,M,0.32,N,0.6,K,N*05
$GPGGA,212351.889,3747.6476,N,12215.4317,W,1,04,1.5,24.0,M,-25.1,M,,0000*5C
$GPGSA,A,3,20,13,07,16,,,,,,,,,1.8,1.5,1.0*3E
$GPGSV,3,1,12,13,61,333,23,07,48,268,33,20,32,179,19,23,70,067,27*7E
$GPGSV,3,2,12,16,43,056,28,10,35,305,29,30,19,042,25,03,18,108,32*70
$GPGSV,3,3,12,32,14,160,24,06,14,092,33,08,14,249,,04,08,271,*7D
$GPRMC,212351.889,A,3747.6476,N,12215.4317,W,2.14,342.29,300412,,,A*7E
$GPVTG,342.29,T,,M,2.14,N,4.0,K,A*00
$GPGGA,212352.889,3747.6417,N,12215.4294,W,1,04,1.5,11.5,M,-25.1,M,,0000*51
$GPGSA,A,3,20,13,07,16,,,,,,,,,1.8,1.5,1.0*3E
$GPRMC,212352.889,A,3747.6417,N,12215.4294,W,0.57,349.95,300412,,,A*79
$GPVTG,349.95,T,,M,0.57,N,1.1,K,A*0D
$GPGGA,212353.889,3747.6410,N,12215.4288,W,1,04,1.5,26.2,M,-25.1,M,,0000*59
$GPGSA,A,3,20,13,07,16,,,,,,,,,1.8,1.5,1.0*3E
$GPRMC,212353.889,A,3747.6410,N,12215.4288,W,0.45,357.57,300412,,,A*70
$GPVTG,357.57,T,,M,0.45,N,0.8,K,A*07
$GPGGA,212355.000,3747.6428,N,12215.4302,W,1,04,1.5,-2.1,M,-25.1,M,,0000*46
$GPGSA,A,3,20,13,07,16,,,,,,,,,1.8,1.5,1.0*3E
$GPRMC,212355.000,A,3747.6428,N,12215.4302,W,0.49,156.18,300412,,,A*73
$GPVTG,156.18,T,,M,0.49,N,0.9,K,A*02
$GPGGA,212356.000,3747.6432,N,12215.4305,W,1,03,4.4,-7.1,M,-25.1,M,,0000*4F
$GPGSA,A,2,13,07,16,,,,,,,,,,4.5,4.4,1.0*31
$GPRMC,212356.000,A,3747.6432,N,12215.4305,W,0.08,41.73,300412,,,A*43
$GPVTG,41.73,T,,M,0.08,N,0.1,K,N*3A
$GPGGA,212357.000,3747.6441,N,12215.4311,W,1,05,4.7,-17.0,M,-25.1,M,,0000*7A
$GPGSA,A,3,13,07,03,06,16,,,,,,,,9.2,4.7,7.9*33
$GPGSV,3,1,12,13,61,333,23,07,48,268,33,16,43,056,29,20,32,179,07*7B
$GPGSV,3,2,12,23,70,067,20,10,35,305,29,30,19,042,26,03,18,108,35*78
$GPGSV,3,3,12,06,14,092,33,32,14,160,24,08,14,249,,04,08,271,*7D
$GPRMC,212357.000,A,3747.6441,N,12215.4311,W,0.18,7.25,300412,,,A*73
$GPVTG,7.25,T,,M,0.18,N,0.3,K,A*07
$GPGGA,212358.000,3747.6441,N,12215.4311,W,1,05,4.7,-16.7,M,-25.1,M,,0000*73
$GPGSA,A,3,13,07,03,06,16,,,,,,,,9.3,4.7,7.9*32
$GPRMC,212358.000,A,3747.6441,N,12215.4311,W,0.39,357.29,300412,,,A*75
$GPVTG,357.29,T,,M,0.39,N,0.7,K,A*0A
$GPGGA,212359.000,3747.6442,N,12215.4313,W,1,05,4.7,-18.9,M,-25.1,M,,0000*73
$GPGSA,A,3,13,07,03,06,16,,,,,,,,9.3,4.7,7.9*32
$GPRMC,212359.000,A,3747.6442,N,12215.4313,W,0.21,2.84,300412,,,A*78
$GPVTG,2.84,T,,M,0.21,N,0.4,K,A*04
$GPGGA,212400.000,3747.6442,N,12215.4313,W,1,05,4.7,-20.3,M,-25.1,M,,0000*79
$GPGSA,A,3,13,07,03,06,16,,,,,,,,9.3,4.7,7.9*32
$GPRMC,212400.000,A,3747.6442,N,12215.4313,W,0.08,27.96,300412,,,A*4C
$GPVTG,27.96,T,,M,0.08,N,0.1,K,A*3E
$GPGGA,212401.000,3747.6442,N,12215.4314,W,1,05,4.7,-21.8,M,-25.1,M,,0000*75
$GPGSA,A,3,13,07,03,06,16,,,,,,,,9.3,4.7,7.9*32
$GPRMC,212401.000,A,3747.6442,N,12215.4314,W,0.30,353.35,300412,,,A*78
$GPVTG,353.35,T,,M,0.30,N,0.6,K,A*0B
$GPGGA,212402.000,3747.6441,N,12215.4313,W,1,05,4.7,-20.8,M,-25.1,M,,0000*73
$GPGSA,A,3,13,07,03,06,16,,,,,,,,9.3,4.7,7.9*32
$GPGSV,3,1,12,23,70,067,16,13,61,333,23,07,48,268,34,16,43,056,29*77
$GPGSV,3,2,12,10,35,305,29,20,32,179,,30,19,042,27,03,18,108,35*70
$GPGSV,3,3,12,06,14,092,33,32,14,160,24,08,14,249,,04,08,271,*7D
$GPRMC,212402.000,A,3747.6441,N,12215.4313,W,0.15,11.37,300412,,,A*4F
$GPGGA,212403.000,3747.6439,N,12215.4312,W,1,05,4.7,-18.9,M,-25.1,M,,0000*76
$GPGSA,A,3,13,07,03,06,16,,,,,,,,9.3,4.7,7.9*32
$GPRMC,212403.000,A,3747.6439,N,12215.4312,W,0.10,31.21,300412,,,A*40
$GPVTG,31.21,T,,M,0.10,N,0.2,K,A*3F
$GPGGA,212404.000,3747.6437,N,12215.4310,W,1,05,4.7,-18.1,M,-25.1,M,,0000*75
$GPGSA,A,3,13,07,03,06,16,,,,,,,,9.3,4.7,7.9*32
$GPRMC,212404.000,A,3747.6437,N,12215.4310,W,0.18,144.71,300412,,,A*75
$GPVTG,144.71,T,,M,0.18,N,0.3,K,A*00
$GPGGA,212405.000,3747.6436,N,12215.4309,W,1,05,4.7,-16.3,M,-25.1,M,,0000*71
$GPGSA,A,3,13,07,03,06,16,,,,,,,,9.3,4.7,7.9*32
$GPRMC,212405.000,A,3747.6436,N,12215.4309,W,0.16,15.42,300412,,,A*46
$GPVTG,15.42,T,,M,0.16,N,0.3,K,A*3B
$GPGGA,212406.000,3747.6435,N,12215.4308,W,1,05,4.7,-16.4,M,-25.1,M,,0000*77
$GPGSA,A,3,13,07,03,06,16,,,,,,,,9.3,4.7,7.9*32
$GPRMC,212406.000,A,3747.6435,N,12215.4308,W,0.38,358.31,300412,,,A*75
$GPVTG,358.31,T,,M,0.38,N,0.7,K,A*0D
$GPGGA,212407.000,3747.6434,N,12215.4307,W,1,05,4.7,-14.4,M,-25.1,M,,0000*7A
$GPGSA,A,3,13,07,03,06,16,,,,,,,,9.3,4.7,7.9*32
$GPGSV,3,1,12,23,70,067,27,13,61,333,20,07,48,268,34,16,43,056,29*76
$GPGSV,3,2,12,10,35,305,29,20,32,179,,30,19,042,26,03,18,108,30*74
$GPGSV,3,3,12,06,14,092,33,32,14,160,24,08,14,249,,04,08,271,*7D
$GPRMC,212407.000,A,3747.6434,N,12215.4307,W,0.47,0.09,300412,,,A*77
$GPVTG,0.09,T,,M,0.47,N,0.9,K,A*0E
$GPGGA,212408.000,3747.6435,N,12215.4306,W,1,05,4.7,-12.6,M,-25.1,M,,0000*71
$GPGSA,A,3,13,07,03,06,16,,,,,,,,9.3,4.7,7.9*32
$GPRMC,212408.000,A,3747.6435,N,12215.4306,W,0.45,2.90,300412,,,A*78
$GPVTG,2.90,T,,M,0.45,N,0.8,K,A*0F
$GPGGA,212409.000,3747.6434,N,12215.4305,W,1,05,4.7,-11.6,M,-25.1,M,,0000*71
$GPGSA,A,3,13,07,03,06,16,,,,,,,,9.3,4.7,7.9*32
$GPRMC,212409.000,A,3747.6434,N,12215.4305,W,0.21,42.28,300412,,,A*4E
$GPVTG,42.28,T,,M,0.21,N,0.4,K,A*36
$GPGGA,212410.000,3747.6434,N,12215.4304,W,1,05,4.7,-10.8,M,-25.1,M,,0000*77
$GPGSA,A,3,13,07,03,06,16,,,,,,,,9.3,4.7,8.0*34
$GPRMC,212410.000,A,3747.6434,N,12215.4304,W,0.16,55.56,300412,,,A*4C
$GPVTG,55.56,T,,M,0.16,N,0.3,K,A*3A
$GPGGA,212411.000,3747.6417,N,12215.4297,W,1,06,2.1,-6.5,M,-25.1,M,,0000*45
$GPGSA,A,3,20,13,07,03,06,16,,,,,,,5.0,2.1,4.5*30
$GPRMC,212411.000,A,3747.6417,N,12215.4297,W,0.72,158.24,300412,,,A*7C
$GPVTG,158.24,T,,M,0.72,N,1.3,K,A*00
$GPGGA,212412.000,3747.6381,N,12215.4280,W,1,06,2.1,4.1,M,-25.1,M,,0000*63
$GPGSA,A,3,20,13,07,03,06,16,,,,,,,5.0,2.1,4.6*33
$GPGSV,3,1,12,23,70,067,23,13,61,333,28,07,48,268,30,16,43,056,31*77
$GPGSV,3,2,12,10,35,305,30,20,32,179,22,30,19,042,30,03,18,108,32*79
$GPGSV,3,3,12,06,14,092,28,32,14,160,20,08,14,249,,04,08,271,*73
$GPRMC,212412.000,A,3747.6381,N,12215.4280,W,1.39,124.10,300412,,,A*73
$GPVTG,124.10,T,,M,1.39,N,2.6,K,A*04
$GPGGA,212413.000,3747.6402,N,12215.4285,W,1,06,2.1,-1.7,M,-25.1,M,,0000*45
$GPGSA,A,3,20,13,07,03,06,16,,,,,,,5.0,2.1,4.6*33
$GPRMC,212413.000,A,3747.6402,N,12215.4285,W,1.50,117.88,300412,,,A*75
$GPVTG,117.88,T,,M,1.50,N,2.8,K,A*04
$GPGGA,212414.000,3747.6411,N,12215.4286,W,1,06,2.1,-4.6,M,-25.1,M,,0000*47
$GPGSA,A,3,20,13,07,03,06,16,,,,,,,5.0,2.1,4.6*33
$GPRMC,212414.000,A,3747.6411,N,12215.4286,W,1.72,131.93,300412,,,A*7D
$GPVTG,131.93,T,,M,1.72,N,3.2,K,A*01
$GPGGA,212415.000,3747.6418,N,12215.4287,W,1,06,2.1,-7.5,M,-25.1,M,,0000*4E
$GPGSA,A,3,20,13,07,03,06,16,,,,,,,5.0,2.1,4.6*33
$GPRMC,212415.000,A,3747.6418,N,12215.4287,W,1.79,140.65,300412,,,A*70
$GPVTG,140.65,T,,M,1.79,N,3.3,K,A*04
$GPGGA,212416.000,3747.6423,N,12215.4287,W,1,06,2.1,-10.1,M,-25.1,M,,0000*77
$GPGSA,A,3,20,13,07,03,06,16,,,,,,,5.0,2.1,4.6*33
$GPRMC,212416.000,A,3747.6423,N,12215.4287,W,1.75,146.57,300412,,,A*70
$GPVTG,146.57,T,,M,1.75,N,3.2,K,A*0E
$GPGGA,212417.000,3747.6410,N,12215.4280,W,1,06,2.1,-8.0,M,-25.1,M,,0000*49
$GPGSA,A,3,20,13,07,03,06,16,,,,,,,5.0,2.1,4.6*33
$GPGSV,3,1,12,23,70,067,23,13,61,333,29,07,48,268,30,16,43,056,31*76
$GPGSV,3,2,12,10,35,305,31,20,32,179,22,30,19,042,37,03,18,108,31*7C
$GPGSV,3,3,12,06,14,092,29,32,14,160,21,08,14,249,,04,08,271,*73
$GPVTG,145.50,T,,M,1.45,N,2.7,K,A*0D
$GPGGA,212418.000,3747.6408,N,12215.4278,W,1,06,2.1,-8.8,M,-25.1,M,,0000*40
$GPGSA,A,3,20,13,07,03,06,16,,,,,,,5.0,2.1,4.6*33
$GPRMC,212418.000,A,3747.6408,N,12215.4278,W,1.89,141.91,300412,,,A*79
$GPVTG,141.91,T,,M,1.89,N,3.5,K,A*07
$GPGGA,212419.000,3747.6409,N,12215.4276,W,1,06,2.1,-10.4,M,-25.1,M,,0000*7B
$GPGSA,A,3,20,13,07,03,06,16,,,,,,,5.0,2.1,4.6*33
$GPRMC,212419.000,A,3747.6409,N,12215.4276,W,1.58,131.63,300412,,,A*71
$GPVTG,131.63,T,,M,1.58,N,2.9,K,A*0C
$GPGGA,212420.000,3747.6410,N,12215.4269,W,1,06,2.1,-10.2,M,-25.1,M,,0000*71
$GPGSA,A,3,20,13,07,03,06,16,,,,,,,5.0,2.1,4.6*33
$GPRMC,212420.000,A,3747.6410,N,12215.4269,W,1.47,120.89,300412,,,A*77
$GPVTG,120.89,T,,M,1.47,N,2.7,K,A*08
$GPGGA,212421.000,3747.6404,N,12215.4263,W,1,06,2.1,-8.6,M,-25.1,M,,0000*42
$GPGSA,A,3,20,13,07,03,06,16,,,,,,,5.0,2.1,4.6*33
$GPRMC,212421.000,A,3747.6404,N,12215.4263,W,1.44,124.28,300412,,,A*75
$GPVTG,124.28,T,,M,1.44,N,2.7,K,A*04
$GPGGA,212422.000,3747.6400,N,12215.4253,W,1,06,2.1,-7.6,M,-25.1,M,,0000*49
$GPGSA,A,3,20,13,07,03,06,16,,,,,,,5.0,2.1,4.6*33
$GPGSV,3,1,12,23,70,067,24,13,61,333,29,07,48,268,23,16,43,056,32*70
$GPGSV,3,2,12,10,35,305,31,20,32,179,22,30,19,042,36,03,18,108,33*7F
$GPGSV,3,3,12,06,14,092,31,32,14,160,20,08,14,249,26,04,08,271,*7F
$GPRMC,212422.000,A,3747.6400,N,12215.4253,W,1.64,117.46,300412,,,A*7B
$GPVTG,117.46,T,,M,1.64,N,3.0,K,A*08
$GPGGA,212423.000,3747.6399,N,12215.4245,W,1,06,2.1,-6.8,M,-25.1,M,,0000*47
$GPGSA,A,3,20,13,07,03,06,16,,,,,,,5.0,2.1,4.6*33
$GPRMC,212423.000,A,3747.6399,N,12215.4245,W,1.61,135.96,300412,,,A*72
$GPVTG,135.96,T,,M,1.61,N,3.0,K,A*00
$GPGGA,212424.000,3747.6393,N,12215.4232,W,1,06,2.1,-4.3,M,-25.1,M,,0000*43
$GPGSA,A,3,20,13,07,03,06,16,,,,,,,5.0,2.1,4.6*33
$GPRMC,212424.000,A,3747.6393,N,12215.4232,W,1.34,134.19,300412,,,A*79
$GPVTG,134.19,T,,M,1.34,N,2.5,K,A*02
$GPGGA,212425.000,3747.6394,N,12215.4226,W,1,06,2.1,-4.0,M,-25.1,M,,0000*43
$GPGSA,A,3,20,13,07,03,06,16,,,,,,,5.0,2.1,4.6*33
$GPRMC,212425.000,A,3747.6394,N,12215.4226,W,1.17,114.55,300412,,,A*71
$GPVTG,114.55,T,,M,1.17,N,2.2,K,A*0E
$GPGGA,212426.000,3747.6384,N,12215.4216,W,1,06,2.1,-1.7,M,-25.1,M,,0000*40
$GPGSA,A,3,20,13,07,03,06,16,,,,,,,5.0,2.1,4.6*33
$GPRMC,212426.000,A,3747.6384,N,12215.4216,W,2.14,145.24,300412,,,A*72
$GPVTG,145.24,T,,M,2.14,N,4.0,K,A*08
