$ADVER,3080,2.3
$GPRMC,200952.927,A,3747.6952,N,12215.4790,W,0.35,90.32,300412,,,A*46
$GPGGA,200953.927,3747.6952,N,12215.4789,W,1,03,2.9,25.1,M,-25.1,M,,0000*52
$GPGSA,A,2,23,20,07,,,,,,,,,,3.0,2.9,1.0*3E
$GPRMC,200953.927,A,3747.6952,N,12215.4789,W,0.25,69.78,300412,,,A*46
$GPVTG,69.78,T,,M,0.25,N,0.5,K,N*30
$GPGGA,200954.927,3747.6952,N,12215.4792,W,1,03,2.9,25.1,M,-25.1,M,,0000*5F
$GPGSA,A,2,23,20,07,,,,,,,,,,3.0,2.9,1.0*3E
$GPGSV,3,1,12,20,68,192,31,23,63,332,36,07,22,236,35,32,48,151,26*75
$GPGSV,3,2,12,16,47,108,25,30,42,068,,13,36,298,36,04,14,302,33*7B
$GPGSV,3,3,12,31,09,049,,10,08,317,,01,06,200,,48,00,000,38*72
$GPRMC,200954.927,A,3747.6952,N,12215.4792,W,0.06,347.27,300412,,,A*7F
$GPVTG,347.27,T,,M,0.06,N,0.1,K,N*00
$GPGGA,200955.927,3747.6952,N,12215.4790,W,1,03,2.9,25.1,M,-25.1,M,,0000*5C
$GPGSA,A,2,23,20,07,,,,,,,,,,3.0,2.9,1.0*3E
$GPRMC,200955.927,A,3747.6952,N,12215.4790,W,0.34,140.38,300412,,,A*76
$GPVTG,140.38,T,,M,0.34,N,0.6,K,N*0D
$GPGGA,200956.927,3747.6952,N,12215.4789,W,1,03,2.9,25.1,M,-25.1,M,,0000*57
$GPGSA,A,2,23,20,07,,,,,,,,,,3.0,2.9,1.0*3E
$GPRMC,200956.927,A,3747.6952,N,12215.4789,W,0.51,108.94,300412,,,A*74
$GPVTG,108.94,T,,M,0.51,N,1.0,K,N*03
$GPGGA,200957.927,3747.6951,N,12215.4789,W,1,03,2.9,25.1,M,-25.1,M,,0000*55
$GPGSA,A,2,23,20,07,,,,,,,,,,3.0,2.9,1.0*3E
$GPRMC,200957.927,A,3747.6951,N,12215.4789,W,0.34,98.80,300412,,,A*48
$GPVTG,98.80,T,,M,0.34,N,0.6,K,N*3A
$GPGGA,200958.927,3747.6951,N,12215.4790,W,1,03,2.9,25.1,M,-25.1,M,,0000*52
$GPGSA,A,2,23,20,07,,,,,,,,,,3.0,2.9,1.0*3E
$GPRMC,200958.927,A,3747.6951,N,12215.4790,W,0.37,130.81,300412,,,A*7E
$GPVTG,130.81,T,,M,0.37,N,0.7,K,N*0A
$GPGGA,200959.927,3747.6943,N,12215.4847,W,1,03,2.9,25.1,M,-25.1,M,,0000*55
$GPGSA,A,2,23,20,07,,,,,,,,,,3.0,2.9,1.0*3E
$GPGSV,3,1,12,20,68,192,32,23,63,332,38,07,22,236,23,32,48,151,30*78
$GPGSV,3,2,12,16,47,108,26,30,42,068,,13,36,298,37,04,14,302,32*78
$GPGSV,3,3,12,31,09,049,,10,08,317,26,01,06,200,28,48,00,000,37*73
$GPRMC,200959.927,A,3747.6943,N,12215.4847,W,1.26,83.66,300412,,,A*48
$GPVTG,83.66,T,,M,1.26,N,2.3,K,N*3D
$GPGGA,201000.927,3747.6957,N,12215.4743,W,1,03,2.9,25.1,M,-25.1,M,,0000*5F
$GPGSA,A,2,23,20,07,,,,,,,,,,3.0,2.9,1.0*3E
$GPRMC,201000.927,A,3747.6957,N,12215.4743,W,0.44,105.81,300412,,,A*71
$GPVTG,105.81,T,,M,0.44,N,0.8,K,N*07
$GPGGA,201001.927,3747.6943,N,12215.4837,W,1,03,2.9,25.1,M,-25.1,M,,0000*57
$GPGSA,A,2,23,20,07,,,,,,,,,,3.0,2.9,1.0*3E
$GPRMC,201001.927,A,3747.6943,N,12215.4837,W,0.75,97.71,300412,,,A*4E
$GPVTG,97.71,T,,M,0.75,N,1.4,K,N*3D
$GPGGA,201002.927,3747.6948,N,12215.4804,W,1,03,2.9,25.1,M,-25.1,M,,0000*5F
$GPGSA,A,2,23,20,07,,,,,,,,,,3.0,2.9,1.0*3E
$GPRMC,201002.927,A,3747.6948,N,12215.4804,W,0.69,100.92,300412,,,A*79
$GPVTG,100.92,T,,M,0.69,N,1.3,K,N*05
$GPGGA,201003.927,3747.6949,N,12215.4793,W,1,03,2.9,25.1,M,-25.1,M,,0000*5E
$GPGSA,A,2,23,20,07,,,,,,,,,,3.0,2.9,1.0*3E
$GPRMC,201003.927,A,3747.6949,N,12215.4793,W,0.34,96.55,300412,,,A*45
$GPVTG,96.55,T,,M,0.34,N,0.6,K,N*3C
$GPGGA,201004.927,3747.6950,N,12215.4796,W,1,03,2.9,25.1,M,-25.1,M,,0000*54
$GPGSA,A,2,23,20,07,,,,,,,,,,3.0,2.9,1.0*3E
$GPGSV,3,1,12,20,68,192,31,23,63,332,37,07,22,236,34,32,48,151,29*7A
$GPGSV,3,2,12,16,47,108,26,30,42,068,,13,36,298,31,04,14,302,25*78
$GPGSV,3,3,12,31,09,049,,10,08,317,15,01,06,200,22,48,00,000,34*7A
$GPVTG,124.41,T,,M,0.21,N,0.4,K,N*07
$GPGGA,201005.927,3747.6949,N,12215.4805,W,1,03,2.9,25.1,M,-25.1,M,,0000*58
$GPGSA,A,2,23,20,07,,,,,,,,,,3.0,2.9,1.0*3E
$GPRMC,201005.927,A,3747.6949,N,12215.4805,W,0.23,135.70,300412,,,A*7A
$GPVTG,135.70,T,,M,0.23,N,0.4,K,N*07
$GPGGA,201006.927,3747.6949,N,12215.4802,W,1,03,2.9,25.1,M,-25.1,M,,0000*5C
$GPGSA,A,2,23,20,07,,,,,,,,,,3.0,2.9,1.0*3E
$GPRMC,201006.927,A,3747.6949,N,12215.4802,W,0.12,115.75,300412,,,A*7B
$GPVTG,115.75,T,,M,0.12,N,0.2,K,N*04
$GPGGA,201007.927,3747.6942,N,12215.4859,W,1,03,2.9,25.1,M,-25.1,M,,0000*58
$GPGSA,A,2,23,20,07,,,,,,,,,,3.0,2.9,1.0*3E
$GPRMC,201007.927,A,3747.6942,N,12215.4859,W,0.19,152.66,300412,,,A*75
$GPVTG,152.66,T,,M,0.19,N,0.4,K,N*08
$GPGGA,201008.927,3747.6941,N,12215.4850,W,1,03,2.9,25.1,M,-25.1,M,,0000*5D
$GPGSA,A,2,23,20,07,,,,,,,,,,3.0,2.9,1.0*3E
$GPRMC,201008.927,A,3747.6941,N,12215.4850,W,0.81,359.68,300412,,,A*76
$GPVTG,359.68,T,,M,0.81,N,1.5,K,N*0E
$GPGGA,201027.927,3747.6977,N,12215.4716,W,1,03,2.9,25.1,M,-25.1,M,,0000*58
$GPGSA,A,2,23,20,07,,,,,,,,,,3.0,2.9,1.0*3E
$GPRMC,201027.927,A,3747.6977,N,12215.4716,W,2.29,128.29,300412,,,A*72
$GPVTG,128.29,T,,M,2.29,N,4.2,K,N*0D
$GPGGA,201028.927,3747.6920,N,12215.4768,W,1,03,2.9,25.1,M,-25.1,M,,0000*5C
$GPGSA,A,2,23,20,07,,,,,,,,,,3.0,2.9,1.0*3E
$GPRMC,201028.927,A,3747.6920,N,12215.4768,W,4.17,134.95,300412,,,A*77
$GPVTG,134.95,T,,M,4.17,N,7.7,K,N*0A
$GPGGA,201029.927,3747.6927,N,12215.4812,W,1,03,2.9,25.1,M,-25.1,M,,0000*58
$GPGSA,A,2,23,20,07,,,,,,,,,,3.0,2.9,1.0*3E
$GPGSV,3,1,12,20,68,192,27,23,63,332,31,07,22,236,26,32,48,151,27*76
$GPGSV,3,2,12,16,47,108,26,30,42,068,,13,36,298,31,04,14,302,29*74
$GPGSV,3,3,12,31,09,049,,10,08,317,22,01,06,200,,48,00,000,27*7C
$GPRMC,201029.927,A,3747.6927,N,12215.4812,W,1.46,182.70,300412,,,A*74
$GPVTG,182.70,T,,M,1.46,N,2.7,K,N*08
$GPGGA,201030.927,3747.6905,N,12215.4788,W,1,03,2.9,25.1,M,-25.1,M,,0000*5C
$GPGSA,A,2,23,20,07,,,,,,,,,,3.0,2.9,1.0*3E
$GPRMC,201030.927,A,3747.6905,N,12215.4788,W,1.68,264.53,300412,,,A*76
$GPVTG,264.53,T,,M,1.68,N,3.1,K,N*09
$GPGGA,201031.927,3747.6903,N,12215.4705,W,1,03,2.9,25.1,M,-25.1,M,,0000*5E
$GPGSA,A,2,23,20,07,,,,,,,,,,3.0,2.9,1.0*3E
$GPRMC,201031.927,A,3747.6903,N,12215.4705,W,3.79,354.57,300412,,,A*70
$GPVTG,354.57,T,,M,3.79,N,7.0,K,N*08
$GPGGA,201032.927,3747.6917,N,12215.4666,W,1,03,2.9,25.1,M,-25.1,M,,0000*5C
$GPGSA,A,2,23,20,07,,,,,,,,,,3.0,2.9,1.0*3E
$GPRMC,201032.927,A,3747.6917,N,12215.4666,W,0.82,336.44,300412,,,A*73
$GPVTG,336.44,T,,M,0.82,N,1.5,K,N*0A
$GPGGA,201033.927,3747.6936,N,12215.4654,W,1,03,2.9,25.1,M,-25.1,M,,0000*5F
$GPGSA,A,2,23,20,07,,,,,,,,,,3.0,2.9,1.0*3E
$GPRMC,201033.927,A,3747.6936,N,12215.4654,W,2.25,166.65,300412,,,A*7B
$GPVTG,166.65,T,,M,2.25,N,4.2,K,N*03
$GPGGA,201035.927,3747.6915,N,12215.4790,W,1,03,2.9,25.1,M,-25.1,M,,0000*51
$GPGSA,A,2,23,20,07,,,,,,,,,,3.0,2.9,1.0*3E
$GPRMC,201035.927,A,3747.6915,N,12215.4790,W,1.40,135.23,300412,,,A*71
$GPVTG,135.23,T,,M,1.40,N,2.6,K,N*05
$GPGGA,201036.927,3747.6908,N,12215.4785,W,1,03,2.9,25.1,M,-25.1,M,,0000*5A
$GPGSA,A,2,23,20,07,,,,,,,,,,3.0,2.9,1.0*3E
$GPRMC,201036.927,A,3747.6908,N,12215.4785,W,2.01,135.56,300412,,,A*7E
$GPVTG,135.56,T,,M,2.01,N,3.7,K,N*01
$GPGGA,201037.927,3747.6906,N,12215.4836,W,1,03,2.9,25.1,M,-25.1,M,,0000*52
$GPGSA,A,2,23,20,07,,,,,,,,,,3.0,2.9,1.0*3E
$GPRMC,201037.927,A,3747.6906,N,12215.4836,W,1.13,122.22,300412,,,A*73
$GPVTG,122.22,T,,M,1.13,N,2.1,K,N*03
$GPGGA,201038.927,3747.6859,N,12215.4791,W,1,03,2.9,25.1,M,-25.1,M,,0000*54
$GPGSA,A,2,23,20,07,,,,,,,,,,3.0,2.9,1.0*3E
$GPRMC,201038.927,A,3747.6859,N,12215.4791,W,1.76,102.55,300412,,,A*74
$GPVTG,102.55,T,,M,1.76,N,3.3,K,N*01
$GPGGA,201039.927,3747.6850,N,12215.4774,W,1,03,2.9,25.1,M,-25.1,M,,0000*57
$GPGSA,A,2,23,20,07,,,,,,,,,,3.0,2.9,1.0*3E
$GPGSV,3,1,12,20,68,192,28,23,63,332,24,07,22,236,31,32,48,151,28*74
$GPGSV,3,2,12,16,47,108,29,30,42,068,,13,36,298,25,04,14,302,21*76
$GPGSV,3,3,12,31,09,049,,10,08,317,17,01,06,200,23,48,00,000,29*75
$GPRMC,201039.927,A,3747.6850,N,12215.4774,W,0.99,101.53,300412,,,A*72
$GPGGA,201040.927,3747.6908,N,12215.4790,W,1,03,2.9,25.1,M,-25.1,M,,0000*5F
$GPGSA,A,2,23,20,07,,,,,,,,,,3.0,2.9,1.0*3E
$GPRMC,201040.927,A,3747.6908,N,12215.4790,W,0.45,80.62,300412,,,A*41
$GPVTG,80.62,T,,M,0.45,N,0.8,K,N*37
$GPGGA,201041.927,3747.6861,N,12215.4762,W,1,03,2.9,25.1,M,-25.1,M,,0000*5D
$GPGSA,A,2,23,20,07,,,,,,,,,,3.0,2.9,1.0*3E
$GPRMC,201041.927,A,3747.6861,N,12215.4762,W,0.61,94.07,300412,,,A*43
$GPVTG,94.07,T,,M,0.61,N,1.1,K,N*3F
$GPGGA,201042.927,3747.6882,N,12215.4752,W,1,03,2.9,25.1,M,-25.1,M,,0000*50
$GPGSA,A,2,23,20,07,,,,,,,,,,3.0,2.9,1.0*3E
$GPRMC,201042.927,A,3747.6882,N,12215.4752,W,1.35,122.98,300412,,,A*74
$GPVTG,122.98,T,,M,1.35,N,2.5,K,N*02
$GPGGA,201043.927,3747.6884,N,12215.4756,W,1,03,2.9,25.1,M,-25.1,M,,0000*53
$GPGSA,A,2,23,20,07,,,,,,,,,,3.0,2.9,1.0*3E
$GPRMC,201043.927,A,3747.6884,N,12215.4756,W,0.56,94.33,300412,,,A*4E
$GPVTG,94.33,T,,M,0.56,N,1.0,K,N*3D
$GPGGA,201045.927,3747.6872,N,12215.4724,W,1,03,2.9,25.1,M,-25.1,M,,0000*59
$GPGSA,A,2,23,20,07,,,,,,,,,,3.0,2.9,1.0*3E
$GPRMC,201045.927,A,3747.6872,N,12215.4724,W,1.21,132.32,300412,,,A*79
$GPVTG,132.32,T,,M,1.21,N,2.2,K,N*01
$GPGGA,201046.927,3747.6856,N,12215.4710,W,1,03,2.9,25.1,M,-25.1,M,,0000*5B
$GPGSA,A,2,23,20,07,,,,,,,,,,3.0,2.9,1.0*3E
$GPRMC,201046.927,A,3747.6856,N,12215.4710,W,1.67,247.36,300412,,,A*7C
$GPVTG,247.36,T,,M,1.67,N,3.1,K,N*04
$GPGGA,201047.927,3747.6900,N,12215.4677,W,1,03,2.9,25.1,M,-25.1,M,,0000*58
$GPGSA,A,2,23,20,07,,,,,,,,,,3.0,2.9,1.0*3E
$GPRMC,201047.927,A,3747.6900,N,12215.4677,W,0.87,23.66,300412,,,A*45
$GPVTG,23.66,T,,M,0.87,N,1.6,K,N*3B
$GPGGA,201051.927,3747.6908,N,12215.4742,W,1,03,2.9,25.1,M,-25.1,M,,0000*50
$GPGSA,A,2,23,20,07,,,,,,,,,,3.0,2.9,1.0*3E
$GPRMC,201051.927,A,3747.6908,N,12215.4742,W,0.27,172.89,300412,,,A*73
$GPVTG,172.89,T,,M,0.27,N,0.5,K,N*07
$GPGGA,201052.927,3747.6906,N,12215.4784,W,1,04,2.2,37.6,M,-25.1,M,,0000*5F
$GPGSA,A,3,13,23,20,07,,,,,,,,,2.4,2.2,1.0*33
$GPRMC,201052.927,A,3747.6906,N,12215.4784,W,0.71,97.44,300412,,,A*4C
$GPVTG,97.44,T,,M,0.71,N,1.3,K,A*37
$GPGGA,201053.927,3747.6888,N,12215.4820,W,1,04,2.2,49.2,M,-25.1,M,,0000*55
$GPGSA,A,3,13,23,20,07,,,,,,,,,2.4,2.2,1.0*33
$GPRMC,201053.927,A,3747.6888,N,12215.4820,W,0.19,357.97,300412,,,A*74
$GPVTG,357.97,T,,M,0.19,N,0.4,K,A*0E
$GPGGA,201054.927,3747.6893,N,12215.4849,W,1,04,2.2,52.2,M,-25.1,M,,0000*5D
$GPGSA,A,3,13,23,20,07,,,,,,,,,2.4,2.2,1.0*33
$GPGSV,3,1,12,20,68,192,21,23,63,332,30,13,36,299,29,07,23,237,29*7D
$GPGSV,3,2,12,32,47,151,25,16,47,107,25,30,42,067,,04,14,302,37*7E
$GPGSV,3,3,12,31,09,049,,10,08,317,29,01,06,200,20,48,44,197,31*7D
$GPRMC,201054.927,A,3747.6893,N,12215.4849,W,0.11,26.57,300412,,,A*47
$GPVTG,26.57,T,,M,0.11,N,0.2,K,A*39
$GPGGA,201056.000,3747.6876,N,12215.4890,W,1,04,2.2,64.4,M,-25.1,M,,0000*5F
$GPGSA,A,3,13,23,20,07,,,,,,,,,2.4,2.2,1.0*33
$GPRMC,201056.000,A,3747.6876,N,12215.4890,W,0.22,325.57,300412,,,A*76
$GPVTG,325.57,T,,M,0.22,N,0.4,K,A*0F
$GPGGA,201057.000,3747.6873,N,12215.4893,W,1,04,2.2,65.6,M,-25.1,M,,0000*5B
$GPGSA,A,3,13,23,20,07,,,,,,,,,2.4,2.2,1.0*33
$GPRMC,201057.000,A,3747.6873,N,12215.4893,W,0.36,124.35,300412,,,A*73
$GPVTG,124.35,T,,M,0.36,N,0.7,K,A*0E
$GPGGA,201058.000,3747.6884,N,12215.4855,W,1,04,2.2,55.3,M,-25.1,M,,0000*50
$GPGSA,A,3,13,23,20,07,,,,,,,,,2.4,2.2,1.0*33
$GPRMC,201058.000,A,3747.6884,N,12215.4855,W,0.55,112.70,300412,,,A*7F
$GPVTG,112.70,T,,M,0.55,N,1.0,K,A*09
$GPGGA,201059.000,3747.6887,N,12215.4840,W,1,04,2.2,51.7,M,-25.1,M,,0000*56
$GPGSA,A,3,13,23,20,07,,,,,,,,,2.4,2.2,1.0*33
$GPRMC,201059.000,A,3747.6887,N,12215.4840,W,0.80,115.75,300412,,,A*73
$GPVTG,115.75,T,,M,0.80,N,1.5,K,A*06
$GPGGA,201100.000,3747.6877,N,12215.4857,W,1,04,2.2,57.2,M,-25.1,M,,0000*51
$GPGSA,A,3,13,23,20,07,,,,,,,,,2.4,2.2,1.0*33
$GPGSV,3,1,12,20,68,192,21,23,63,332,30,13,36,299,28,07,23,237,35*71
$GPGSV,3,2,12,32,47,151,25,16,47,107,25,30,42,067,,04,14,302,37*7E
$GPGSV,3,3,12,31,09,049,,10,08,317,30,01,06,200,20,48,44,197,27*72
$GPRMC,201100.000,A,3747.6877,N,12215.4857,W,0.49,111.28,300412,,,A*7E
$GPGGA,201101.000,3747.6873,N,12215.4865,W,1,04,2.2,59.8,M,-25.1,M,,0000*51
$GPGSA,A,3,13,23,20,07,,,,,,,,,2.4,2.2,1.0*33
$GPRMC,201101.000,A,3747.6873,N,12215.4865,W,0.35,110.45,300412,,,A*7B
$GPVTG,110.45,T,,M,0.35,N,0.6,K,A*0C
$GPGGA,201102.000,3747.6866,N,12215.4885,W,1,04,2.2,65.2,M,-25.1,M,,0000*5D
$GPGSA,A,3,13,23,20,07,,,,,,,,,2.4,2.2,1.0*33
$GPRMC,201102.000,A,3747.6866,N,12215.4885,W,0.06,333.41,300412,,,A*75
$GPVTG,333.41,T,,M,0.06,N,0.1,K,A*0C
$GPGGA,201103.000,3747.6865,N,12215.4891,W,1,04,2.2,66.6,M,-25.1,M,,0000*5D
$GPGSA,A,3,13,23,20,07,,,,,,,,,2.4,2.2,1.0*33
$GPRMC,201103.000,A,3747.6865,N,12215.4891,W,0.31,117.67,300412,,,A*76
$GPVTG,117.67,T,,M,0.31,N,0.6,K,A*0F
$GPGGA,201104.000,3747.6863,N,12215.4901,W,1,04,2.2,68.6,M,-25.1,M,,0000*5A
$GPGSA,A,3,13,23,20,07,,,,,,,,,2.4,2.2,1.0*33
$GPRMC,201104.000,A,3747.6863,N,12215.4901,W,0.26,311.84,300412,,,A*70
$GPVTG,311.84,T,,M,0.26,N,0.5,K,A*03
$GPGGA,201105.000,3747.6864,N,12215.4902,W,1,04,2.2,68.1,M,-25.1,M,,0000*58
$GPGSA,A,3,13,23,20,07,,,,,,,,,2.4,2.2,1.0*33
$GPGSV,3,1,12,20,68,192,21,23,63,332,30,13,36,299,26,07,23,237,35*7F
$GPGSV,3,2,12,32,47,151,24,16,47,107,25,30,42,067,,04,14,302,37*7F
$GPGSV,3,3,12,31,09,049,,10,08,317,30,01,06,200,19,48,44,197,27*78
$GPRMC,201105.000,A,3747.6864,N,12215.4902,W,0.51,303.83,300412,,,A*71
$GPVTG,303.83,T,,M,0.51,N,1.0,K,A*03
$GPGGA,201106.000,3747.6870,N,12215.4896,W,1,04,2.2,65.2,M,-25.1,M,,0000*5C
$GPGSA,A,3,13,23,20,07,,,,,,,,,2.4,2.2,1.0*33
$GPRMC,201106.000,A,3747.6870,N,12215.4896,W,0.50,303.04,300412,,,A*75
$GPVTG,303.04,T,,M,0.50,N,0.9,K,A*05
$GPGGA,201107.000,3747.6869,N,12215.4897,W,1,04,2.2,65.4,M,-25.1,M,,0000*52
$GPGSA,A,3,13,23,20,07,,,,,,,,,2.4,2.2,1.0*33
$GPRMC,201107.000,A,3747.6869,N,12215.4897,W,0.12,137.49,300412,,,A*77
$GPVTG,137.49,T,,M,0.12,N,0.2,K,A*04
$GPGGA,201108.000,3747.6865,N,12215.4901,W,1,04,2.2,67.2,M,-25.1,M,,0000*5B
$GPGSA,A,3,13,23,20,07,,,,,,,,,2.4,2.2,1.0*33
$GPRMC,201108.000,A,3747.6865,N,12215.4901,W,0.70,123.33,300412,,,A*76
$GPVTG,123.33,T,,M,0.70,N,1.3,K,A*08
$GPGGA,201109.000,3747.6864,N,12215.4900,W,1,03,3.4,67.2,M,-25.1,M,,0000*5A
$GPGSA,A,2,13,23,07,,,,,,,,,,3.6,3.4,1.0*34
$GPRMC,201109.000,A,3747.6864,N,12215.4900,W,0.80,119.47,300412,,,A*72
$GPVTG,119.47,T,,M,0.80,N,1.5,K,A*0B
$GPGGA,201110.000,3747.6861,N,12215.4902,W,1,04,2.2,68.4,M,-25.1,M,,0000*5C
$GPGSA,A,3,13,23,20,07,,,,,,,,,2.4,2.2,1.0*33
$GPGSV,3,1,11,20,68,192,19,23,63,332,30,13,36,299,26,07,23,237,35*77
$GPGSV,3,2,11,32,47,151,25,16,47,107,25,30,42,067,,04,14,302,37*7D
$GPGSV,3,3,11,31,09,049,,10,08,317,29,01,06,200,20*4F
$GPRMC,201110.000,A,3747.6861,N,12215.4902,W,0.66,120.03,300412,,,A*7F
$GPVTG,120.03,T,,M,0.66,N,1.2,K,A*0E
$GPGGA,201111.000,3747.6861,N,12215.4902,W,1,03,3.4,68.5,M,-25.1,M,,0000*5C
$GPGSA,A,2,13,23,07,,,,,,,,,,3.5,3.4,1.0*37
$GPRMC,201111.000,A,3747.6861,N,12215.4902,W,0.60,117.16,300412,,,A*78
$GPVTG,117.16,T,,M,0.60,N,1.1,K,A*0B
$GPGGA,201112.000,3747.6860,N,12215.4901,W,1,03,3.4,68.5,M,-25.1,M,,0000*5D
$GPGSA,A,2,13,23,07,,,,,,,,,,3.5,3.4,1.0*37
$GPRMC,201112.000,A,3747.6860,N,12215.4901,W,0.76,118.52,300412,,,A*71
$GPVTG,118.52,T,,M,0.76,N,1.4,K,A*06
$GPGGA,201113.000,3747.6860,N,12215.4901,W,1,03,3.4,68.4,M,-25.1,M,,0000*5D
$GPGSA,A,2,13,23,07,,,,,,,,,,3.5,3.4,1.0*37
$GPRMC,201113.000,A,3747.6860,N,12215.4901,W,0.29,105.28,300412,,,A*7B
$GPVTG,105.28,T,,M,0.29,N,0.5,K,A*0D
$GPGGA,201114.000,3747.6850,N,12215.4915,W,1,04,2.2,73.8,M,-25.1,M,,0000*5A
$GPGSA,A,3,13,23,20,07,,,,,,,,,2.4,2.2,1.0*33
$GPRMC,201114.000,A,3747.6850,N,12215.4915,W,0.45,122.45,300412,,,A*7E
$GPVTG,122.45,T,,M,0.45,N,0.8,K,A*04
$GPGGA,201115.000,3747.6845,N,12215.4923,W,1,04,2.2,76.5,M,-25.1,M,,0000*52
$GPGSA,A,3,13,23,20,07,,,,,,,,,2.4,2.2,1.0*33
$GPGSV,3,1,11,20,67,191,20,23,63,333,28,16,47,107,25,32,47,151,25*7B
$GPGSV,3,2,11,30,42,067,,13,36,299,26,07,23,237,34,04,14,301,36*7C
$GPGSV,3,3,11,31,09,049,,10,08,317,29,01,06,200,20*4F
$GPRMC,201115.000,A,3747.6845,N,12215.4923,W,0.24,120.67,300412,,,A*7B
$GPGGA,201116.000,3747.6840,N,12215.4922,W,1,04,2.2,77.7,M,-25.1,M,,0000*56
$GPGSA,A,3,13,23,20,07,,,,,,,,,2.4,2.2,1.0*33
$GPRMC,201116.000,A,3747.6840,N,12215.4922,W,0.47,124.61,300412,,,A*7B
$GPVTG,124.61,T,,M,0.47,N,0.9,K,A*07
$GPGGA,201117.000,3747.6841,N,12215.4910,W,1,04,2.2,75.2,M,-25.1,M,,0000*50
$GPGSA,A,3,13,23,20,07,,,,,,,,,2.4,2.2,1.0*33
$GPRMC,201117.000,A,3747.6841,N,12215.4910,W,0.42,310.43,300412,,,A*7A
$GPVTG,310.43,T,,M,0.42,N,0.8,K,A*06
$GPGGA,201118.000,3747.6844,N,12215.4918,W,1,04,2.2,75.4,M,-25.1,M,,0000*54
$GPGSA,A,3,13,23,20,07,,,,,,,,,2.4,2.2,1.0*33
$GPRMC,201118.000,A,3747.6844,N,12215.4918,W,0.66,299.82,300412,,,A*73
$GPVTG,299.82,T,,M,0.66,N,1.2,K,A*06
$GPGGA,201119.000,3747.6848,N,12215.4911,W,1,04,2.2,72.8,M,-25.1,M,,0000*5B
$GPGSA,A,3,13,23,20,07,,,,,,,,,2.4,2.2,1.0*33
$GPRMC,201119.000,A,3747.6848,N,12215.4911,W,0.28,283.07,300412,,,A*7B
$GPVTG,283.07,T,,M,0.28,N,0.5,K,A*0C
$GPGGA,201120.000,3747.6843,N,12215.4903,W,1,04,2.2,72.9,M,-25.1,M,,0000*58
$GPGSA,A,3,13,23,20,07,,,,,,,,,2.4,2.2,1.0*33
$GPGSV,3,1,11,20,67,191,21,23,63,333,29,16,47,107,25,32,47,151,26*78
$GPGSV,3,2,11,30,42,067,,13,36,299,25,07,23,237,34,04,14,301,36*7F
$GPGSV,3,3,11,31,09,049,,10,08,317,28,01,06,200,21*4F
$GPRMC,201120.000,A,3747.6843,N,12215.4903,W,0.39,121.85,300412,,,A*78
$GPVTG,121.85,T,,M,0.39,N,0.7,K,A*0F
$GPGGA,201121.000,3747.6846,N,12215.4900,W,1,04,2.2,71.1,M,-25.1,M,,0000*54
$GPGSA,A,3,13,23,20,07,,,,,,,,,2.4,2.2,1.0*33
$GPRMC,201121.000,A,3747.6846,N,12215.4900,W,0.45,311.94,300412,,,A*75
$GPVTG,311.94,T,,M,0.45,N,0.8,K,A*0A
$GPGGA,201122.000,3747.6856,N,12215.4871,W,1,05,4.9,63.0,M,-25.1,M,,0000*5F
$GPGSA,A,3,13,23,20,07,04,,,,,,,,7.3,4.9,5.4*38
$GPRMC,201122.000,A,3747.6856,N,12215.4871,W,0.63,298.60,300412,,,A*7F
$GPVTG,298.60,T,,M,0.63,N,1.2,K,A*0E
$GPGGA,201123.000,3747.6863,N,12215.4828,W,1,05,4.9,53.3,M,-25.1,M,,0000*54
$GPGSA,A,3,13,23,20,07,04,,,,,,,,7.3,4.9,5.4*38
$GPRMC,201123.000,A,3747.6863,N,12215.4828,W,0.49,298.55,300412,,,A*7A
$GPVTG,298.55,T,,M,0.49,N,0.9,K,A*0A
$GPGGA,201124.000,3747.6867,N,12215.4831,W,1,05,4.9,52.2,M,-25.1,M,,0000*5F
$GPGSA,A,3,13,23,20,07,04,,,,,,,,7.3,4.9,5.4*38
$GPRMC,201124.000,A,3747.6867,N,12215.4831,W,0.28,295.27,300412,,,A*7E
$GPVTG,295.27,T,,M,0.28,N,0.5,K,A*09
$GPGGA,201125.000,3747.6870,N,12215.4833,W,1,05,4.9,51.2,M,-25.1,M,,0000*59
$GPGSA,A,3,13,23,20,07,04,,,,,,,,7.3,4.9,5.4*38
$GPGSV,3,1,11,20,67,191,21,23,63,333,29,16,47,107,25,32,47,151,26*78
$GPGSV,3,2,11,30,42,067,,13,36,299,24,07,23,237,33,04,14,301,35*7A
$GPGSV,3,3,11,31,09,049,,10,08,317,28,01,06,200,23*4D
$GPRMC,201125.000,A,3747.6870,N,12215.4833,W,0.59,301.02,300412,,,A*76
$GPVTG,301.02,T,,M,0.59,N,1.1,K,A*01
$GPGGA,201126.000,3747.6874,N,12215.4856,W,1,05,4.9,53.5,M,-25.1,M,,0000*58
$GPGSA,A,3,13,23,20,07,04,,,,,,,,7.3,4.9,5.4*38
$GPRMC,201126.000,A,3747.6874,N,12215.4856,W,0.64,296.83,300412,,,A*7A
$GPVTG,296.83,T,,M,0.64,N,1.2,K,A*0A
$GPGGA,201127.000,3747.6873,N,12215.4844,W,1,05,4.9,51.4,M,-25.1,M,,0000*5E
$GPGSA,A,3,13,23,20,07,04,,,,,,,,7.3,4.9,5.4*38
$GPRMC,201127.000,A,3747.6873,N,12215.4844,W,0.12,267.57,300412,,,A*79
$GPVTG,267.57,T,,M,0.12,N,0.2,K,A*0D
$GPGGA,201128.000,3747.6871,N,12215.4825,W,1,05,4.9,48.7,M,-25.1,M,,0000*5F
$GPGSA,A,3,13,23,20,07,04,,,,,,,,7.3,4.9,5.4*38
$GPRMC,201128.000,A,3747.6871,N,12215.4825,W,0.35,110.33,300412,,,A*77
$GPVTG,110.33,T,,M,0.35,N,0.6,K,A*0D
$GPGGA,201129.000,3747.6872,N,12215.4814,W,1,05,4.9,46.5,M,-25.1,M,,0000*53
$GPGSA,A,3,13,23,20,07,04,,,,,,,,7.3,4.9,5.4*38
$GPRMC,201129.000,A,3747.6872,N,12215.4814,W,0.94,127.15,300412,,,A*7C
$GPVTG,127.15,T,,M,0.94,N,1.7,K,A*06
$GPGGA,201130.000,3747.6872,N,12215.4804,W,1,05,4.9,44.6,M,-25.1,M,,0000*5B
$GPGSA,A,3,13,23,20,07,04,,,,,,,,7.3,4.9,5.4*38
$GPGSV,3,1,12,20,67,191,30,23,63,333,29,16,47,107,24,32,47,151,25*79
$GPGSV,3,2,12,30,42,067,,13,36,299,32,07,23,237,26,04,14,301,33*7C
$GPGSV,3,3,12,31,09,049,,10,08,317,20,01,06,200,23,51,43,156,26*73
$GPRMC,201130.000,A,3747.6872,N,12215.4804,W,1.21,141.67,300412,,,A*7F
$GPGGA,201131.000,3747.6873,N,12215.4789,W,1,05,4.9,42.1,M,-25.1,M,,0000*50
$GPGSA,A,3,13,23,20,07,04,,,,,,,,7.3,4.9,5.4*38
$GPRMC,201131.000,A,3747.6873,N,12215.4789,W,1.31,121.89,300412,,,A*72
$GPVTG,121.89,T,,M,1.31,N,2.4,K,A*0B
$GPGGA,201132.000,3747.6874,N,12215.4771,W,1,05,4.9,39.6,M,-25.1,M,,0000*58
$GPGSA,A,3,13,23,20,07,04,,,,,,,,7.3,4.9,5.4*38
$GPRMC,201132.000,A,3747.6874,N,12215.4771,W,1.54,119.14,300412,,,A*7D
$GPVTG,119.14,T,,M,1.54,N,2.9,K,A*0A
$GPGGA,201133.000,3747.6875,N,12215.4760,W,1,05,4.9,38.7,M,-25.1,M,,0000*58
$GPGSA,A,3,13,23,20,07,04,,,,,,,,7.3,4.9,5.4*38
$GPRMC,201133.000,A,3747.6875,N,12215.4760,W,1.58,113.72,300412,,,A*7B
$GPVTG,113.72,T,,M,1.58,N,2.9,K,A*0C
$GPGGA,201134.000,3747.6876,N,12215.4729,W,1,05,4.9,35.4,M,-25.1,M,,0000*5F
$GPGSA,A,3,13,23,20,07,04,,,,,,,,7.3,4.9,5.4*38
$GPRMC,201134.000,A,3747.6876,N,12215.4729,W,2.24,101.66,300412,,,A*7C
$GPVTG,101.66,T,,M,2.24,N,4.1,K,A*0C
$GPGGA,201135.000,3747.6875,N,12215.4719,W,1,05,4.9,34.3,M,-25.1,M,,0000*58
$GPGSA,A,3,13,23,20,07,04,,,,,,,,7.3,4.9,5.4*38
$GPGSV,3,1,12,20,67,191,22,23,63,333,25,16,47,107,24,32,47,151,29*7A
$GPGSV,3,2,12,30,42,067,,13,36,299,31,07,23,237,33,04,14,301,27*7E
$GPGSV,3,3,12,31,09,049,,10,08,317,19,01,06,200,23,51,43,156,26*79
$GPRMC,201135.000,A,3747.6875,N,12215.4719,W,1.99,97.39,300412,,,A*4C
$GPVTG,97.39,T,,M,1.99,N,3.7,K,A*3C
$GPGGA,201136.000,3747.6865,N,12215.4715,W,1,05,4.9,33.6,M,-25.1,M,,0000*54
$GPGSA,A,3,13,23,20,07,04,,,,,,,,7.3,4.9,5.4*38
$GPRMC,201136.000,A,3747.6865,N,12215.4715,W,1.63,126.60,300412,,,A*70
$GPVTG,126.60,T,,M,1.63,N,3.0,K,A*09
$GPGGA,201137.000,3747.6863,N,12215.4714,W,1,05,4.9,33.9,M,-25.1,M,,0000*5D
$GPGSA,A,3,13,23,20,07,04,,,,,,,,7.3,4.9,5.4*38
$GPRMC,201137.000,A,3747.6863,N,12215.4714,W,1.94,95.54,300412,,,A*40
$GPVTG,95.54,T,,M,1.94,N,3.6,K,A*39
$GPGGA,201138.000,3747.6856,N,12215.4712,W,1,05,4.9,34.0,M,-25.1,M,,0000*5C
$GPGSA,A,3,13,23,20,07,04,,,,,,,,7.3,4.9,5.4*38
$GPRMC,201138.000,A,3747.6856,N,12215.4712,W,1.26,130.78,300412,,,A*76
$GPVTG,130.78,T,,M,1.26,N,2.3,K,A*04
$GPGGA,201139.000,3747.6852,N,12215.4710,W,1,05,4.9,34.4,M,-25.1,M,,0000*5F
$GPGSA,A,3,13,23,20,07,04,,,,,,,,7.3,4.9,5.4*38
$GPRMC,201139.000,A,3747.6852,N,12215.4710,W,1.30,136.35,300412,,,A*79
$GPVTG,136.35,T,,M,1.30,N,2.4,K,A*0B
$GPGGA,201140.000,3747.6847,N,12215.4694,W,1,05,4.9,33.2,M,-25.1,M,,0000*59
$GPGSA,A,3,13,23,20,07,04,,,,,,,,7.3,4.9,5.4*38
$GPGSV,3,1,12,20,67,191,23,23,63,333,23,16,47,107,28,32,47,151,26*7E
$GPGSV,3,2,12,30,42,067,,13,36,299,23,07,23,237,33,04,14,301,18*71
$GPGSV,3,3,12,31,09,049,,10,08,317,21,01,06,200,22,51,43,156,24*71
$GPRMC,201140.000,A,3747.6847,N,12215.4694,W,1.11,142.76,300412,,,A*79
$GPVTG,142.76,T,,M,1.11,N,2.1,K,A*09
$GPGGA,201141.000,3747.6844,N,12215.4689,W,1,05,4.9,32.9,M,-25.1,M,,0000*5D
$GPGSA,A,3,13,23,20,07,04,,,,,,,,7.3,4.9,5.4*38
$GPRMC,201141.000,A,3747.6844,N,12215.4689,W,0.93,127.63,300412,,,A*7B
$GPVTG,127.63,T,,M,0.93,N,1.7,K,A*00
$GPGGA,201142.000,3747.6843,N,12215.4678,W,1,05,4.9,31.1,M,-25.1,M,,0000*5C
$GPGSA,A,3,13,23,20,07,04,,,,,,,,7.3,4.9,5.4*38
$GPRMC,201142.000,A,3747.6843,N,12215.4678,W,1.32,114.28,300412,,,A*74
$GPVTG,114.28,T,,M,1.32,N,2.4,K,A*05
$GPGGA,201143.000,3747.6841,N,12215.4684,W,1,05,4.9,32.0,M,-25.1,M,,0000*5E
$GPGSA,A,3,13,23,20,07,04,,,,,,,,7.3,4.9,5.4*38
$GPRMC,201143.000,A,3747.6841,N,12215.4684,W,0.97,87.16,300412,,,A*4C
$GPVTG,87.16,T,,M,0.97,N,1.8,K,A*32
$GPGGA,201144.000,3747.6838,N,12215.4694,W,1,05,4.9,33.6,M,-25.1,M,,0000*51
$GPGSA,A,3,13,23,20,07,04,,,,,,,,7.3,4.9,5.4*38
$GPRMC,201144.000,A,3747.6838,N,12215.4694,W,0.59,106.13,300412,,,A*7B
$GPVTG,106.13,T,,M,0.59,N,1.1,K,A*04
$GPGGA,201145.000,3747.6839,N,12215.4694,W,1,05,4.9,34.7,M,-25.1,M,,0000*57
$GPGSA,A,3,13,23,20,07,04,,,,,,,,7.3,4.9,5.4*38
$GPGSV,3,1,12,20,67,191,25,23,63,333,13,16,47,107,31,32,47,151,27*72
$GPGSV,3,2,12,30,42,067,,13,36,299,23,07,23,237,21,04,14,301,20*79
$GPGSV,3,3,12,31,09,049,,10,08,317,19,01,06,200,19,51,43,156,32*75
$GPRMC,201145.000,A,3747.6839,N,12215.4694,W,0.97,84.50,300412,,,A*45
$GPGGA,201146.000,3747.6841,N,12215.4683,W,1,05,4.9,36.4,M,-25.1,M,,0000*5C
$GPGSA,A,3,13,23,20,07,04,,,,,,,,7.3,4.9,5.4*38
$GPRMC,201146.000,A,3747.6841,N,12215.4683,W,1.75,89.45,300412,,,A*4B
$GPVTG,89.45,T,,M,1.75,N,3.2,K,A*3F
$GPGGA,201147.000,3747.6844,N,12215.4670,W,1,05,4.9,36.3,M,-25.1,M,,0000*53
$GPGSA,A,3,13,23,20,07,04,,,,,,,,7.3,4.9,5.4*38
$GPRMC,201147.000,A,3747.6844,N,12215.4670,W,2.09,70.77,300412,,,A*4C
$GPVTG,70.77,T,,M,2.09,N,3.9,K,A*3B
$GPGGA,201148.000,3747.6846,N,12215.4672,W,1,05,4.9,36.2,M,-25.1,M,,0000*5D
$GPGSA,A,3,13,23,20,07,04,,,,,,,,7.3,4.9,5.4*38
$GPRMC,201148.000,A,3747.6846,N,12215.4672,W,2.06,48.97,300412,,,A*49
$GPVTG,48.97,T,,M,2.06,N,3.8,K,A*30
$GPGGA,201149.000,3747.6844,N,12215.4680,W,1,05,4.9,36.1,M,-25.1,M,,0000*50
$GPGSA,A,3,13,23,20,07,04,,,,,,,,7.3,4.9,5.4*38
$GPRMC,201149.000,A,3747.6844,N,12215.4680,W,1.05,94.52,300412,,,A*4F
$GPVTG,94.52,T,,M,1.05,N,2.0,K,A*31
$GPGGA,201150.000,3747.6842,N,12215.4681,W,1,05,4.9,34.8,M,-25.1,M,,0000*54
$GPGSA,A,3,13,23,20,07,04,,,,,,,,7.3,4.9,5.4*38
$GPGSV,3,1,12,20,67,191,25,23,63,333,24,16,47,107,24,32,47,151,27*72
$GPGSV,3,2,12,30,42,067,,13,36,299,24,07,23,237,36,04,14,301,20*78
$GPGSV,3,3,12,31,09,049,,10,08,317,18,01,06,200,25,51,43,156,30*79
$GPRMC,201150.000,A,3747.6842,N,12215.4681,W,1.76,119.26,300412,,,A*73
$GPVTG,119.26,T,,M,1.76,N,3.3,K,A*00
$GPGGA,201151.000,3747.6834,N,12215.4664,W,1,05,4.9,33.5,M,-25.1,M,,0000*55
$GPGSA,A,3,13,23,20,07,04,,,,,,,,7.3,4.9,5.4*38
$GPRMC,201151.000,A,3747.6834,N,12215.4664,W,3.50,115.79,300412,,,A*78
$GPVTG,115.79,T,,M,3.50,N,6.5,K,A*03
$GPGGA,201152.000,3747.6826,N,12215.4644,W,1,05,4.9,31.5,M,-25.1,M,,0000*55
$GPGSA,A,3,13,23,20,07,04,,,,,,,,7.3,4.9,5.4*38
$GPRMC,201152.000,A,3747.6826,N,12215.4644,W,3.43,120.29,300412,,,A*7B
$GPVTG,120.29,T,,M,3.43,N,6.4,K,A*03
$GPGGA,201153.000,3747.6820,N,12215.4643,W,1,05,4.9,30.9,M,-25.1,M,,0000*58
$GPGSA,A,3,13,23,20,07,04,,,,,,,,7.3,4.9,5.4*38
$GPRMC,201153.000,A,3747.6820,N,12215.4643,W,2.50,133.81,300412,,,A*78
$GPVTG,133.81,T,,M,2.50,N,4.6,K,A*00
$GPGGA,201154.000,3747.6814,N,12215.4634,W,1,05,4.9,29.3,M,-25.1,M,,0000*5A
$GPGSA,A,3,13,23,20,07,04,,,,,,,,7.3,4.9,5.4*38
$GPRMC,201154.000,A,3747.6814,N,12215.4634,W,2.84,134.39,300412,,,A*75
$GPVTG,134.39,T,,M,2.84,N,5.3,K,A*09
$GPGGA,201155.000,3747.6810,N,12215.4623,W,1,05,4.9,27.8,M,-25.1,M,,0000*5C
$GPGSA,A,3,13,23,20,07,04,,,,,,,,7.3,4.9,5.4*38
$GPGSV,3,1,12,20,67,191,26,23,63,333,25,16,47,107,25,32,47,151,27*71
$GPGSV,3,2,12,30,42,067,,13,36,299,31,07,23,237,36,04,14,301,26*7A
$GPGSV,3,3,12,31,09,049,,10,08,317,18,01,06,200,26,51,43,156,28*73
$GPRMC,201155.000,A,3747.6810,N,12215.4623,W,3.13,125.97,300412,,,A*7D
$GPVTG,125.97,T,,M,3.13,N,5.8,K,A*09
$GPGGA,201156.000,3747.6804,N,12215.4618,W,1,05,4.9,27.3,M,-25.1,M,,0000*59
$GPGSA,A,3,13,23,20,07,04,,,,,,,,7.3,4.9,5.4*38
$GPRMC,201156.000,A,3747.6804,N,12215.4618,W,2.70,134.39,300412,,,A*73
$GPVTG,134.39,T,,M,2.70,N,5.0,K,A*01
$GPGGA,201157.000,3747.6801,N,12215.4619,W,1,05,4.9,26.4,M,-25.1,M,,0000*5A
$GPGSA,A,3,13,23,20,07,04,,,,,,,,7.3,4.9,5.4*38
$GPRMC,201157.000,A,3747.6801,N,12215.4619,W,2.52,129.35,300412,,,A*76
$GPVTG,129.35,T,,M,2.52,N,4.7,K,A*07
$GPGGA,201158.000,3747.6797,N,12215.4622,W,1,05,4.9,25.4,M,-25.1,M,,0000*5E
$GPGSA,A,3,13,23,20,07,04,,,,,,,,7.3,4.9,5.4*38
$GPRMC,201158.000,A,3747.6797,N,12215.4622,W,2.54,128.57,300412,,,A*72
$GPVTG,128.57,T,,M,2.54,N,4.7,K,A*04
$GPGGA,201159.000,3747.6794,N,12215.4618,W,1,05,4.9,25.2,M,-25.1,M,,0000*53
$GPGSA,A,3,13,23,20,07,04,,,,,,,,7.3,4.9,5.4*38
$GPRMC,201159.000,A,3747.6794,N,12215.4618,W,2.72,118.65,300412,,,A*7F
$GPVTG,118.65,T,,M,2.72,N,5.0,K,A*04
$GPGGA,201200.000,3747.6787,N,12215.4612,W,1,05,4.9,24.5,M,-25.1,M,,0000*52
$GPGSA,A,3,13,23,20,07,04,,,,,,,,7.3,4.9,5.4*38
$GPGSV,3,1,11,20,67,191,27,23,63,333,25,16,47,107,25,32,47,151,27*73
$GPGSV,3,2,11,30,42,067,,13,36,299,31,07,23,237,35,04,14,301,26*7A
$GPGSV,3,3,11,31,09,049,,10,08,317,19,01,06,200,24*48
$GPRMC,201200.000,A,3747.6787,N,12215.4612,W,3.19,127.10,300412,,,A*7A
$GPGGA,201201.000,3747.6781,N,12215.4607,W,1,05,4.9,24.6,M,-25.1,M,,0000*52
$GPGSA,A,3,13,23,20,07,04,,,,,,,,7.3,4.9,5.4*38
$GPRMC,201201.000,A,3747.6781,N,12215.4607,W,3.10,129.16,300412,,,A*78
$GPVTG,129.16,T,,M,3.10,N,5.7,K,A*00
$GPGGA,201202.000,3747.6776,N,12215.4593,W,1,05,4.9,23.2,M,-25.1,M,,0000*54
$GPGSA,A,3,13,23,20,07,04,,,,,,,,7.3,4.9,5.4*38
$GPRMC,201202.000,A,3747.6776,N,12215.4593,W,3.36,121.20,300412,,,A*74
$GPVTG,121.20,T,,M,3.36,N,6.2,K,A*0F
$GPGGA,201203.000,3747.6770,N,12215.4583,W,1,05,4.9,21.8,M,-25.1,M,,0000*5A
$GPGSA,A,3,13,23,20,07,04,,,,,,,,7.3,4.9,5.4*38
$GPRMC,201203.000,A,3747.6770,N,12215.4583,W,3.19,120.26,300412,,,A*78
$GPVTG,120.26,T,,M,3.19,N,5.9,K,A*0D
$GPGGA,201204.000,3747.6765,N,12215.4568,W,1,05,4.9,19.1,M,-25.1,M,,0000*5E
$GPGSA,A,3,13,23,20,07,04,,,,,,,,7.3,4.9,5.4*38
$GPRMC,201204.000,A,3747.6765,N,12215.4568,W,3.28,117.45,300412,,,A*7D
$GPVTG,117.45,T,,M,3.28,N,6.1,K,A*05
$GPGGA,201205.000,3747.6762,N,12215.4557,W,1,05,4.9,17.8,M,-25.1,M,,0000*53
$GPGSA,A,3,13,23,20,07,04,,,,,,,,7.3,4.9,5.4*38
$GPGSV,3,1,11,20,67,191,32,23,63,333,25,16,47,107,31,32,47,151,32*76
$GPGSV,3,2,11,30,42,067,,13,36,299,30,07,23,237,36,04,14,301,26*78
$GPGSV,3,3,11,31,09,049,,10,08,317,18,01,06,200,25*48
$GPRMC,201205.000,A,3747.6762,N,12215.4557,W,3.14,110.71,300412,,,A*78
$GPVTG,110.71,T,,M,3.14,N,5.8,K,A*00
$GPGGA,201206.000,3747.6757,N,12215.4555,W,1,05,4.9,17.8,M,-25.1,M,,0000*54
$GPGSA,A,3,13,23,20,07,04,,,,,,,,7.3,4.9,5.4*38
$GPRMC,201206.000,A,3747.6757,N,12215.4555,W,2.81,123.55,300412,,,A*74
$GPVTG,123.55,T,,M,2.81,N,5.2,K,A*01
$GPGGA,201207.000,3747.6754,N,12215.4550,W,1,05,4.9,17.4,M,-25.1,M,,0000*5F
$GPGSA,A,3,13,23,20,07,04,,,,,,,,7.3,4.9,5.4*38
$GPRMC,201207.000,A,3747.6754,N,12215.4550,W,3.12,131.66,300412,,,A*7B
$GPVTG,131.66,T,,M,3.12,N,5.8,K,A*03
$GPGGA,201208.000,3747.6749,N,12215.4553,W,1,05,4.9,18.3,M,-25.1,M,,0000*57
$GPGSA,A,3,13,23,20,07,04,,,,,,,,7.3,4.9,5.4*38
$GPRMC,201208.000,A,3747.6749,N,12215.4553,W,2.90,131.94,300412,,,A*7D
$GPVTG,131.94,T,,M,2.90,N,5.4,K,A*09
$GPGGA,201209.000,3747.6746,N,12215.4535,W,1,05,4.9,16.8,M,-25.1,M,,0000*5C
$GPGSA,A,3,13,23,20,07,04,,,,,,,,7.3,4.9,5.4*38
$GPRMC,201209.000,A,3747.6746,N,12215.4535,W,2.73,122.62,300412,,,A*75
$GPVTG,122.62,T,,M,2.73,N,5.1,K,A*0A
$GPGGA,201210.000,3747.6744,N,12215.4517,W,1,05,4.9,16.0,M,-25.1,M,,0000*5E
$GPGSA,A,3,13,23,20,07,04,,,,,,,,7.3,4.9,5.4*38
$GPGSV,3,1,11,20,67,191,30,23,63,333,21,16,47,107,31,32,47,151,32*70
$GPGSV,3,2,11,30,42,067,,13,36,299,25,07,23,237,29,04,14,301,22*76
$GPGSV,3,3,11,31,09,049,,10,08,317,17,01,06,200,22*40
$GPRMC,201210.000,A,3747.6744,N,12215.4517,W,3.57,107.26,300412,,,A*7F
$GPVTG,107.26,T,,M,3.57,N,6.6,K,A*0E
$GPGGA,201211.000,3747.6739,N,12215.4515,W,1,05,4.9,16.9,M,-25.1,M,,0000*5E
$GPGSA,A,3,13,23,20,07,04,,,,,,,,7.3,4.9,5.4*38
$GPRMC,201211.000,A,3747.6739,N,12215.4515,W,3.41,115.11,300412,,,A*76
$GPVTG,115.11,T,,M,3.41,N,6.3,K,A*0B
$GPGGA,201212.000,3747.6732,N,12215.4507,W,1,05,4.9,15.9,M,-25.1,M,,0000*56
$GPGSA,A,3,13,23,20,07,04,,,,,,,,7.3,4.9,5.5*39
$GPRMC,201212.000,A,3747.6732,N,12215.4507,W,3.20,122.01,300412,,,A*7F
$GPVTG,122.01,T,,M,3.20,N,5.9,K,A*00
$GPGGA,201213.000,3747.6726,N,12215.4501,W,1,05,4.9,15.3,M,-25.1,M,,0000*5E
$GPGSA,A,3,13,23,20,07,04,,,,,,,,7.3,4.9,5.5*39
$GPRMC,201213.000,A,3747.6726,N,12215.4501,W,3.04,118.31,300412,,,A*71
$GPVTG,118.31,T,,M,3.04,N,5.6,K,A*03
$GPGGA,201214.000,3747.6716,N,12215.4511,W,1,05,4.9,17.2,M,-25.1,M,,0000*58
$GPGSA,A,3,13,23,20,07,04,,,,,,,,7.3,4.9,5.5*39
$GPRMC,201214.000,A,3747.6716,N,12215.4511,W,2.96,134.94,300412,,,A*7F
$GPVTG,134.94,T,,M,2.96,N,5.5,K,A*0B
$GPGGA,201215.000,3747.6710,N,12215.4503,W,1,05,4.9,17.7,M,-25.1,M,,0000*59
$GPGSA,A,3,13,23,20,07,04,,,,,,,,7.3,4.9,5.5*39
$GPGSV,3,1,11,20,67,191,29,23,63,333,23,16,47,107,26,32,47,151,29*76
$GPGSV,3,2,11,30,42,067,,13,36,299,34,07,23,237,32,04,14,301,23*7D
$GPGSV,3,3,11,31,09,049,,10,08,317,18,01,06,200,23*4E
$GPRMC,201215.000,A,3747.6710,N,12215.4503,W,2.97,122.34,300412,,,A*77
$GPGGA,201216.000,3747.6705,N,12215.4495,W,1,05,4.9,16.9,M,-25.1,M,,0000*5F
$GPGSA,A,3,13,23,20,07,04,,,,,,,,7.3,4.9,5.5*39
$GPRMC,201216.000,A,3747.6705,N,12215.4495,W,2.78,125.30,300412,,,A*7C
$GPVTG,125.30,T,,M,2.78,N,5.1,K,A*01
$GPGGA,201217.000,3747.6700,N,12215.4487,W,1,05,4.9,15.8,M,-25.1,M,,0000*5A
$GPGSA,A,3,13,23,20,07,04,,,,,,,,7.3,4.9,5.5*39
$GPRMC,201217.000,A,3747.6700,N,12215.4487,W,2.63,130.49,300412,,,A*7B
$GPVTG,130.49,T,,M,2.63,N,4.9,K,A*08
$GPGGA,201218.000,3747.6697,N,12215.4476,W,1,05,4.9,15.3,M,-25.1,M,,0000*5F
$GPGSA,A,3,13,23,20,07,04,,,,,,,,7.3,4.9,5.5*39
$GPRMC,201218.000,A,3747.6697,N,12215.4476,W,3.13,123.12,300412,,,A*7F
$GPVTG,123.12,T,,M,3.13,N,5.8,K,A*02
$GPGGA,201219.000,3747.6694,N,12215.4474,W,1,04,2.1,16.4,M,-25.1,M,,0000*54
$GPGSA,A,3,23,20,07,04,,,,,,,,,2.3,2.1,1.0*31
$GPRMC,201219.000,A,3747.6694,N,12215.4474,W,3.31,129.95,300412,,,A*7A
$GPVTG,129.95,T,,M,3.31,N,6.1,K,A*0D
$GPGGA,201220.000,3747.6688,N,12215.4470,W,1,04,5.0,16.0,M,-25.1,M,,0000*55
$GPGSA,A,3,13,20,07,04,,,,,,,,,7.4,5.0,5.5*37
$GPGSV,3,1,11,20,67,191,24,23,63,333,17,16,47,107,26,32,47,151,22*77
$GPGSV,3,2,11,30,42,067,,13,36,299,22,07,23,237,27,04,14,301,21*7C
$GPGSV,3,3,11,31,09,049,,10,08,317,19,01,06,200,20*4C
$GPRMC,201220.000,A,3747.6688,N,12215.4470,W,2.20,125.43,300412,,,A*7F
$GPVTG,125.43,T,,M,2.20,N,4.1,K,A*09
$GPGGA,201221.000,3747.6689,N,12215.4459,W,1,05,4.9,15.6,M,-25.1,M,,0000*52
$GPGSA,A,3,13,23,20,07,04,,,,,,,,7.3,4.9,5.5*39
$GPRMC,201221.000,A,3747.6689,N,12215.4459,W,2.20,92.30,300412,,,A*4D
$GPVTG,92.30,T,,M,2.20,N,4.1,K,A*30
$GPGGA,201222.000,3747.6687,N,12215.4455,W,1,05,4.9,15.6,M,-25.1,M,,0000*53
$GPGSA,A,3,13,23,20,07,04,,,,,,,,7.3,4.9,5.5*39
$GPRMC,201222.000,A,3747.6687,N,12215.4455,W,1.86,107.37,300412,,,A*79
$GPVTG,107.37,T,,M,1.86,N,3.4,K,A*07
$GPGGA,201223.000,3747.6685,N,12215.4444,W,1,05,4.9,14.4,M,-25.1,M,,0000*53
$GPGSA,A,3,13,23,20,07,04,,,,,,,,7.3,4.9,5.5*39
$GPRMC,201223.000,A,3747.6685,N,12215.4444,W,1.31,94.66,300412,,,A*49
$GPVTG,94.66,T,,M,1.31,N,2.4,K,A*35
$GPGGA,201224.000,3747.6685,N,12215.4461,W,1,04,5.0,16.6,M,-25.1,M,,0000*5A
$GPGSA,A,3,13,20,07,04,,,,,,,,,7.4,5.0,5.5*37
$GPRMC,201224.000,A,3747.6685,N,12215.4461,W,0.16,139.71,300412,,,A*7D
$GPVTG,139.71,T,,M,0.16,N,0.3,K,A*04
$GPGGA,201225.000,3747.6683,N,12215.4464,W,1,05,4.9,16.5,M,-25.1,M,,0000*52
$GPGSA,A,3,13,23,20,07,04,,,,,,,,7.3,4.9,5.5*39
$GPGSV,3,1,11,20,67,191,20,23,63,333,15,16,47,107,17,32,47,151,13*71
$GPGSV,3,2,11,30,42,067,,13,36,299,24,07,23,237,29,04,14,301,22*77
$GPGSV,3,3,11,31,09,049,,10,08,317,14,01,06,200,19*4B
$GPRMC,201225.000,A,3747.6683,N,12215.4464,W,0.20,355.17,300412,,,A*72
$GPVTG,355.17,T,,M,0.20,N,0.4,K,A*0E
$GPGGA,201226.000,3747.6681,N,12215.4446,W,1,05,4.9,14.7,M,-25.1,M,,0000*53
$GPGSA,A,3,13,23,20,07,04,,,,,,,,7.3,4.9,5.5*39
$GPRMC,201226.000,A,3747.6681,N,12215.4446,W,0.76,91.66,300412,,,A*4D
$GPVTG,91.66,T,,M,0.76,N,1.4,K,A*31
$GPGGA,201227.000,3747.6683,N,12215.4428,W,1,05,4.9,12.7,M,-25.1,M,,0000*5E
$GPGSA,A,3,13,23,20,07,04,,,,,,,,7.3,4.9,5.5*39
$GPRMC,201227.000,A,3747.6683,N,12215.4428,W,2.11,72.05,300412,,,A*4D
$GPVTG,72.05,T,,M,2.11,N,3.9,K,A*35
$GPGGA,201228.000,3747.6688,N,12215.4429,W,1,04,2.1,13.0,M,-25.1,M,,0000*52
$GPGSA,A,3,23,20,07,04,,,,,,,,,2.3,2.1,1.0*31
$GPRMC,201228.000,A,3747.6688,N,12215.4429,W,1.56,52.47,300412,,,A*4C
$GPVTG,52.47,T,,M,1.56,N,2.9,K,A*30
$GPGGA,201229.000,3747.6692,N,12215.4420,W,1,05,4.9,11.3,M,-25.1,M,,0000*5F
$GPGSA,A,3,13,23,20,07,04,,,,,,,,7.3,4.9,5.5*39
$GPRMC,201229.000,A,3747.6692,N,12215.4420,W,1.37,79.56,300412,,,A*41
$GPVTG,79.56,T,,M,1.37,N,2.5,K,A*32
$GPGGA,201230.000,3747.6692,N,12215.4388,W,1,05,4.9,6.8,M,-25.1,M,,0000*6F
$GPGSA,A,3,13,23,20,07,04,,,,,,,,7.3,4.9,5.5*39
$GPGSV,3,1,11,20,67,191,27,23,63,333,20,16,47,107,26,32,47,151,28*7A
$GPGSV,3,2,11,30,42,067,,13,36,299,19,07,23,237,32,04,14,301,20*71
$GPGSV,3,3,11,31,09,049,,10,08,317,17,01,06,200,22*40
$GPRMC,201230.000,A,3747.6692,N,12215.4388,W,2.26,96.81,300412,,,A*44
$GPVTG,96.81,T,,M,2.26,N,4.2,K,A*3B
$GPGGA,201231.000,3747.6686,N,12215.4406,W,1,05,4.9,9.7,M,-25.1,M,,0000*6A
$GPGSA,A,3,13,23,20,07,04,,,,,,,,7.3,4.9,5.5*39
$GPRMC,201231.000,A,3747.6686,N,12215.4406,W,2.22,103.35,300412,,,A*77
$GPVTG,103.35,T,,M,2.22,N,4.1,K,A*0E
$GPGGA,201232.000,3747.6680,N,12215.4406,W,1,05,4.9,10.3,M,-25.1,M,,0000*53
$GPGSA,A,3,13,23,20,07,04,,,,,,,,7.3,4.9,5.5*39
$GPRMC,201232.000,A,3747.6680,N,12215.4406,W,2.68,120.84,300412,,,A*77
$GPVTG,120.84,T,,M,2.68,N,5.0,K,A*0B
$GPGGA,201233.000,3747.6677,N,12215.4389,W,1,05,4.9,8.5,M,-25.1,M,,0000*65
$GPGSA,A,3,13,23,20,07,04,,,,,,,,7.3,4.9,5.5*39
$GPRMC,201233.000,A,3747.6677,N,12215.4389,W,3.11,120.51,300412,,,A*79
$GPVTG,120.51,T,,M,3.11,N,5.8,K,A*04
$GPGGA,201234.000,3747.6673,N,12215.4366,W,1,05,4.9,5.7,M,-25.1,M,,0000*68
$GPGSA,A,3,13,23,20,07,04,,,,,,,,7.3,4.9,5.5*39
$GPRMC,201234.000,A,3747.6673,N,12215.4366,W,3.15,117.81,300412,,,A*76
$GPVTG,117.81,T,,M,3.15,N,5.8,K,A*09
$GPGGA,201235.000,3747.6670,N,12215.4357,W,1,04,2.1,4.3,M,-25.1,M,,0000*62
$GPGSA,A,3,23,20,07,04,,,,,,,,,2.3,2.1,1.0*31
$GPGSV,3,1,11,20,67,191,28,23,63,333,21,16,47,107,27,32,47,151,29*74
$GPGSV,3,2,11,30,42,067,,13,36,299,,07,23,237,33,04,14,301,20*78
$GPGSV,3,3,11,31,09,049,,10,08,317,18,01,06,200,27*4A
$GPRMC,201235.000,A,3747.6670,N,12215.4357,W,2.94,105.71,300412,,,A*72
$GPVTG,105.71,T,,M,2.94,N,5.4,K,A*01
$GPGGA,201236.000,3747.6665,N,12215.4346,W,1,05,4.9,2.8,M,-25.1,M,,0000*67
$GPGSA,A,3,13,23,20,07,04,,,,,,,,7.3,4.9,5.5*39
$GPRMC,201236.000,A,3747.6665,N,12215.4346,W,2.90,113.60,300412,,,A*76
$GPVTG,113.60,T,,M,2.90,N,5.4,K,A*02
$GPGGA,201237.000,3747.6654,N,12215.4340,W,1,05,4.9,3.2,M,-25.1,M,,0000*69
$GPGSA,A,3,13,23,20,07,04,,,,,,,,7.3,4.9,5.5*39
$GPRMC,201237.000,A,3747.6654,N,12215.4340,W,3.05,128.62,300412,,,A*74
$GPVTG,128.62,T,,M,3.05,N,5.7,K,A*06
$GPGGA,201238.000,3747.6646,N,12215.4331,W,1,05,4.9,3.2,M,-25.1,M,,0000*63
$GPGSA,A,3,13,23,20,07,04,,,,,,,,7.3,4.9,5.5*39
$GPRMC,201238.000,A,3747.6646,N,12215.4331,W,3.05,126.35,300412,,,A*72
$GPVTG,126.35,T,,M,3.05,N,5.6,K,A*0B
$GPGGA,201239.000,3747.6641,N,12215.4328,W,1,05,4.9,4.2,M,-25.1,M,,0000*6A
$GPGSA,A,3,13,23,20,07,04,,,,,,,,7.3,4.9,5.5*39
$GPRMC,201239.000,A,3747.6641,N,12215.4328,W,2.33,112.45,300412,,,A*78
$GPVTG,112.45,T,,M,2.33,N,4.3,K,A*0B
$GPGGA,201240.000,3747.6639,N,12215.4328,W,1,05,4.9,5.3,M,-25.1,M,,0000*6B
$GPGSA,A,3,13,23,20,07,04,,,,,,,,7.3,4.9,5.5*39
$GPGSV,3,1,11,20,67,191,28,23,63,333,23,16,47,107,25,32,47,151,23*7E
$GPGSV,3,2,11,30,42,067,,13,36,299,29,07,23,237,33,04,14,301,25*76
$GPGSV,3,3,11,31,09,049,,10,08,317,26,01,06,200,30*41
$GPRMC,201240.000,A,3747.6639,N,12215.4328,W,2.75,114.36,300412,,,A*79
$GPVTG,114.36,T,,M,2.75,N,5.1,K,A*08
$GPGGA,201241.000,3747.6636,N,12215.4315,W,1,05,4.9,5.1,M,-25.1,M,,0000*69
$GPGSA,A,3,13,23,20,07,04,,,,,,,,7.3,4.9,5.5*39
$GPRMC,201241.000,A,3747.6636,N,12215.4315,W,3.01,121.82,300412,,,A*72
$GPVTG,121.82,T,,M,3.01,N,5.6,K,A*04
$GPGGA,201242.000,3747.6631,N,12215.4317,W,1,05,4.9,6.5,M,-25.1,M,,0000*68
$GPGSA,A,3,13,23,20,07,04,,,,,,,,7.3,4.9,5.5*39
$GPRMC,201242.000,A,3747.6631,N,12215.4317,W,2.74,125.97,300412,,,A*77
$GPVTG,125.97,T,,M,2.74,N,5.1,K,A*00
$GPGGA,201243.000,3747.6626,N,12215.4318,W,1,05,4.9,7.1,M,-25.1,M,,0000*65
$GPGSA,A,3,13,23,20,07,04,,,,,,,,7.3,4.9,5.5*39
$GPRMC,201243.000,A,3747.6626,N,12215.4318,W,2.92,129.06,300412,,,A*73
$GPVTG,129.06,T,,M,2.92,N,5.4,K,A*09
$GPGGA,201244.000,3747.6618,N,12215.4319,W,1,05,4.9,8.1,M,-25.1,M,,0000*61
$GPGSA,A,3,13,23,20,07,04,,,,,,,,7.3,4.9,5.5*39
$GPRMC,201244.000,A,3747.6618,N,12215.4319,W,2.91,124.69,300412,,,A*7F
$GPVTG,124.69,T,,M,2.91,N,5.4,K,A*0E
$GPGGA,201245.000,3747.6612,N,12215.4329,W,1,05,4.9,10.2,M,-25.1,M,,0000*53
$GPGSA,A,3,13,23,20,07,04,,,,,,,,7.3,4.9,5.5*39
$GPGSV,3,1,11,20,67,191,28,23,63,333,25,16,47,107,25,32,47,151,28*73
$GPGSV,3,2,11,30,42,067,,13,36,299,30,07,23,237,27,04,14,301,28*76
$GPGSV,3,3,11,31,09,049,,10,08,317,24,01,06,200,25*47
$GPRMC,201245.000,A,3747.6612,N,12215.4329,W,2.78,138.68,300412,,,A*7C
$GPVTG,138.68,T,,M,2.78,N,5.1,K,A*00
$GPGGA,201246.000,3747.6609,N,12215.4313,W,1,05,4.9,9.9,M,-25.1,M,,0000*60
$GPGSA,A,3,13,23,20,07,04,,,,,,,,7.3,4.9,5.5*39
$GPRMC,201246.000,A,3747.6609,N,12215.4313,W,3.03,137.07,300412,,,A*77
$GPVTG,137.07,T,,M,3.03,N,5.6,K,A*0C
$GPGGA,201247.000,3747.6605,N,12215.4320,W,1,05,4.9,10.4,M,-25.1,M,,0000*58
$GPGSA,A,3,13,23,20,07,04,,,,,,,,7.3,4.9,5.5*39
$GPRMC,201247.000,A,3747.6605,N,12215.4320,W,1.33,106.65,300412,,,A*7D
$GPVTG,106.65,T,,M,1.33,N,2.5,K,A*0F
$GPGGA,201248.000,3747.6595,N,12215.4328,W,1,05,4.9,12.0,M,-25.1,M,,0000*53
$GPGSA,A,3,13,23,20,07,04,,,,,,,,7.3,4.9,5.5*39
$GPRMC,201248.000,A,3747.6595,N,12215.4328,W,2.21,145.24,300412,,,A*72
$GPVTG,145.24,T,,M,2.21,N,4.1,K,A*0F
$GPGGA,201249.000,3747.6595,N,12215.4324,W,1,05,4.9,13.3,M,-25.1,M,,0000*5C
$GPGSA,A,3,13,23,20,07,04,,,,,,,,7.3,4.9,5.5*39
$GPRMC,201249.000,A,3747.6595,N,12215.4324,W,2.77,124.91,300412,,,A*75
$GPVTG,124.91,T,,M,2.77,N,5.1,K,A*04
$GPGGA,201250.000,3747.6585,N,12215.4326,W,1,05,4.9,13.1,M,-25.1,M,,0000*55
$GPGSA,A,3,13,23,20,07,04,,,,,,,,7.3,4.9,5.5*39
$GPGSV,3,1,11,20,67,191,22,23,63,333,23,16,47,107,25,32,47,151,28*7F
$GPGSV,3,2,11,30,42,067,,13,36,299,30,07,23,237,31,04,14,301,27*7E
$GPGSV,3,3,11,31,09,049,,10,08,317,25,01,06,200,21*42
$GPRMC,201250.000,A,3747.6585,N,12215.4326,W,2.62,159.77,300412,,,A*78
$GPVTG,159.77,T,,M,2.62,N,4.8,K,A*0A
$GPGGA,201251.000,3747.6579,N,12215.4324,W,1,05,4.9,14.0,M,-25.1,M,,0000*53
$GPGSA,A,3,13,23,20,07,04,,,,,,,,7.3,4.9,5.5*39
$GPRMC,201251.000,A,3747.6579,N,12215.4324,W,2.21,146.12,300412,,,A*72
$GPVTG,146.12,T,,M,2.21,N,4.1,K,A*09
$GPGGA,201252.000,3747.6570,N,12215.4327,W,1,05,4.9,15.4,M,-25.1,M,,0000*5F
$GPGSA,A,3,13,23,20,07,04,,,,,,,,7.3,4.9,5.5*39
$GPRMC,201252.000,A,3747.6570,N,12215.4327,W,3.05,142.57,300412,,,A*79
$GPVTG,142.57,T,,M,3.05,N,5.6,K,A*0D
$GPGGA,201253.000,3747.6565,N,12215.4316,W,1,05,4.9,16.1,M,-25.1,M,,0000*5E
$GPGSA,A,3,13,23,20,07,04,,,,,,,,7.3,4.9,5.5*39
$GPRMC,201253.000,A,3747.6565,N,12215.4316,W,3.70,138.94,300412,,,A*7E
$GPVTG,138.94,T,,M,3.70,N,6.8,K,A*00
$GPGGA,201254.000,3747.6555,N,12215.4310,W,1,05,4.9,16.2,M,-25.1,M,,0000*5F
$GPGSA,A,3,13,23,20,07,04,,,,,,,,7.3,4.9,5.5*39
$GPRMC,201254.000,A,3747.6555,N,12215.4310,W,3.04,159.44,300412,,,A*75
$GPVTG,159.44,T,,M,3.04,N,5.6,K,A*04
$GPGGA,201255.000,3747.6549,N,12215.4311,W,1,05,4.9,15.7,M,-25.1,M,,0000*54
$GPGSA,A,3,13,23,20,07,04,,,,,,,,7.3,4.9,5.5*39
$GPGSV,3,1,11,20,67,191,27,23,63,333,25,16,47,107,25,32,47,151,28*7C
$GPGSV,3,2,11,30,42,067,,13,36,299,30,07,23,237,30,04,14,301,28*70
$GPGSV,3,3,11,31,09,049,,10,08,317,25,01,06,200,21*42
$GPRMC,201255.000,A,3747.6549,N,12215.4311,W,2.03,163.93,300412,,,A*7D
$GPVTG,163.93,T,,M,2.03,N,3.8,K,A*09
$GPGGA,201256.000,3747.6546,N,12215.4306,W,1,05,4.9,15.9,M,-25.1,M,,0000*50
$GPGSA,A,3,13,23,20,07,04,,,,,,,,7.3,4.9,5.5*39
$GPRMC,201256.000,A,3747.6546,N,12215.4306,W,2.11,154.71,300412,,,A*7C
$GPVTG,154.71,T,,M,2.11,N,3.9,K,A*03
$GPGGA,201257.000,3747.6545,N,12215.4300,W,1,05,4.9,15.8,M,-25.1,M,,0000*55
$GPGSA,A,3,13,23,20,07,04,,,,,,,,7.3,4.9,5.5*39
$GPRMC,201257.000,A,3747.6545,N,12215.4300,W,2.29,165.26,300412,,,A*73
$GPVTG,165.26,T,,M,2.29,N,4.2,K,A*04
$GPGGA,201258.000,3747.6541,N,12215.4296,W,1,04,2.1,16.3,M,-25.1,M,,0000*57
$GPGSA,A,3,23,20,07,04,,,,,,,,,2.3,2.1,1.0*31
$GPRMC,201258.000,A,3747.6541,N,12215.4296,W,1.65,133.82,300412,,,A*70
$GPVTG,133.82,T,,M,1.65,N,3.1,K,A*06
$GPGGA,201259.000,3747.6537,N,12215.4288,W,1,05,4.9,16.8,M,-25.1,M,,0000*5C
$GPGSA,A,3,13,23,20,07,04,,,,,,,,7.3,4.9,5.5*39
$GPRMC,201259.000,A,3747.6537,N,12215.4288,W,2.20,132.99,300412,,,A*76
$GPVTG,132.99,T,,M,2.20,N,4.1,K,A*08
$GPGGA,201300.000,3747.6536,N,12215.4273,W,1,05,4.8,15.6,M,-25.1,M,,0000*58
$GPGSA,A,3,13,23,20,07,04,,,,,,,,7.3,4.8,5.5*38
$GPGSV,3,1,11,20,67,191,28,23,63,333,26,16,47,107,24,32,47,151,28*71
$GPGSV,3,2,11,30,42,067,,13,36,299,30,07,23,237,33,04,14,301,27*7C
$GPGSV,3,3,11,31,09,049,,10,08,317,23,01,06,200,21*44
$GPRMC,201300.000,A,3747.6536,N,12215.4273,W,2.09,133.64,300412,,,A*76
$GPVTG,133.64,T,,M,2.09,N,3.9,K,A*0F
$GPGGA,201301.000,3747.6531,N,12215.4269,W,1,05,4.8,16.3,M,-25.1,M,,0000*53
$GPGSA,A,3,13,23,20,07,04,,,,,,,,7.3,4.8,5.5*38
$GPRMC,201301.000,A,3747.6531,N,12215.4269,W,2.56,140.70,300412,,,A*70
$GPVTG,140.70,T,,M,2.56,N,4.7,K,A*0D
$GPGGA,201302.000,3747.6527,N,12215.4264,W,1,05,4.8,16.6,M,-25.1,M,,0000*5F
$GPGSA,A,3,13,23,20,07,04,,,,,,,,7.3,4.8,5.5*38
$GPRMC,201302.000,A,3747.6527,N,12215.4264,W,2.28,148.06,300412,,,A*79
$GPVTG,148.06,T,,M,2.28,N,4.2,K,A*08
$GPGGA,201303.000,3747.6517,N,12215.4267,W,1,05,4.8,16.7,M,-25.1,M,,0000*5F
$GPGSA,A,3,13,23,20,07,04,,,,,,,,7.3,4.8,5.5*38
$GPRMC,201303.000,A,3747.6517,N,12215.4267,W,2.50,154.98,300412,,,A*7D
$GPVTG,154.98,T,,M,2.50,N,4.6,K,A*09
$GPGGA,201304.000,3747.6511,N,12215.4260,W,1,05,4.8,16.0,M,-25.1,M,,0000*5E
$GPGSA,A,3,13,23,20,07,04,,,,,,,,7.3,4.8,5.5*38
$GPRMC,201304.000,A,3747.6511,N,12215.4260,W,2.06,150.98,300412,,,A*7C
$GPVTG,150.98,T,,M,2.06,N,3.8,K,A*07
$GPGGA,201305.000,3747.6505,N,12215.4260,W,1,05,4.8,16.0,M,-25.1,M,,0000*5A
$GPGSA,A,3,13,23,20,07,04,,,,,,,,7.3,4.8,5.5*38
$GPGSV,3,1,11,20,67,191,28,23,63,333,26,16,47,107,18,32,47,151,28*7E
$GPGSV,3,2,11,30,42,067,,13,36,299,32,07,23,237,26,04,14,301,30*7C
$GPGSV,3,3,11,31,09,049,,10,08,317,27,01,06,200,22*43
$GPRMC,201305.000,A,3747.6505,N,12215.4260,W,2.50,144.28,300412,,,A*75
$GPVTG,144.28,T,,M,2.50,N,4.6,K,A*03
$GPGGA,201306.000,3747.6500,N,12215.4252,W,1,05,4.8,16.2,M,-25.1,M,,0000*5F
$GPGSA,A,3,13,23,20,07,04,,,,,,,,7.3,4.8,5.5*38
$GPRMC,201306.000,A,3747.6500,N,12215.4252,W,2.73,126.06,300412,,,A*7B
$GPVTG,126.06,T,,M,2.73,N,5.0,K,A*0D
$GPGGA,201307.000,3747.6495,N,12215.4244,W,1,05,4.8,16.2,M,-25.1,M,,0000*54
$GPGSA,A,3,13,23,20,07,04,,,,,,,,7.3,4.8,5.5*38
$GPRMC,201307.000,A,3747.6495,N,12215.4244,W,2.85,114.54,300412,,,A*7F
$GPVTG,114.54,T,,M,2.85,N,5.3,K,A*01
$GPGGA,201308.000,3747.6494,N,12215.4229,W,1,05,4.8,15.5,M,-25.1,M,,0000*55
$GPGSA,A,3,13,23,20,07,04,,,,,,,,7.3,4.8,5.5*38
$GPRMC,201308.000,A,3747.6494,N,12215.4229,W,2.64,119.54,300412,,,A*78
$GPVTG,119.54,T,,M,2.64,N,4.9,K,A*08
$GPGGA,201309.000,3747.6491,N,12215.4213,W,1,05,4.8,15.0,M,-25.1,M,,0000*5D
$GPGSA,A,3,13,23,20,07,04,,,,,,,,7.3,4.8,5.5*38
$GPRMC,201309.000,A,3747.6491,N,12215.4213,W,3.17,113.02,300412,,,A*79
$GPVTG,113.02,T,,M,3.17,N,5.9,K,A*05
$GPGGA,201310.000,3747.6490,N,12215.4204,W,1,05,4.8,15.1,M,-25.1,M,,0000*53
$GPGSA,A,3,13,23,20,07,04,,,,,,,,7.3,4.8,5.5*38
$GPGSV,3,1,11,20,67,191,28,23,63,333,25,16,47,107,20,32,47,151,28*76
$GPGSV,3,2,11,30,42,067,,13,36,299,27,07,23,237,25,04,14,301,25*7F
$GPGSV,3,3,11,31,09,049,,10,08,317,32,01,06,200,20*45
$GPRMC,201310.000,A,3747.6490,N,12215.4204,W,2.44,120.56,300412,,,A*70
$GPVTG,120.56,T,,M,2.44,N,4.5,K,A*0E
$GPGGA,201311.000,3747.6486,N,12215.4206,W,1,05,4.8,15.4,M,-25.1,M,,0000*52
$GPGSA,A,3,13,23,20,07,04,,,,,,,,7.3,4.8,5.5*38
$GPRMC,201311.000,A,3747.6486,N,12215.4206,W,2.08,126.44,300412,,,A*79
$GPVTG,126.44,T,,M,2.08,N,3.9,K,A*08
$GPGGA,201312.000,3747.6484,N,12215.4202,W,1,05,4.8,16.4,M,-25.1,M,,0000*54
$GPGSA,A,3,13,23,20,07,04,,,,,,,,7.3,4.8,5.5*38
$GPRMC,201312.000,A,3747.6484,N,12215.4202,W,2.00,123.59,300412,,,A*7D
$GPVTG,123.59,T,,M,2.00,N,3.7,K,A*07
$GPGGA,201313.000,3747.6477,N,12215.4203,W,1,05,4.8,17.3,M,-25.1,M,,0000*5E
$GPGSA,A,3,13,23,20,07,04,,,,,,,,7.3,4.8,5.5*38
$GPRMC,201313.000,A,3747.6477,N,12215.4203,W,1.89,136.41,300412,,,A*7E
$GPVTG,136.41,T,,M,1.89,N,3.5,K,A*0A
$GPGGA,201314.000,3747.6472,N,12215.4205,W,1,05,4.8,18.2,M,-25.1,M,,0000*54
$GPGSA,A,3,13,23,20,07,04,,,,,,,,7.3,4.8,5.5*38
$GPRMC,201314.000,A,3747.6472,N,12215.4205,W,1.81,124.94,300412,,,A*79
$GPVTG,124.94,T,,M,1.81,N,3.3,K,A*0F
$GPGGA,201315.000,3747.6468,N,12215.4204,W,1,05,4.8,18.1,M,-25.1,M,,0000*5C
$GPGSA,A,3,13,23,20,07,04,,,,,,,,7.3,4.8,5.5*38
$GPGSV,3,1,11,20,67,191,28,23,63,333,25,16,47,107,24,32,47,151,27*7D
$GPGSV,3,2,11,30,42,067,,13,36,299,29,07,23,237,34,04,14,301,29*7D
$GPGSV,3,3,11,31,09,049,,10,08,317,31,01,06,200,17*42
$GPRMC,201315.000,A,3747.6468,N,12215.4204,W,1.78,135.08,300412,,,A*71
$GPGGA,201316.000,3747.6466,N,12215.4192,W,1,05,4.8,17.1,M,-25.1,M,,0000*52
$GPGSA,A,3,13,23,20,07,04,,,,,,,,7.3,4.8,5.5*38
$GPRMC,201316.000,A,3747.6466,N,12215.4192,W,2.27,138.55,300412,,,A*7C
$GPVTG,138.55,T,,M,2.27,N,4.2,K,A*06
$GPGGA,201317.000,3747.6462,N,12215.4183,W,1,05,4.8,16.2,M,-25.1,M,,0000*55
$GPGSA,A,3,13,23,20,07,04,,,,,,,,7.3,4.8,5.5*38
$GPRMC,201317.000,A,3747.6462,N,12215.4183,W,2.14,128.21,300412,,,A*7B
$GPVTG,128.21,T,,M,2.14,N,4.0,K,A*06
$GPGGA,201318.000,3747.6460,N,12215.4163,W,1,05,4.8,15.6,M,-25.1,M,,0000*51
$GPGSA,A,3,13,23,20,07,04,,,,,,,,7.3,4.8,5.5*38
$GPRMC,201318.000,A,3747.6460,N,12215.4163,W,2.27,127.20,300412,,,A*76
$GPVTG,127.20,T,,M,2.27,N,4.2,K,A*0A
$GPGGA,201319.000,3747.6463,N,12215.4152,W,1,05,4.8,15.7,M,-25.1,M,,0000*50
$GPGSA,A,3,13,23,20,07,04,,,,,,,,7.3,4.8,5.5*38
$GPRMC,201319.000,A,3747.6463,N,12215.4152,W,1.96,110.55,300412,,,A*79
$GPVTG,110.55,T,,M,1.96,N,3.6,K,A*06
$GPGGA,201320.000,3747.6466,N,12215.4150,W,1,05,4.8,17.4,M,-25.1,M,,0000*5C
$GPGSA,A,3,13,23,20,07,04,,,,,,,,7.3,4.8,5.5*38
$GPGSV,3,1,11,20,67,191,27,23,63,333,25,16,47,107,24,32,47,151,27*72
$GPGSV,3,2,11,30,42,067,,13,36,299,30,07,23,237,25,04,14,301,29*75
$GPGSV,3,3,11,31,09,049,,10,08,317,30,01,06,200,16*42
$GPRMC,201320.000,A,3747.6466,N,12215.4150,W,1.83,106.53,300412,,,A*71
$GPVTG,106.53,T,,M,1.83,N,3.4,K,A*01
$GPGGA,201321.000,3747.6463,N,12215.4150,W,1,05,4.8,18.0,M,-25.1,M,,0000*53
$GPGSA,A,3,13,23,20,07,04,,,,,,,,7.3,4.8,5.5*38
$GPRMC,201321.000,A,3747.6463,N,12215.4150,W,2.30,124.36,300412,,,A*7D
$GPVTG,124.36,T,,M,2.30,N,4.3,K,A*09
$GPGGA,201322.000,3747.6459,N,12215.4159,W,1,05,4.8,19.6,M,-25.1,M,,0000*57
$GPGSA,A,3,13,23,20,07,04,,,,,,,,7.3,4.8,5.5*38
$GPRMC,201322.000,A,3747.6459,N,12215.4159,W,1.62,149.87,300412,,,A*7B
$GPVTG,149.87,T,,M,1.62,N,3.0,K,A*08
$GPGGA,201323.000,3747.6454,N,12215.4159,W,1,05,4.8,19.5,M,-25.1,M,,0000*58
$GPGSA,A,3,13,23,20,07,04,,,,,,,,7.3,4.8,5.5*38
$GPRMC,201323.000,A,3747.6454,N,12215.4159,W,1.57,155.49,300412,,,A*7E
$GPVTG,155.49,T,,M,1.57,N,2.9,K,A*09
$GPGGA,201324.000,3747.6449,N,12215.4148,W,1,05,4.8,18.1,M,-25.1,M,,0000*56
$GPGSA,A,3,13,23,20,07,04,,,,,,,,7.3,4.8,5.5*38
$GPRMC,201324.000,A,3747.6449,N,12215.4148,W,0.66,100.03,300412,,,A*78
$GPVTG,100.03,T,,M,0.66,N,1.2,K,A*0C
$GPGGA,201325.000,3747.6447,N,12215.4132,W,1,05,4.8,15.6,M,-25.1,M,,0000*5E
$GPGSA,A,3,13,23,20,07,04,,,,,,,,7.3,4.8,5.5*38
$GPGSV,3,1,11,20,67,191,27,23,63,333,33,16,47,107,24,32,47,151,22*70
$GPGSV,3,2,11,30,42,067,,13,36,299,30,07,23,237,34,04,14,301,29*75
$GPGSV,3,3,11,31,09,049,,10,08,317,29,01,06,200,21*4E
$GPRMC,201325.000,A,3747.6447,N,12215.4132,W,0.62,130.12,300412,,,A*7D
$GPVTG,130.12,T,,M,0.62,N,1.2,K,A*0B
$GPGGA,201326.000,3747.6446,N,12215.4132,W,1,05,4.8,16.2,M,-25.1,M,,0000*5B
$GPGSA,A,3,13,23,20,07,04,,,,,,,,7.3,4.8,5.5*38
$GPRMC,201326.000,A,3747.6446,N,12215.4132,W,0.97,126.93,300412,,,A*7B
$GPVTG,126.93,T,,M,0.97,N,1.8,K,A*05
$GPGGA,201327.000,3747.6442,N,12215.4137,W,1,05,4.8,17.2,M,-25.1,M,,0000*5A
$GPGSA,A,3,13,23,20,07,04,,,,,,,,7.3,4.8,5.5*38
$GPRMC,201327.000,A,3747.6442,N,12215.4137,W,1.35,116.71,300412,,,A*7D
$GPVTG,116.71,T,,M,1.35,N,2.5,K,A*0D
$GPGGA,201328.000,3747.6436,N,12215.4137,W,1,05,4.8,16.7,M,-25.1,M,,0000*52
$GPGSA,A,3,13,23,20,07,04,,,,,,,,7.3,4.8,5.5*38
$GPRMC,201328.000,A,3747.6436,N,12215.4137,W,1.12,124.96,300412,,,A*7C
$GPVTG,124.96,T,,M,1.12,N,2.1,K,A*04
$GPGGA,201329.000,3747.6432,N,12215.4129,W,1,05,4.8,15.2,M,-25.1,M,,0000*5E
$GPGSA,A,3,13,23,20,07,04,,,,,,,,7.3,4.8,5.5*38
$GPRMC,201329.000,A,3747.6432,N,12215.4129,W,1.35,126.96,300412,,,A*71
$GPVTG,126.96,T,,M,1.35,N,2.5,K,A*07
$GPGGA,201330.000,3747.6425,N,12215.4126,W,1,05,4.8,13.9,M,-25.1,M,,0000*52
$GPGSA,A,3,13,23,20,07,04,,,,,,,,7.3,4.8,5.5*38
$GPGSV,3,1,11,20,67,191,27,23,63,333,23,16,47,107,22,32,47,151,26*73
$GPGSV,3,2,11,30,42,067,,13,36,299,26,07,23,237,33,04,14,301,27*7B
$GPGSV,3,3,11,31,09,049,,10,08,317,16,01,06,200,17*47
$GPRMC,201330.000,A,3747.6425,N,12215.4126,W,1.35,144.76,300412,,,A*7A
$GPGGA,201331.000,3747.6414,N,12215.4115,W,1,05,4.8,11.5,M,-25.1,M,,0000*5F
$GPGSA,A,3,13,23,20,07,04,,,,,,,,7.3,4.8,5.5*38
$GPRMC,201331.000,A,3747.6414,N,12215.4115,W,1.96,148.11,300412,,,A*7D
$GPVTG,148.11,T,,M,1.96,N,3.6,K,A*0B
$GPGGA,201332.000,3747.6407,N,12215.4100,W,1,05,4.8,9.9,M,-25.1,M,,0000*6F
$GPGSA,A,3,13,23,20,07,04,,,,,,,,7.3,4.8,5.5*38
$GPRMC,201332.000,A,3747.6407,N,12215.4100,W,2.39,131.49,300412,,,A*7D
$GPVTG,131.49,T,,M,2.39,N,4.4,K,A*0B
$GPGGA,201333.000,3747.6405,N,12215.4110,W,1,05,4.8,11.2,M,-25.1,M,,0000*5F
$GPGSA,A,3,13,23,20,07,04,,,,,,,,7.3,4.8,5.5*38
$GPRMC,201333.000,A,3747.6405,N,12215.4110,W,1.91,126.52,300412,,,A*72
$GPVTG,126.52,T,,M,1.91,N,3.5,K,A*00
$GPGGA,201334.000,3747.6403,N,12215.4110,W,1,05,4.8,11.5,M,-25.1,M,,0000*59
$GPGSA,A,3,13,23,20,07,04,,,,,,,,7.3,4.8,5.5*38
$GPRMC,201334.000,A,3747.6403,N,12215.4110,W,2.29,123.81,300412,,,A*78
$GPVTG,123.81,T,,M,2.29,N,4.2,K,A*0B
$GPGGA,201335.000,3747.6401,N,12215.4128,W,1,05,4.8,14.4,M,-25.1,M,,0000*55
$GPGSA,A,3,13,23,20,07,04,,,,,,,,7.3,4.8,5.5*38
$GPGSV,3,1,11,20,67,191,19,23,63,333,29,16,47,107,19,32,47,151,26*7C
$GPGSV,3,2,11,30,42,067,,13,36,299,22,07,23,237,26,04,14,301,20*7C
$GPGSV,3,3,11,31,09,049,,10,08,317,20,01,06,200,*44
$GPRMC,201335.000,A,3747.6401,N,12215.4128,W,1.30,122.53,300412,,,A*75
$GPVTG,122.53,T,,M,1.30,N,2.4,K,A*0E
$GPGGA,201336.000,3747.6398,N,12215.4152,W,1,05,4.8,18.3,M,-25.1,M,,0000*57
$GPGSA,A,3,13,23,20,07,04,,,,,,,,7.3,4.8,5.5*38
$GPRMC,201336.000,A,3747.6398,N,12215.4152,W,0.43,83.09,300412,,,A*4C
$GPVTG,83.09,T,,M,0.43,N,0.8,K,A*30
$GPGGA,201337.000,3747.6401,N,12215.4166,W,1,05,4.8,19.9,M,-25.1,M,,0000*5D
$GPGSA,A,3,13,23,20,07,04,,,,,,,,7.3,4.8,5.5*38
$GPRMC,201337.000,A,3747.6401,N,12215.4166,W,0.89,313.31,300412,,,A*7A
$GPVTG,313.31,T,,M,0.89,N,1.6,K,A*08
$GPGGA,201338.000,3747.6405,N,12215.4185,W,1,05,4.8,23.0,M,-25.1,M,,0000*5B
$GPGSA,A,3,13,23,20,07,04,,,,,,,,7.3,4.8,5.5*38
$GPRMC,201338.000,A,3747.6405,N,12215.4185,W,0.89,347.49,300412,,,A*72
$GPVTG,347.49,T,,M,0.89,N,1.7,K,A*07
$GPGGA,201339.000,3747.6405,N,12215.4173,W,1,05,4.8,21.4,M,-25.1,M,,0000*55
$GPGSA,A,3,13,23,20,07,04,,,,,,,,7.3,4.8,5.5*38
$GPRMC,201339.000,A,3747.6405,N,12215.4173,W,0.43,354.75,300412,,,A*71
$GPVTG,354.75,T,,M,0.43,N,0.8,K,A*02
$GPGGA,201340.000,3747.6403,N,12215.4183,W,1,05,4.8,21.6,M,-25.1,M,,0000*50
$GPGSA,A,3,13,23,20,07,04,,,,,,,,7.3,4.8,5.5*38
$GPGSV,3,1,11,20,67,191,30,23,63,333,20,16,47,107,15,32,47,151,25*71
$GPGSV,3,2,11,30,42,067,,13,36,299,28,07,23,237,34,04,14,301,21*74
$GPGSV,3,3,11,31,09,049,,10,08,317,17,01,06,200,*40
$GPRMC,201340.000,A,3747.6403,N,12215.4183,W,0.97,169.41,300412,,,A*74
$GPVTG,169.41,T,,M,0.97,N,1.8,K,A*01
$GPGGA,201341.000,3747.6403,N,12215.4187,W,1,05,4.8,23.2,M,-25.1,M,,0000*53
$GPGSA,A,3,13,23,20,07,04,,,,,,,,7.3,4.8,5.5*38
$GPRMC,201341.000,A,3747.6403,N,12215.4187,W,1.70,152.94,300412,,,A*79
$GPVTG,152.94,T,,M,1.70,N,3.1,K,A*02
$GPGGA,201342.000,3747.6401,N,12215.4184,W,1,05,4.8,24.1,M,-25.1,M,,0000*55
$GPGSA,A,3,13,23,20,07,04,,,,,,,,7.3,4.8,5.5*38
$GPRMC,201342.000,A,3747.6401,N,12215.4184,W,1.65,145.08,300412,,,A*7C
$GPVTG,145.08,T,,M,1.65,N,3.0,K,A*04
$GPGGA,201343.000,3747.6397,N,12215.4185,W,1,05,4.8,25.0,M,-25.1,M,,0000*5D
$GPGSA,A,3,13,23,20,07,04,,,,,,,,7.3,4.8,5.5*38
$GPRMC,201343.000,A,3747.6397,N,12215.4185,W,1.90,159.02,300412,,,A*79
$GPVTG,159.02,T,,M,1.90,N,3.5,K,A*0C
$GPGGA,201344.000,3747.6393,N,12215.4169,W,1,05,4.8,23.3,M,-25.1,M,,0000*59
$GPGSA,A,3,13,23,20,07,04,,,,,,,,7.3,4.8,5.5*38
$GPRMC,201344.000,A,3747.6393,N,12215.4169,W,1.85,121.88,300412,,,A*71
$GPVTG,121.88,T,,M,1.85,N,3.4,K,A*04
$GPGGA,201345.000,3747.6389,N,12215.4165,W,1,05,4.8,23.2,M,-25.1,M,,0000*5E
$GPGSA,A,3,13,23,20,07,04,,,,,,,,7.3,4.8,5.5*38
$GPGSV,3,1,11,20,67,191,29,23,63,333,25,16,47,107,20,32,47,151,27*78
$GPGSV,3,2,11,30,42,067,,13,36,299,27,07,23,237,29,04,14,301,31*76
$GPGSV,3,3,11,31,09,049,,10,08,317,23,01,06,200,*47
$GPRMC,201345.000,A,3747.6389,N,12215.4165,W,2.09,137.17,300412,,,A*71
$GPVTG,137.17,T,,M,2.09,N,3.9,K,A*0F
$GPGGA,201346.000,3747.6384,N,12215.4173,W,1,05,4.8,24.5,M,-25.1,M,,0000*57
$GPGSA,A,3,13,23,20,07,04,,,,,,,,7.3,4.8,5.5*38
$GPRMC,201346.000,A,3747.6384,N,12215.4173,W,1.79,150.08,300412,,,A*73
$GPVTG,150.08,T,,M,1.79,N,3.3,K,A*0E
$GPGGA,201347.000,3747.6380,N,12215.4173,W,1,05,4.8,25.4,M,-25.1,M,,0000*52
$GPGSA,A,3,13,23,20,07,04,,,,,,,,7.3,4.8,5.5*38
$GPRMC,201347.000,A,3747.6380,N,12215.4173,W,1.99,138.65,300412,,,A*7D
$GPVTG,138.65,T,,M,1.99,N,3.7,K,A*01
$GPGGA,201348.000,3747.6375,N,12215.4171,W,1,05,4.8,25.6,M,-25.1,M,,0000*57
$GPGSA,A,3,13,23,20,07,04,,,,,,,,7.3,4.8,5.5*38
$GPRMC,201348.000,A,3747.6375,N,12215.4171,W,2.22,144.00,300412,,,A*71
$GPVTG,144.00,T,,M,2.22,N,4.1,K,A*0B
$GPGGA,201349.000,3747.6368,N,12215.4155,W,1,05,4.8,23.4,M,-25.1,M,,0000*58
$GPGSA,A,3,13,23,20,07,04,,,,,,,,7.3,4.8,5.5*38
$GPRMC,201349.000,A,3747.6368,N,12215.4155,W,2.33,146.80,300412,,,A*70
$GPVTG,146.80,T,,M,2.33,N,4.3,K,A*03
$GPGGA,201350.000,3747.6362,N,12215.4147,W,1,05,4.8,22.0,M,-25.1,M,,0000*5C
$GPGSA,A,3,13,23,20,07,04,,,,,,,,7.3,4.8,5.5*38
$GPGSV,3,1,11,20,67,191,29,23,63,333,24,16,47,107,25,32,47,151,27*7C
$GPGSV,3,2,11,30,42,067,,13,36,299,24,07,23,237,32,04,14,301,25*7A
$GPGSV,3,3,11,31,09,049,,10,08,317,26,01,06,200,*42
$GPRMC,201350.000,A,3747.6362,N,12215.4147,W,2.14,129.12,300412,,,A*76
$GPVTG,129.12,T,,M,2.14,N,4.0,K,A*07
$GPGGA,201351.000,3747.6356,N,12215.4166,W,1,04,5.9,25.7,M,-25.1,M,,0000*58
$GPGSA,A,3,13,23,20,04,,,,,,,,,8.2,5.9,5.7*33
$GPRMC,201351.000,A,3747.6356,N,12215.4166,W,2.22,139.88,300412,,,A*74
$GPVTG,139.88,T,,M,2.22,N,4.1,K,A*01
$GPGGA,201352.000,3747.6349,N,12215.4169,W,1,05,4.8,26.8,M,-25.1,M,,0000*57
$GPGSA,A,3,13,23,20,07,04,,,,,,,,7.3,4.8,5.5*38
$GPRMC,201352.000,A,3747.6349,N,12215.4169,W,2.53,154.55,300412,,,A*7B
$GPVTG,154.55,T,,M,2.53,N,4.7,K,A*0A
$GPGGA,201353.000,3747.6341,N,12215.4165,W,1,05,4.8,26.9,M,-25.1,M,,0000*53
$GPGSA,A,3,13,23,20,07,04,,,,,,,,7.3,4.8,5.5*38
$GPRMC,201353.000,A,3747.6341,N,12215.4165,W,2.74,159.27,300412,,,A*73
$GPVTG,159.27,T,,M,2.74,N,5.1,K,A*00
$GPGGA,201354.000,3747.6334,N,12215.4160,W,1,05,4.8,26.6,M,-25.1,M,,0000*5C
$GPGSA,A,3,13,23,20,07,04,,,,,,,,7.3,4.8,5.5*38
$GPRMC,201354.000,A,3747.6334,N,12215.4160,W,2.40,150.10,300412,,,A*79
$GPVTG,150.10,T,,M,2.40,N,4.4,K,A*0E
$GPGGA,201355.000,3747.6329,N,12215.4162,W,1,05,4.8,27.4,M,-25.1,M,,0000*50
$GPGSA,A,3,13,23,20,07,04,,,,,,,,7.3,4.8,5.5*38
$GPGSV,3,1,11,20,67,191,26,23,63,333,25,16,47,107,27,32,47,151,27*70
$GPGSV,3,2,11,30,42,067,19,13,36,299,26,07,23,237,35,04,14,301,27*75
$GPGSV,3,3,11,31,09,049,,10,08,317,26,01,06,200,*42
$GPRMC,201355.000,A,3747.6329,N,12215.4162,W,1.79,136.28,300412,,,A*74
$GPVTG,136.28,T,,M,1.79,N,3.3,K,A*0C
$GPGGA,201356.000,3747.6325,N,12215.4150,W,1,05,4.8,27.4,M,-25.1,M,,0000*5E
$GPGSA,A,3,13,23,20,07,04,,,,,,,,7.3,4.8,5.5*38
$GPRMC,201356.000,A,3747.6325,N,12215.4150,W,2.77,130.94,300412,,,A*76
$GPVTG,130.94,T,,M,2.77,N,5.1,K,A*04
$GPGGA,201357.000,3747.6324,N,12215.4137,W,1,05,4.8,27.1,M,-25.1,M,,0000*5A
$GPGSA,A,3,13,23,20,07,04,,,,,,,,7.3,4.8,5.5*38
$GPRMC,201357.000,A,3747.6324,N,12215.4137,W,2.10,129.11,300412,,,A*73
$GPVTG,129.11,T,,M,2.10,N,3.9,K,A*0E
$GPGGA,201358.000,3747.6322,N,12215.4131,W,1,05,4.8,27.0,M,-25.1,M,,0000*54
$GPGSA,A,3,13,23,20,07,04,,,,,,,,7.3,4.8,5.5*38
$GPRMC,201358.000,A,3747.6322,N,12215.4131,W,0.71,133.69,300412,,,A*7D
$GPVTG,133.69,T,,M,0.71,N,1.3,K,A*07
$GPGGA,201359.000,3747.6316,N,12215.4114,W,1,05,4.8,25.9,M,-25.1,M,,0000*5E
$GPGSA,A,3,13,23,20,07,04,,,,,,,,7.3,4.8,5.5*38
$GPRMC,201359.000,A,3747.6316,N,12215.4114,W,1.00,136.35,300412,,,A*77
$GPVTG,136.35,T,,M,1.00,N,1.9,K,A*06
$GPGGA,201400.000,3747.6315,N,12215.4090,W,1,05,4.8,22.9,M,-25.1,M,,0000*5C
$GPGSA,A,3,13,23,20,07,04,,,,,,,,7.3,4.8,5.5*38
$GPGSV,3,1,12,20,67,191,23,23,63,333,31,16,47,107,25,32,47,151,24*72
$GPGSV,3,2,12,30,42,067,24,13,36,299,21,07,23,237,34,04,14,301,17*7D
$GPGSV,3,3,12,31,09,049,,10,08,317,23,01,06,200,,48,44,197,33*77
$GPRMC,201400.000,A,3747.6315,N,12215.4090,W,0.32,111.56,300412,,,A*72
$GPGGA,201401.000,3747.6312,N,12215.4065,W,1,05,4.8,19.9,M,-25.1,M,,0000*58
$GPGSA,A,3,13,23,20,07,04,,,,,,,,7.3,4.8,5.5*38
$GPRMC,201401.000,A,3747.6312,N,12215.4065,W,1.97,114.95,300412,,,A*7A
$GPVTG,114.95,T,,M,1.97,N,3.7,K,A*0E
$GPGGA,201402.000,3747.6316,N,12215.4065,W,1,05,4.8,19.0,M,-25.1,M,,0000*56
