$ADVER,3080,2.3
$GPRMC,211834.387,A,3747.7069,N,12215.4742,W,1.08,223.50,300412,,,A*79
$GPGGA,211835.387,3747.7065,N,12215.4746,W,1,04,8.7,24.3,M,-25.1,M,,0000*5C
$GPGSA,A,3,07,04,20,32,,,,,,,,,9.0,8.7,2.3*35
$GPRMC,211835.387,A,3747.7065,N,12215.4746,W,0.79,216.64,300412,,,A*76
$GPVTG,216.64,T,,M,0.79,N,1.5,K,A*00
$GPGGA,211836.387,3747.7060,N,12215.4751,W,1,04,8.7,24.4,M,-25.1,M,,0000*5B
$GPGSA,A,3,07,04,20,32,,,,,,,,,8.9,8.7,2.3*3D
$GPRMC,211836.387,A,3747.7060,N,12215.4751,W,0.85,217.07,300412,,,A*71
$GPVTG,217.07,T,,M,0.85,N,1.6,K,A*04
$GPGGA,211837.000,3747.7058,N,12215.4754,W,1,04,8.7,24.3,M,-25.1,M,,0000*5F
$GPGSA,A,3,07,04,20,32,,,,,,,,,8.9,8.7,2.3*3D
$GPRMC,211837.000,A,3747.7058,N,12215.4754,W,0.69,212.66,300412,,,A*72
$GPVTG,212.66,T,,M,0.69,N,1.3,K,A*01
$GPGGA,211838.000,3747.7052,N,12215.4762,W,1,04,8.6,23.8,M,-25.1,M,,0000*52
$GPGSA,A,3,07,04,20,32,,,,,,,,,8.9,8.6,2.3*3C
$GPRMC,211838.000,A,3747.7052,N,12215.4762,W,0.70,220.59,300412,,,A*77
$GPVTG,220.59,T,,M,0.70,N,1.3,K,A*04
$GPGGA,211839.000,3747.7051,N,12215.4762,W,1,04,8.6,24.4,M,-25.1,M,,0000*5B
$GPGSA,A,3,07,04,20,32,,,,,,,,,8.9,8.6,2.3*3C
$GPGSV,3,1,12,07,46,265,36,20,35,179,39,32,17,159,36,04,08,273,24*7B
$GPGSV,3,2,12,23,70,060,21,13,59,330,29,16,44,059,,10,33,307,28*79
$GPGSV,3,3,12,30,21,043,,03,17,110,,06,13,094,,08,13,247,*7A
$GPRMC,211839.000,A,3747.7051,N,12215.4762,W,0.70,219.52,300412,,,A*74
$GPVTG,219.52,T,,M,0.70,N,1.3,K,A*05
$GPGGA,211840.000,3747.7041,N,12215.4777,W,1,04,8.6,22.9,M,-25.1,M,,0000*5B
$GPGSA,A,3,07,04,20,32,,,,,,,,,8.9,8.6,2.3*3C
$GPRMC,211840.000,A,3747.7041,N,12215.4777,W,0.72,214.50,300412,,,A*72
$GPVTG,214.50,T,,M,0.72,N,1.3,K,A*08
$GPGGA,211841.000,3747.7032,N,12215.4790,W,1,04,8.6,21.5,M,-25.1,M,,0000*58
$GPGSA,A,3,07,04,20,32,,,,,,,,,8.9,8.6,2.3*3C
$GPRMC,211841.000,A,3747.7032,N,12215.4790,W,0.69,216.06,300412,,,A*75
$GPVTG,216.06,T,,M,0.69,N,1.3,K,A*03
$GPGGA,211842.000,3747.7031,N,12215.4792,W,1,04,8.6,21.0,M,-25.1,M,,0000*5F
$GPGSA,A,3,07,04,20,32,,,,,,,,,8.9,8.6,2.3*3C
$GPRMC,211842.000,A,3747.7031,N,12215.4792,W,0.86,211.54,300412,,,A*76
$GPVTG,211.54,T,,M,0.86,N,1.6,K,A*07
$GPGGA,211843.000,3747.7042,N,12215.4777,W,1,03,20.9,20.7,M,-25.1,M,,0000*65
$GPGSA,A,2,07,04,32,,,,,,,,,,20.9,20.9,1.0*30
$GPRMC,211843.000,A,3747.7042,N,12215.4777,W,0.88,219.26,300412,,,A*7B
$GPVTG,219.26,T,,M,0.88,N,1.6,K,N*0B
$GPGGA,211844.000,3747.7046,N,12215.4769,W,1,03,20.8,20.7,M,-25.1,M,,0000*68
$GPGSA,A,2,07,04,32,,,,,,,,,,20.8,20.8,1.0*30
$GPGSV,3,1,12,07,46,265,36,20,35,179,,32,17,159,23,04,08,273,28*79
$GPGSV,3,2,12,23,70,060,22,13,59,330,33,16,44,059,,10,33,307,37*7F
$GPGSV,3,3,12,30,21,043,,03,17,110,,06,13,094,14,08,13,247,*7F
$GPRMC,211844.000,A,3747.7046,N,12215.4769,W,1.50,197.31,300412,,,A*70
$GPVTG,197.31,T,,M,1.50,N,2.8,K,N*01
$GPGGA,211845.000,3747.7051,N,12215.4761,W,1,04,8.6,20.7,M,-25.1,M,,0000*54
$GPGSA,A,3,07,04,20,32,,,,,,,,,8.9,8.6,2.3*3C
$GPRMC,211845.000,A,3747.7051,N,12215.4761,W,1.45,206.11,300412,,,A*72
$GPVTG,206.11,T,,M,1.45,N,2.7,K,A*0C
$GPGGA,211846.000,3747.7060,N,12215.4753,W,1,04,8.6,20.7,M,-25.1,M,,0000*54
$GPGSA,A,3,07,04,20,32,,,,,,,,,8.9,8.6,2.3*3C
$GPRMC,211846.000,A,3747.7060,N,12215.4753,W,0.80,191.44,300412,,,A*77
$GPVTG,191.44,T,,M,0.80,N,1.5,K,A*08
$GPGGA,211847.000,3747.7124,N,12215.4693,W,1,04,8.6,19.3,M,-25.1,M,,0000*57
$GPGSA,A,3,07,04,20,32,,,,,,,,,8.9,8.6,2.3*3C
$GPRMC,211847.000,A,3747.7124,N,12215.4693,W,1.66,40.27,300412,,,A*4B
$GPVTG,40.27,T,,M,1.66,N,3.1,K,A*3F
$GPGGA,211848.000,3747.7163,N,12215.4658,W,1,04,8.6,18.6,M,-25.1,M,,0000*58
$GPGSA,A,3,07,04,20,32,,,,,,,,,8.9,8.6,2.3*3C
$GPRMC,211848.000,A,3747.7163,N,12215.4658,W,2.56,38.96,300412,,,A*45
$GPVTG,38.96,T,,M,2.56,N,4.7,K,A*3B
$GPGGA,211849.000,3747.7208,N,12215.4617,W,1,04,8.6,17.8,M,-25.1,M,,0000*5D
$GPGSA,A,3,07,04,20,32,,,,,,,,,8.9,8.6,2.3*3C
$GPGSV,3,1,12,07,46,265,31,20,35,179,27,32,17,159,26,04,08,273,29*7F
$GPGSV,3,2,12,23,70,060,17,13,59,330,29,16,44,059,,10,33,307,37*72
$GPGSV,3,3,12,30,21,043,,03,17,110,,06,13,094,14,08,13,247,*7F
$GPRMC,211849.000,A,3747.7208,N,12215.4617,W,3.75,39.05,300412,,,A*4A
$GPVTG,39.05,T,,M,3.75,N,6.9,K,A*3C
$GPGGA,211850.000,3747.7267,N,12215.4563,W,1,04,8.6,16.5,M,-25.1,M,,0000*50
$GPGSA,A,3,07,04,20,32,,,,,,,,,8.9,8.6,2.3*3C
$GPRMC,211850.000,A,3747.7267,N,12215.4563,W,5.36,38.63,300412,,,A*4B
$GPVTG,38.63,T,,M,5.36,N,9.9,K,A*33
$GPGGA,211851.000,3747.7282,N,12215.4550,W,1,04,8.6,16.2,M,-25.1,M,,0000*5D
$GPGSA,A,3,07,04,20,32,,,,,,,,,8.9,8.6,2.3*3C
$GPRMC,211851.000,A,3747.7282,N,12215.4550,W,4.82,38.88,300412,,,A*4A
$GPVTG,38.88,T,,M,4.82,N,8.9,K,A*39
$GPGGA,211852.000,3747.7355,N,12215.4483,W,1,04,8.6,14.6,M,-25.1,M,,0000*5C
$GPGSA,A,3,07,04,20,32,,,,,,,,,8.8,8.6,2.3*3D
$GPRMC,211852.000,A,3747.7355,N,12215.4483,W,7.18,37.84,300412,,,A*4E
$GPVTG,37.84,T,,M,7.18,N,13.3,K,A*0A
$GPGGA,211853.000,3747.7369,N,12215.4472,W,1,04,8.5,14.3,M,-25.1,M,,0000*5A
$GPGSA,A,3,07,04,20,32,,,,,,,,,8.8,8.5,2.3*3E
$GPRMC,211853.000,A,3747.7369,N,12215.4472,W,6.40,37.80,300412,,,A*46
$GPVTG,37.80,T,,M,6.40,N,11.8,K,A*0B
$GPGGA,211854.000,3747.7343,N,12215.4500,W,1,04,8.5,14.5,M,-25.1,M,,0000*57
$GPGSA,A,3,07,04,20,32,,,,,,,,,8.8,8.5,2.3*3E
$GPGSV,3,1,12,07,46,265,31,20,35,179,26,32,17,159,28,04,08,273,25*7C
$GPGSV,3,2,12,23,70,060,18,13,59,330,29,16,44,059,,10,33,307,38*72
$GPGSV,3,3,12,30,21,043,,03,17,110,,06,13,094,14,08,13,247,*7F
$GPRMC,211854.000,A,3747.7343,N,12215.4500,W,4.17,39.94,300412,,,A*46
$GPVTG,39.94,T,,M,4.17,N,7.7,K,A*38
$GPGGA,211855.000,3747.7323,N,12215.4522,W,1,04,8.5,14.1,M,-25.1,M,,0000*54
$GPGSA,A,3,07,04,20,32,,,,,,,,,8.8,8.5,2.3*3E
$GPRMC,211855.000,A,3747.7323,N,12215.4522,W,2.58,44.65,300412,,,A*48
$GPVTG,44.65,T,,M,2.58,N,4.8,K,A*3D
$GPGGA,211856.000,3747.7291,N,12215.4550,W,1,04,8.5,15.5,M,-25.1,M,,0000*5F
$GPGSA,A,3,07,04,20,32,,,,,,,,,8.8,8.5,2.3*3E
$GPRMC,211856.000,A,3747.7291,N,12215.4550,W,0.63,79.43,300412,,,A*46
$GPVTG,79.43,T,,M,0.63,N,1.2,K,A*32
$GPGGA,211857.000,3747.7255,N,12215.4586,W,1,04,8.5,15.5,M,-25.1,M,,0000*5D
$GPGSA,A,3,07,04,20,32,,,,,,,,,8.8,8.5,2.3*3E
$GPRMC,211857.000,A,3747.7255,N,12215.4586,W,1.28,204.33,300412,,,A*75
$GPVTG,204.33,T,,M,1.28,N,2.4,K,A*06
$GPGGA,211858.000,3747.7071,N,12215.4787,W,1,06,2.0,15.2,M,-25.1,M,,0000*5F
$GPGSA,A,3,07,04,13,10,20,32,,,,,,,2.9,2.0,2.1*3B
$GPRMC,211858.000,A,3747.7071,N,12215.4787,W,1.98,229.29,300412,,,A*72
$GPVTG,229.29,T,,M,1.98,N,3.7,K,A*0B
$GPGGA,211859.000,3747.7048,N,12215.4810,W,1,05,2.3,15.4,M,-25.1,M,,0000*53
$GPGSA,A,3,07,13,10,20,32,,,,,,,,3.9,2.3,3.2*3F
$GPGSV,3,1,12,23,70,061,,13,60,330,30,07,46,265,36,16,44,059,15*70
$GPGSV,3,2,12,20,35,179,29,10,33,307,32,30,21,043,,03,17,110,*7D
$GPGSV,3,3,12,32,17,160,24,06,13,094,14,08,13,247,39,04,08,273,*7B
$GPRMC,211859.000,A,3747.7048,N,12215.4810,W,0.74,216.94,300412,,,A*71
$GPVTG,216.94,T,,M,0.74,N,1.4,K,A*03
$GPGGA,211900.000,3747.7038,N,12215.4817,W,1,05,2.3,15.3,M,-25.1,M,,0000*59
$GPGSA,A,3,07,13,10,20,32,,,,,,,,3.9,2.3,3.2*3F
$GPRMC,211900.000,A,3747.7038,N,12215.4817,W,0.91,182.56,300412,,,A*77
$GPVTG,182.56,T,,M,0.91,N,1.7,K,A*0B
$GPGGA,211901.000,3747.7031,N,12215.4819,W,1,05,2.3,15.4,M,-25.1,M,,0000*58
$GPGSA,A,3,07,13,10,20,32,,,,,,,,3.9,2.3,3.2*3F
$GPRMC,211901.000,A,3747.7031,N,12215.4819,W,1.23,154.79,300412,,,A*7F
$GPVTG,154.79,T,,M,1.23,N,2.3,K,A*02
$GPGGA,211902.000,3747.7025,N,12215.4818,W,1,05,2.3,15.2,M,-25.1,M,,0000*59
$GPGSA,A,3,07,13,10,20,32,,,,,,,,3.9,2.3,3.2*3F
$GPRMC,211902.000,A,3747.7025,N,12215.4818,W,1.28,159.94,300412,,,A*7D
$GPVTG,159.94,T,,M,1.28,N,2.4,K,A*00
$GPGGA,211903.000,3747.7019,N,12215.4815,W,1,05,2.3,15.7,M,-25.1,M,,0000*5F
$GPGSA,A,3,07,13,10,20,32,,,,,,,,3.9,2.3,3.2*3F
$GPRMC,211903.000,A,3747.7019,N,12215.4815,W,1.47,133.10,300412,,,A*77
$GPVTG,133.10,T,,M,1.47,N,2.7,K,A*0A
$GPGGA,211904.000,3747.7017,N,12215.4812,W,1,05,2.3,15.1,M,-25.1,M,,0000*57
$GPGSA,A,3,07,13,10,20,32,,,,,,,,3.9,2.3,3.2*3F
$GPGSV,3,1,12,23,70,061,,13,60,330,29,07,46,265,35,16,44,059,15*7B
$GPGSV,3,2,12,20,35,179,35,10,33,307,26,30,21,043,,03,17,110,*75
$GPGSV,3,3,12,32,17,160,36,06,13,094,14,08,13,247,33,04,08,273,*72
$GPRMC,211904.000,A,3747.7017,N,12215.4812,W,1.24,128.15,300412,,,A*73
$GPVTG,128.15,T,,M,1.24,N,2.3,K,A*04
$GPGGA,211905.000,3747.7015,N,12215.4809,W,1,05,2.3,14.2,M,-25.1,M,,0000*5C
$GPGSA,A,3,07,13,10,20,32,,,,,,,,3.9,2.3,3.2*3F
$GPRMC,211905.000,A,3747.7015,N,12215.4809,W,1.48,138.85,300412,,,A*78
$GPVTG,138.85,T,,M,1.48,N,2.7,K,A*02
$GPGGA,211906.000,3747.7010,N,12215.4809,W,1,05,2.3,12.9,M,-25.1,M,,0000*57
$GPGSA,A,3,07,13,10,20,32,,,,,,,,3.9,2.3,3.2*3F
$GPRMC,211906.000,A,3747.7010,N,12215.4809,W,1.63,136.05,300412,,,A*71
$GPVTG,136.05,T,,M,1.63,N,3.0,K,A*0B
$GPGGA,211907.000,3747.7005,N,12215.4809,W,1,05,2.3,11.8,M,-25.1,M,,0000*50
$GPGSA,A,3,07,13,10,20,32,,,,,,,,3.9,2.3,3.2*3F
$GPRMC,211907.000,A,3747.7005,N,12215.4809,W,1.61,120.03,300412,,,A*77
$GPVTG,120.03,T,,M,1.61,N,3.0,K,A*08
$GPGGA,211908.000,3747.7003,N,12215.4802,W,1,05,2.3,12.2,M,-25.1,M,,0000*5B
$GPGSA,A,3,07,13,10,20,32,,,,,,,,3.9,2.3,3.2*3F
$GPRMC,211908.000,A,3747.7003,N,12215.4802,W,1.67,137.13,300412,,,A*74
$GPVTG,137.13,T,,M,1.67,N,3.1,K,A*08
$GPGGA,211909.000,3747.6999,N,12215.4793,W,1,05,2.3,13.7,M,-25.1,M,,0000*52
$GPGSA,A,3,07,13,10,20,32,,,,,,,,3.9,2.3,3.2*3F
$GPGSV,3,1,12,23,70,061,27,13,60,330,28,07,46,265,35,16,44,059,16*7C
$GPGSV,3,2,12,20,35,179,35,10,33,307,28,30,21,043,,03,17,110,*7B
$GPGSV,3,3,12,32,17,160,33,06,13,094,18,08,13,247,34,04,08,273,*7C
$GPRMC,211909.000,A,3747.6999,N,12215.4793,W,1.51,123.90,300412,,,A*72
$GPVTG,123.90,T,,M,1.51,N,2.8,K,A*0B
$GPGGA,211910.000,3747.6995,N,12215.4786,W,1,05,2.3,14.6,M,-25.1,M,,0000*54
$GPGSA,A,3,07,13,10,20,32,,,,,,,,3.9,2.3,3.2*3F
$GPRMC,211910.000,A,3747.6995,N,12215.4786,W,2.06,110.18,300412,,,A*73
$GPVTG,110.18,T,,M,2.06,N,3.8,K,A*0B
$GPGGA,211911.000,3747.6988,N,12215.4783,W,1,05,2.3,14.9,M,-25.1,M,,0000*53
$GPGSA,A,3,07,13,10,20,32,,,,,,,,3.9,2.3,3.2*3F
$GPRMC,211911.000,A,3747.6988,N,12215.4783,W,2.03,106.59,300412,,,A*7C
$GPVTG,106.59,T,,M,2.03,N,3.8,K,A*0C
$GPGGA,211912.000,3747.6981,N,12215.4781,W,1,05,2.3,15.5,M,-25.1,M,,0000*56
$GPGSA,A,3,07,13,10,20,32,,,,,,,,3.9,2.3,3.2*3F
$GPRMC,211912.000,A,3747.6981,N,12215.4781,W,1.85,113.61,300412,,,A*76
$GPVTG,113.61,T,,M,1.85,N,3.4,K,A*02
$GPGGA,211913.000,3747.6976,N,12215.4782,W,1,05,2.3,14.5,M,-25.1,M,,0000*5D
$GPGSA,A,3,07,13,10,20,32,,,,,,,,3.9,2.3,3.2*3F
$GPRMC,211913.000,A,3747.6976,N,12215.4782,W,1.66,113.07,300412,,,A*71
$GPVTG,113.07,T,,M,1.66,N,3.1,K,A*0A
$GPGGA,211914.000,3747.6974,N,12215.4777,W,1,05,2.3,14.2,M,-25.1,M,,0000*55
$GPGSA,A,3,07,13,10,20,32,,,,,,,,3.9,2.3,3.2*3F
$GPGSV,3,1,12,23,70,061,27,13,60,330,24,07,46,265,34,16,44,059,16*71
$GPGSV,3,2,12,20,35,179,35,10,33,307,28,30,21,043,,03,17,110,*7B
$GPGSV,3,3,12,32,17,160,33,06,13,094,18,08,13,247,33,04,08,273,*7B
$GPRMC,211914.000,A,3747.6974,N,12215.4777,W,2.10,107.20,300412,,,A*7C
$GPGGA,211915.000,3747.6974,N,12215.4766,W,1,05,2.3,14.8,M,-25.1,M,,0000*5E
$GPGSA,A,3,07,13,10,20,32,,,,,,,,3.9,2.3,3.2*3F
$GPRMC,211915.000,A,3747.6974,N,12215.4766,W,2.25,101.49,300412,,,A*72
$GPVTG,101.49,T,,M,2.25,N,4.2,K,A*03
$GPGGA,211916.000,3747.6972,N,12215.4760,W,1,05,2.3,14.6,M,-25.1,M,,0000*53
$GPGSA,A,3,07,13,10,20,32,,,,,,,,3.9,2.3,3.2*3F
$GPRMC,211916.000,A,3747.6972,N,12215.4760,W,2.00,110.94,300412,,,A*76
$GPVTG,110.94,T,,M,2.00,N,3.7,K,A*06
$GPGGA,211917.000,3747.6968,N,12215.4756,W,1,05,2.3,15.0,M,-25.1,M,,0000*5B
$GPGSA,A,3,07,13,10,20,32,,,,,,,,3.9,2.3,3.2*3F
$GPRMC,211917.000,A,3747.6968,N,12215.4756,W,1.04,118.84,300412,,,A*77
$GPVTG,118.84,T,,M,1.04,N,1.9,K,A*04
$GPGGA,211918.000,3747.6967,N,12215.4758,W,1,05,2.3,13.8,M,-25.1,M,,0000*5B
$GPGSA,A,3,07,13,10,20,32,,,,,,,,3.9,2.3,3.2*3F
$GPRMC,211918.000,A,3747.6967,N,12215.4758,W,0.68,132.40,300412,,,A*72
$GPVTG,132.40,T,,M,0.68,N,1.3,K,A*05
$GPGGA,211919.000,3747.6965,N,12215.4756,W,1,04,3.0,13.5,M,-25.1,M,,0000*58
$GPGSA,A,3,07,13,20,32,,,,,,,,,6.9,3.0,6.2*3C
$GPGSV,3,1,12,23,70,061,28,13,60,330,25,07,46,265,27,16,44,059,16*7D
$GPGSV,3,2,12,20,35,179,36,10,33,307,18,30,21,043,,03,17,110,15*7F
$GPGSV,3,3,12,32,16,160,38,06,14,094,17,08,13,247,27,04,08,273,*7C
$GPRMC,211919.000,A,3747.6965,N,12215.4756,W,0.77,188.33,300412,,,A*74
$GPVTG,188.33,T,,M,0.77,N,1.4,K,A*09
$GPGGA,211920.000,3747.6965,N,12215.4759,W,1,05,2.3,11.6,M,-25.1,M,,0000*5F
$GPGSA,A,3,07,13,10,20,32,,,,,,,,3.9,2.3,3.2*3F
$GPRMC,211920.000,A,3747.6965,N,12215.4759,W,0.95,141.63,300412,,,A*7D
$GPVTG,141.63,T,,M,0.95,N,1.8,K,A*09
$GPGGA,211921.000,3747.6970,N,12215.4757,W,1,05,2.3,8.2,M,-25.1,M,,0000*68
$GPGSA,A,3,07,13,10,20,32,,,,,,,,3.9,2.3,3.2*3F
$GPRMC,211921.000,A,3747.6970,N,12215.4757,W,1.30,101.03,300412,,,A*7A
$GPVTG,101.03,T,,M,1.30,N,2.4,K,A*0A
$GPGGA,211922.000,3747.6964,N,12215.4753,W,1,05,2.3,9.1,M,-25.1,M,,0000*68
$GPGSA,A,3,07,13,10,20,32,,,,,,,,3.9,2.3,3.2*3F
$GPRMC,211922.000,A,3747.6964,N,12215.4753,W,1.66,111.14,300412,,,A*7C
$GPVTG,111.14,T,,M,1.66,N,3.1,K,A*0A
$GPGGA,211923.000,3747.6961,N,12215.4748,W,1,05,2.3,8.8,M,-25.1,M,,0000*6E
$GPGSA,A,3,07,13,10,20,32,,,,,,,,3.9,2.3,3.2*3F
$GPRMC,211923.000,A,3747.6961,N,12215.4748,W,1.54,115.60,300412,,,A*74
$GPVTG,115.60,T,,M,1.54,N,2.8,K,A*04
$GPGGA,211924.000,3747.6953,N,12215.4747,W,1,05,2.3,9.4,M,-25.1,M,,0000*6A
$GPGSA,A,3,07,13,10,20,32,,,,,,,,3.9,2.3,3.2*3F
$GPGSV,3,1,12,23,70,061,29,13,60,330,25,07,46,265,31,16,44,059,16*7B
$GPGSV,3,2,12,20,35,179,36,10,33,307,25,30,21,043,15,03,17,110,16*76
$GPGSV,3,3,12,32,16,160,34,06,14,094,17,08,13,247,29,04,08,273,*7E
$GPRMC,211924.000,A,3747.6953,N,12215.4747,W,1.77,144.63,300412,,,A*7B
$GPVTG,144.63,T,,M,1.77,N,3.3,K,A*08
$GPGGA,211925.000,3747.6946,N,12215.4746,W,1,05,2.3,9.3,M,-25.1,M,,0000*69
$GPGSA,A,3,07,13,10,20,32,,,,,,,,3.9,2.3,3.2*3F
$GPRMC,211925.000,A,3747.6946,N,12215.4746,W,1.61,126.37,300412,,,A*7D
$GPVTG,126.37,T,,M,1.61,N,3.0,K,A*09
$GPGGA,211926.000,3747.6939,N,12215.4746,W,1,05,2.3,8.9,M,-25.1,M,,0000*69
$GPGSA,A,3,07,13,10,20,32,,,,,,,,3.9,2.3,3.2*3F
$GPRMC,211926.000,A,3747.6939,N,12215.4746,W,1.80,138.93,300412,,,A*78
$GPVTG,138.93,T,,M,1.80,N,3.3,K,A*04
$GPGGA,211927.000,3747.6935,N,12215.4739,W,2,05,2.3,9.0,M,-25.1,M,,0000*67
$GPGSA,A,3,07,13,10,20,32,,,,,,,,3.9,2.3,3.2*3F
$GPRMC,211927.000,A,3747.6935,N,12215.4739,W,1.70,132.93,300412,,,D*7D
$GPVTG,132.93,T,,M,1.70,N,3.2,K,D*05
$GPGGA,211928.000,3747.6934,N,12215.4730,W,2,05,2.3,8.7,M,-25.1,M,,0000*66
$GPGSA,A,3,07,13,10,20,32,,,,,,,,3.9,2.3,3.2*3F
$GPRMC,211928.000,A,3747.6934,N,12215.4730,W,1.97,115.92,300412,,,D*77
$GPVTG,115.92,T,,M,1.97,N,3.7,K,D*0D
$GPGGA,211929.000,3747.6929,N,12215.4730,W,2,05,2.3,7.7,M,-25.1,M,,0000*64
$GPGSA,A,3,07,13,10,20,32,,,,,,,,3.9,2.3,3.2*3F
$GPGSV,3,1,12,23,70,061,28,13,60,330,25,07,46,265,32,16,44,059,16*79
$GPGSV,3,2,12,20,35,179,36,10,33,307,26,30,21,043,20,03,17,110,19*7C
$GPGSV,3,3,12,32,16,160,40,06,14,094,16,08,13,247,23,04,08,273,*76
$GPRMC,211929.000,A,3747.6929,N,12215.4730,W,1.83,120.37,300412,,,D*76
$GPGGA,211930.000,3747.6925,N,12215.4728,W,2,05,2.3,6.1,M,-25.1,M,2.8,0000*4A
$GPGSA,A,3,07,13,10,20,32,,,,,,,,3.9,2.3,3.2*3F
$GPRMC,211930.000,A,3747.6925,N,12215.4728,W,1.96,121.17,300412,,,D*7C
$GPVTG,121.17,T,,M,1.96,N,3.6,K,D*07
$GPGGA,211931.000,3747.6924,N,12215.4718,W,2,05,2.3,6.4,M,-25.1,M,3.8,0000*4D
$GPGSA,A,3,07,13,10,20,32,,,,,,,,3.9,2.3,3.2*3F
$GPRMC,211931.000,A,3747.6924,N,12215.4718,W,1.93,111.66,300412,,,D*7F
$GPVTG,111.66,T,,M,1.93,N,3.6,K,D*07
$GPGGA,211932.000,3747.6921,N,12215.4717,W,2,05,2.3,4.8,M,-25.1,M,4.8,0000*4D
$GPGSA,A,3,07,13,10,20,32,,,,,,,,3.9,2.3,3.2*3F
$GPRMC,211932.000,A,3747.6921,N,12215.4717,W,1.99,113.42,300412,,,D*78
$GPVTG,113.42,T,,M,1.99,N,3.7,K,D*08
$GPGGA,211933.000,3747.6914,N,12215.4719,W,2,05,2.3,3.0,M,-25.1,M,,0000*69
$GPGSA,A,3,07,13,10,20,32,,,,,,,,3.9,2.3,3.2*3F
$GPRMC,211933.000,A,3747.6914,N,12215.4719,W,1.68,119.49,300412,,,D*7E
$GPVTG,119.49,T,,M,1.68,N,3.1,K,D*01
$GPGGA,211934.000,3747.6909,N,12215.4714,W,2,05,2.3,3.8,M,-25.1,M,,0000*67
$GPGSA,A,3,07,13,10,20,32,,,,,,,,3.9,2.3,3.2*3F
$GPGSV,3,1,12,23,70,061,29,13,60,330,25,07,46,265,32,16,44,059,16*78
$GPGSV,3,2,12,20,35,179,37,10,33,307,26,30,21,043,19,03,17,110,18*76
$GPGSV,3,3,12,32,16,160,38,06,14,094,22,08,13,247,22,04,08,273,*7F
$GPRMC,211934.000,A,3747.6909,N,12215.4714,W,1.88,110.28,300412,,,D*78
$GPVTG,110.28,T,,M,1.88,N,3.5,K,D*05
$GPGGA,211935.000,3747.6906,N,12215.4705,W,2,05,2.3,4.8,M,-25.1,M,,0000*6E
$GPGSA,A,3,07,13,10,20,32,,,,,,,,3.9,2.3,3.2*3F
$GPRMC,211935.000,A,3747.6906,N,12215.4705,W,2.13,105.66,300412,,,D*79
$GPVTG,105.66,T,,M,2.13,N,3.9,K,D*06
$GPGGA,211936.000,3747.6903,N,12215.4698,W,2,05,2.3,5.0,M,-25.1,M,2.8,0000*40
$GPGSA,A,3,07,13,10,20,32,,,,,,,,3.9,2.3,3.2*3F
$GPRMC,211936.000,A,3747.6903,N,12215.4698,W,2.12,101.86,300412,,,D*71
$GPVTG,101.86,T,,M,2.12,N,3.9,K,D*0D
$GPGGA,211937.000,3747.6898,N,12215.4694,W,2,05,2.3,5.1,M,-25.1,M,3.8,0000*4E
$GPGSA,A,3,07,13,10,20,32,,,,,,,,3.9,2.3,3.2*3F
$GPRMC,211937.000,A,3747.6898,N,12215.4694,W,1.70,114.92,300412,,,D*79
$GPVTG,114.92,T,,M,1.70,N,3.2,K,D*00
$GPGGA,211938.000,3747.6896,N,12215.4692,W,2,05,2.3,4.0,M,-25.1,M,,0000*6C
$GPGSA,A,3,07,13,10,20,32,,,,,,,,3.9,2.3,3.2*3F
$GPRMC,211938.000,A,3747.6896,N,12215.4692,W,1.56,130.09,300412,,,D*7E
$GPVTG,130.09,T,,M,1.56,N,2.9,K,D*0A
$GPGGA,211939.000,3747.6890,N,12215.4694,W,2,05,2.3,2.6,M,-25.1,M,,0000*6D
$GPGSA,A,3,07,13,10,20,32,,,,,,,,3.9,2.3,3.2*3F
$GPGSV,3,1,12,23,70,061,28,13,60,330,26,07,46,265,33,16,44,059,15*78
$GPGSV,3,2,12,20,35,179,37,10,33,307,27,30,21,043,17,03,17,110,17*76
$GPGSV,3,3,12,32,16,160,33,06,14,094,17,08,13,247,22,04,08,273,*72
$GPRMC,211939.000,A,3747.6890,N,12215.4694,W,1.71,132.10,300412,,,D*70
$GPVTG,132.10,T,,M,1.71,N,3.2,K,D*0F
$GPGGA,211940.000,3747.6876,N,12215.4698,W,2,05,2.3,3.1,M,-25.1,M,,0000*61
$GPGSA,A,3,07,13,10,20,32,,,,,,,,3.9,2.3,3.2*3F
$GPRMC,211940.000,A,3747.6876,N,12215.4698,W,1.82,135.59,300412,,,D*7C
$GPVTG,135.59,T,,M,1.82,N,3.4,K,D*0F
$GPGGA,211941.000,3747.6869,N,12215.4692,W,2,05,2.3,4.7,M,-25.1,M,,0000*65
$GPGSA,A,3,07,13,10,20,32,,,,,,,,3.9,2.3,3.2*3F
$GPRMC,211941.000,A,3747.6869,N,12215.4692,W,1.85,135.10,300412,,,D*73
$GPVTG,135.10,T,,M,1.85,N,3.4,K,D*05
$GPGGA,211942.000,3747.6863,N,12215.4685,W,2,05,2.3,5.8,M,-25.1,M,,0000*64
$GPGSA,A,3,07,13,10,20,32,,,,,,,,3.9,2.3,3.2*3F
$GPRMC,211942.000,A,3747.6863,N,12215.4685,W,2.07,134.50,300412,,,D*70
$GPVTG,134.50,T,,M,2.07,N,3.8,K,D*05
$GPGGA,211943.000,3747.6860,N,12215.4675,W,2,05,2.3,6.9,M,-25.1,M,,0000*6B
$GPGSA,A,3,07,13,10,20,32,,,,,,,,3.9,2.3,3.2*3F
$GPRMC,211943.000,A,3747.6860,N,12215.4675,W,2.16,118.75,300412,,,D*74
$GPVTG,118.75,T,,M,2.16,N,4.0,K,D*03
$GPGGA,211944.000,3747.6857,N,12215.4664,W,2,05,2.3,8.3,M,-25.1,M,2.8,0000*48
$GPGSA,A,3,07,13,10,20,32,,,,,,,,3.9,2.3,3.2*3F
$GPGSV,3,1,12,23,70,061,27,13,60,330,25,07,46,265,33,16,44,059,19*78
$GPGSV,3,2,12,20,35,179,37,10,33,307,27,30,21,043,17,03,17,110,17*76
$GPGSV,3,3,12,32,16,160,38,06,14,094,18,08,13,247,32,04,08,273,*77
$GPVTG,105.46,T,,M,2.33,N,4.3,K,D*0B
$GPGGA,211945.000,3747.6854,N,12215.4653,W,2,05,2.3,9.8,M,-25.1,M,,0000*60
$GPGSA,A,3,07,13,10,20,32,,,,,,,,3.9,2.3,3.2*3F
$GPRMC,211945.000,A,3747.6854,N,12215.4653,W,2.42,117.12,300412,,,D*7E
$GPVTG,117.12,T,,M,2.42,N,4.5,K,D*09
$GPGGA,211946.000,3747.6851,N,12215.4642,W,2,05,2.3,11.1,M,-25.1,M,,0000*56
$GPGSA,A,3,07,13,10,20,32,,,,,,,,3.9,2.3,3.2*3F
$GPRMC,211946.000,A,3747.6851,N,12215.4642,W,2.32,122.53,300412,,,D*7C
$GPVTG,122.53,T,,M,2.32,N,4.3,K,D*0B
$GPGGA,211947.000,3747.6848,N,12215.4634,W,2,05,2.3,11.6,M,-25.1,M,,0000*59
$GPGSA,A,3,07,13,10,20,32,,,,,,,,3.9,2.3,3.2*3F
$GPRMC,211947.000,A,3747.6848,N,12215.4634,W,2.32,132.14,300412,,,D*76
$GPVTG,132.14,T,,M,2.32,N,4.3,K,D*09
$GPGGA,211948.000,3747.6843,N,12215.4629,W,2,05,2.3,11.9,M,-25.1,M,,0000*5E
$GPGSA,A,3,07,13,10,20,32,,,,,,,,3.9,2.3,3.2*3F
$GPRMC,211948.000,A,3747.6843,N,12215.4629,W,2.17,140.42,300412,,,D*7F
$GPVTG,140.42,T,,M,2.17,N,4.0,K,D*0B
$GPGGA,211949.000,3747.6839,N,12215.4628,W,2,05,2.3,10.6,M,-25.1,M,2.8,0000*79
$GPGSA,A,3,07,13,10,20,32,,,,,,,,3.9,2.3,3.2*3F
$GPGSV,3,1,12,23,70,062,26,13,60,330,25,07,46,265,33,16,44,058,18*7A
$GPGSV,3,2,12,20,34,179,33,10,33,307,25,30,20,043,16,03,17,110,17*71
$GPGSV,3,3,12,32,16,160,38,06,14,094,19,08,13,247,32,04,08,273,*76
$GPRMC,211949.000,A,3747.6839,N,12215.4628,W,1.94,142.27,300412,,,D*7B
$GPVTG,142.27,T,,M,1.94,N,3.6,K,D*03
$GPGGA,211950.000,3747.6833,N,12215.4624,W,2,05,2.3,11.0,M,-25.1,M,3.8,0000*71
$GPGSA,A,3,07,13,10,20,32,,,,,,,,3.9,2.3,3.2*3F
$GPRMC,211950.000,A,3747.6833,N,12215.4624,W,2.27,144.39,300412,,,D*77
$GPVTG,144.39,T,,M,2.27,N,4.2,K,D*02
$GPGGA,211951.000,3747.6833,N,12215.4612,W,2,05,2.3,11.4,M,-25.1,M,,0000*54
$GPGSA,A,3,07,13,10,20,32,,,,,,,,3.9,2.3,3.2*3F
$GPRMC,211951.000,A,3747.6833,N,12215.4612,W,2.21,117.13,300412,,,D*7B
$GPVTG,117.13,T,,M,2.21,N,4.1,K,D*09
$GPGGA,211952.000,3747.6830,N,12215.4609,W,2,05,2.3,10.3,M,-25.1,M,1.8,0000*7F
$GPGSA,A,3,07,13,10,20,32,,,,,,,,3.9,2.3,3.2*3F
$GPRMC,211952.000,A,3747.6830,N,12215.4609,W,1.99,121.78,300412,,,D*79
$GPVTG,121.78,T,,M,1.99,N,3.7,K,D*00
$GPGGA,211953.000,3747.6827,N,12215.4603,W,2,05,2.3,10.2,M,-25.1,M,,0000*54
$GPGSA,A,3,07,13,10,20,32,,,,,,,,3.9,2.3,3.2*3F
$GPRMC,211953.000,A,3747.6827,N,12215.4603,W,2.16,111.54,300412,,,D*7D
$GPVTG,111.54,T,,M,2.16,N,4.0,K,D*09
$GPGGA,211954.000,3747.6822,N,12215.4601,W,2,05,2.3,9.5,M,-25.1,M,,0000*6B
$GPGSA,A,3,07,13,10,20,32,,,,,,,,3.9,2.3,3.2*3F
$GPGSV,3,1,12,23,70,062,26,13,60,330,24,07,46,265,32,16,44,058,17*75
$GPGSV,3,2,12,20,34,179,37,10,33,307,27,30,20,043,16,03,17,110,23*70
$GPGSV,3,3,12,32,16,160,36,06,14,094,21,08,13,247,31,04,08,273,*70
$GPRMC,211954.000,A,3747.6822,N,12215.4601,W,2.14,112.31,300412,,,D*7F
$GPVTG,112.31,T,,M,2.14,N,4.0,K,D*0B
$GPGGA,211955.000,3747.6818,N,12215.4594,W,2,05,2.3,10.1,M,-25.1,M,2.8,0000*74
$GPGSA,A,3,07,13,10,20,32,,,,,,,,3.9,2.3,3.2*3F
$GPRMC,211955.000,A,3747.6818,N,12215.4594,W,2.30,109.39,300412,,,D*7C
$GPVTG,109.39,T,,M,2.30,N,4.3,K,D*0C
$GPGGA,211956.000,3747.6812,N,12215.4591,W,2,05,2.3,10.0,M,-25.1,M,3.8,0000*78
$GPGSA,A,3,07,13,10,20,32,,,,,,,,3.9,2.3,3.2*3F
$GPRMC,211956.000,A,3747.6812,N,12215.4591,W,2.34,130.51,300412,,,D*70
$GPVTG,130.51,T,,M,2.34,N,4.3,K,D*0C
$GPGGA,211957.000,3747.6809,N,12215.4583,W,2,05,2.3,10.0,M,-25.1,M,,0000*55
$GPGSA,A,3,07,13,10,20,32,,,,,,,,3.9,2.3,3.2*3F
$GPRMC,211957.000,A,3747.6809,N,12215.4583,W,2.19,118.69,300412,,,D*76
$GPVTG,118.69,T,,M,2.19,N,4.1,K,D*00
$GPGGA,211958.000,3747.6805,N,12215.4579,W,2,05,2.3,9.7,M,-25.1,M,,0000*6C
$GPGSA,A,3,07,13,10,20,32,,,,,,,,3.9,2.3,3.2*3F
$GPRMC,211958.000,A,3747.6805,N,12215.4579,W,2.23,135.58,300412,,,D*74
$GPVTG,135.58,T,,M,2.23,N,4.1,K,D*04
$GPGGA,211959.000,3747.6803,N,12215.4570,W,2,05,2.3,10.0,M,-25.1,M,,0000*5D
$GPGSA,A,3,07,13,10,20,32,,,,,,,,3.9,2.3,3.2*3F
$GPGSV,3,1,12,23,70,062,27,13,60,330,24,07,46,265,32,16,44,058,18*7B
$GPGSV,3,2,12,20,34,179,37,10,33,307,27,30,20,043,16,03,17,110,21*72
$GPGSV,3,3,12,32,16,160,38,06,14,094,22,08,13,247,31,04,08,273,*7D
$GPVTG,126.44,T,,M,2.20,N,4.1,K,D*08
$GPGGA,212000.000,3747.6798,N,12215.4565,W,2,05,2.3,9.7,M,-25.1,M,2.8,0000*49
$GPGSA,A,3,07,13,10,20,32,,,,,,,,3.9,2.3,3.2*3F
$GPRMC,212000.000,A,3747.6798,N,12215.4565,W,2.31,127.37,300412,,,D*7C
$GPVTG,127.37,T,,M,2.31,N,4.3,K,D*0F
$GPGGA,212001.000,3747.6795,N,12215.4558,W,2,05,2.3,9.8,M,-25.1,M,3.8,0000*45
$GPGSA,A,3,07,13,10,20,32,,,,,,,,3.9,2.3,3.2*3F
$GPRMC,212001.000,A,3747.6795,N,12215.4558,W,2.39,118.62,300412,,,D*7A
$GPVTG,118.62,T,,M,2.39,N,4.4,K,D*0C
$GPGGA,212002.000,3747.6793,N,12215.4547,W,2,05,2.3,10.4,M,-25.1,M,4.8,0000*7D
$GPGSA,A,3,07,13,10,20,32,,,,,,,,3.9,2.3,3.2*3F
$GPRMC,212002.000,A,3747.6793,N,12215.4547,W,2.46,110.20,300412,,,D*77
$GPVTG,110.20,T,,M,2.46,N,4.6,K,D*08
$GPGGA,212003.000,3747.6791,N,12215.4538,W,2,05,2.3,10.8,M,-25.1,M,,0000*58
$GPGSA,A,3,07,13,10,20,32,,,,,,,,3.9,2.3,3.2*3F
$GPRMC,212003.000,A,3747.6791,N,12215.4538,W,2.42,120.60,300412,,,D*7F
$GPVTG,120.60,T,,M,2.42,N,4.5,K,D*08
$GPGGA,212004.000,3747.6785,N,12215.4536,W,2,05,2.3,10.2,M,-25.1,M,,0000*5E
$GPGSA,A,3,07,13,10,20,32,,,,,,,,3.9,2.3,3.2*3F
$GPGSV,3,1,12,23,70,062,27,13,60,330,23,07,46,265,33,16,44,058,17*72
$GPGSV,3,2,12,20,34,179,37,10,33,307,27,30,20,043,16,03,17,110,22*71
$GPGSV,3,3,12,32,16,160,35,06,14,094,17,08,13,247,31,04,08,273,*76
$GPRMC,212004.000,A,3747.6785,N,12215.4536,W,2.13,126.74,300412,,,D*74
$GPVTG,126.74,T,,M,2.13,N,3.9,K,D*04
$GPGGA,212005.000,3747.6784,N,12215.4528,W,2,05,2.3,10.2,M,-25.1,M,2.8,0000*75
$GPGSA,A,3,07,13,10,20,32,,,,,,,,3.9,2.3,3.2*3F
$GPRMC,212005.000,A,3747.6784,N,12215.4528,W,2.21,120.18,300412,,,D*76
$GPVTG,120.18,T,,M,2.21,N,4.1,K,D*06
$GPGGA,212006.000,3747.6777,N,12215.4528,W,2,05,2.3,9.4,M,-25.1,M,3.8,0000*45
$GPGSA,A,3,07,13,10,20,32,,,,,,,,3.9,2.3,3.2*3F
$GPRMC,212006.000,A,3747.6777,N,12215.4528,W,2.00,127.31,300412,,,D*76
$GPVTG,127.31,T,,M,2.00,N,3.7,K,D*08
$GPGGA,212007.000,3747.6771,N,12215.4525,W,2,05,2.3,9.5,M,-25.1,M,4.8,0000*49
$GPGSA,A,3,07,13,10,20,32,,,,,,,,3.9,2.3,3.2*3F
$GPRMC,212007.000,A,3747.6771,N,12215.4525,W,1.89,135.65,300412,,,D*7C
$GPVTG,135.65,T,,M,1.89,N,3.5,K,D*0A
$GPGGA,212008.000,3747.6764,N,12215.4523,W,2,05,2.3,9.7,M,-25.1,M,5.8,0000*47
$GPGSA,A,3,07,13,10,20,32,,,,,,,,3.9,2.3,3.2*3F
$GPRMC,212008.000,A,3747.6764,N,12215.4523,W,2.00,129.60,300412,,,D*7B
$GPVTG,129.60,T,,M,2.00,N,3.7,K,D*02
$GPGGA,212009.000,3747.6760,N,12215.4519,W,2,05,2.3,9.5,M,-25.1,M,,0000*6A
$GPGSA,A,3,07,13,10,20,32,,,,,,,,3.9,2.3,3.2*3F
$GPGSV,3,1,12,23,70,062,26,13,60,330,23,07,46,265,32,16,44,058,26*70
$GPGSV,3,2,12,20,34,179,34,10,33,307,26,30,20,043,16,03,17,110,22*73
$GPGSV,3,3,12,32,16,160,34,06,14,094,19,08,13,247,27,04,08,273,*7E
$GPRMC,212009.000,A,3747.6760,N,12215.4519,W,2.11,132.45,300412,,,D*7A
$GPVTG,132.45,T,,M,2.11,N,3.9,K,D*01
$GPGGA,212010.000,3747.6750,N,12215.4515,W,2,05,2.3,11.0,M,-25.1,M,,0000*51
$GPGSA,A,3,07,13,10,20,32,,,,,,,,3.9,2.3,3.2*3F
$GPRMC,212010.000,A,3747.6750,N,12215.4515,W,2.52,142.48,300412,,,D*70
$GPVTG,142.48,T,,M,2.52,N,4.7,K,D*05
$GPGGA,212011.000,3747.6742,N,12215.4509,W,2,05,2.3,12.0,M,-25.1,M,,0000*5D
$GPGSA,A,3,07,13,10,20,32,,,,,,,,3.9,2.3,3.2*3F
$GPRMC,212011.000,A,3747.6742,N,12215.4509,W,2.71,139.67,300412,,,D*7F
$GPVTG,139.67,T,,M,2.71,N,5.0,K,D*03
$GPGGA,212012.000,3747.6739,N,12215.4497,W,2,05,2.3,13.1,M,-25.1,M,2.8,0000*70
$GPGSA,A,3,07,13,10,20,32,,,,,,,,3.9,2.3,3.2*3F
$GPRMC,212012.000,A,3747.6739,N,12215.4497,W,2.76,122.18,300412,,,D*73
$GPVTG,122.18,T,,M,2.76,N,5.1,K,D*07
$GPGGA,212013.000,3747.6729,N,12215.4492,W,2,05,2.3,14.3,M,-25.1,M,3.8,0000*71
$GPGSA,A,3,07,13,10,20,32,,,,,,,,3.9,2.3,3.2*3F
$GPRMC,212013.000,A,3747.6729,N,12215.4492,W,3.00,122.67,300412,,,D*7E
$GPVTG,122.67,T,,M,3.00,N,5.6,K,D*08
$GPGGA,212014.000,3747.6724,N,12215.4483,W,2,05,2.3,15.5,M,-25.1,M,4.8,0000*7B
$GPGSA,A,3,07,13,10,20,32,,,,,,,,3.9,2.3,3.2*3F
$GPGSV,3,1,12,23,70,062,26,13,60,330,23,07,46,265,32,16,44,058,25*73
$GPGSV,3,2,12,20,34,179,35,10,33,307,26,30,20,043,25,03,17,110,21*71
$GPGSV,3,3,12,32,16,160,34,06,14,094,21,08,13,247,31,04,08,273,*72
$GPVTG,116.86,T,,M,2.67,N,5.0,K,D*06
$GPGGA,212015.000,3747.6717,N,12215.4481,W,2,05,2.3,15.1,M,-25.1,M,,0000*5E
$GPGSA,A,3,07,13,10,20,32,,,,,,,,3.9,2.3,3.2*3F
$GPRMC,212015.000,A,3747.6717,N,12215.4481,W,2.59,128.63,300412,,,D*74
$GPVTG,128.63,T,,M,2.59,N,4.8,K,D*04
$GPGGA,212016.000,3747.6714,N,12215.4473,W,2,05,2.3,14.9,M,-25.1,M,,0000*5A
$GPGSA,A,3,07,13,10,20,32,,,,,,,,3.9,2.3,3.2*3F
$GPRMC,212016.000,A,3747.6714,N,12215.4473,W,2.43,124.01,300412,,,D*7A
$GPVTG,124.01,T,,M,2.43,N,4.5,K,D*0A
$GPGGA,212017.000,3747.6714,N,12215.4464,W,2,05,2.3,14.5,M,-25.1,M,,0000*51
$GPGSA,A,3,07,13,10,20,32,,,,,,,,3.9,2.3,3.2*3F
$GPRMC,212017.000,A,3747.6714,N,12215.4464,W,2.47,126.36,300412,,,D*7F
$GPVTG,126.36,T,,M,2.47,N,4.6,K,D*0B
$GPGGA,212018.000,3747.6709,N,12215.4455,W,2,05,2.3,15.6,M,-25.1,M,2.8,0000*76
$GPGSA,A,3,07,13,10,20,32,,,,,,,,3.9,2.3,3.2*3F
$GPRMC,212018.000,A,3747.6709,N,12215.4455,W,2.52,119.98,300412,,,D*72
$GPVTG,119.98,T,,M,2.52,N,4.7,K,D*06
$GPGGA,212019.000,3747.6703,N,12215.4456,W,2,05,2.3,13.6,M,-25.1,M,1.8,0000*7B
$GPGSA,A,3,07,13,10,20,32,,,,,,,,3.9,2.3,3.2*3F
$GPGSV,3,1,12,23,70,062,26,13,60,330,23,07,46,265,32,16,44,058,24*72
$GPGSV,3,2,12,20,34,179,36,10,33,307,25,30,20,043,24,03,17,110,21*70
$GPGSV,3,3,12,32,16,160,34,06,14,094,20,08,13,247,30,04,08,273,*72
$GPRMC,212019.000,A,3747.6703,N,12215.4456,W,2.56,122.83,300412,,,D*7C
$GPVTG,122.83,T,,M,2.56,N,4.8,K,D*0F
$GPGGA,212020.000,3747.6695,N,12215.4457,W,2,05,2.3,12.7,M,-25.1,M,2.8,0000*7D
$GPGSA,A,3,07,13,10,20,32,,,,,,,,3.9,2.3,3.2*3F
$GPRMC,212020.000,A,3747.6695,N,12215.4457,W,2.65,140.68,300412,,,D*78
$GPVTG,140.68,T,,M,2.65,N,4.9,K,D*0F
$GPGGA,212021.000,3747.6689,N,12215.4449,W,2,05,2.3,14.0,M,-25.1,M,3.8,0000*7E
$GPGSA,A,3,07,13,10,20,32,,,,,,,,3.9,2.3,3.2*3F
$GPRMC,212021.000,A,3747.6689,N,12215.4449,W,1.90,118.59,300412,,,D*7D
$GPVTG,118.59,T,,M,1.90,N,3.5,K,D*02
$GPGGA,212022.000,3747.6683,N,12215.4442,W,2,05,2.3,15.6,M,-25.1,M,1.8,0000*79
$GPGSA,A,3,07,13,10,20,32,,,,,,,,3.9,2.3,3.2*3F
$GPRMC,212022.000,A,3747.6683,N,12215.4442,W,2.44,115.44,300412,,,D*74
$GPVTG,115.44,T,,M,2.44,N,4.5,K,D*0E
$GPGGA,212023.000,3747.6677,N,12215.4432,W,2,05,2.3,18.2,M,-25.1,M,2.8,0000*7E
$GPGSA,A,3,07,13,10,20,32,,,,,,,,3.9,2.3,3.2*3F
$GPRMC,212023.000,A,3747.6677,N,12215.4432,W,2.26,145.07,300412,,,D*7F
$GPVTG,145.07,T,,M,2.26,N,4.2,K,D*0F
$GPGGA,212024.000,3747.6672,N,12215.4427,W,2,05,2.3,18.2,M,-25.1,M,3.8,0000*79
$GPGSA,A,3,07,13,10,20,32,,,,,,,,3.9,2.3,3.2*3F
$GPGSV,3,1,12,23,70,062,27,13,60,330,23,07,46,265,32,16,44,058,16*72
$GPGSV,3,2,12,20,34,179,38,10,33,307,20,30,20,043,24,03,17,110,21*7B
$GPGSV,3,3,12,32,16,160,34,06,14,094,20,08,13,247,31,04,08,273,*73
$GPRMC,212024.000,A,3747.6672,N,12215.4427,W,2.47,132.15,300412,,,D*7D
$GPVTG,132.15,T,,M,2.47,N,4.6,K,D*0F
$GPGGA,212025.000,3747.6667,N,12215.4421,W,2,05,2.3,18.7,M,-25.1,M,4.8,0000*78
$GPGSA,A,3,07,13,10,20,32,,,,,,,,3.9,2.3,3.2*3F
$GPRMC,212025.000,A,3747.6667,N,12215.4421,W,2.43,124.84,300412,,,D*75
$GPVTG,124.84,T,,M,2.43,N,4.5,K,D*07
$GPGGA,212026.000,3747.6670,N,12215.4405,W,2,05,2.3,19.6,M,-25.1,M,1.8,0000*7E
$GPGSA,A,3,07,13,10,20,32,,,,,,,,3.9,2.3,3.2*3F
$GPRMC,212026.000,A,3747.6670,N,12215.4405,W,2.44,120.44,300412,,,D*79
$GPVTG,120.44,T,,M,2.44,N,4.5,K,D*08
$GPGGA,212027.000,3747.6668,N,12215.4392,W,2,05,2.3,21.0,M,-25.1,M,1.8,0000*72
$GPGSA,A,3,07,13,10,20,32,,,,,,,,3.9,2.3,3.2*3F
$GPRMC,212027.000,A,3747.6668,N,12215.4392,W,2.81,113.08,300412,,,D*79
$GPVTG,113.08,T,,M,2.81,N,5.2,K,D*0F
$GPGGA,212028.000,3747.6665,N,12215.4386,W,2,05,2.3,21.1,M,-25.1,M,2.8,0000*77
$GPGSA,A,3,07,13,10,20,32,,,,,,,,3.9,2.3,3.2*3F
$GPRMC,212028.000,A,3747.6665,N,12215.4386,W,2.42,111.18,300412,,,D*72
$GPVTG,111.18,T,,M,2.42,N,4.5,K,D*05
$GPGGA,212029.000,3747.6659,N,12215.4379,W,2,05,2.3,23.0,M,-25.1,M,1.8,0000*79
$GPGSA,A,3,07,13,10,20,32,,,,,,,,3.9,2.3,3.2*3F
$GPGSV,3,1,12,23,70,062,27,13,60,330,23,07,46,265,32,16,44,058,19*7D
$GPGSV,3,2,12,20,34,179,37,10,33,307,24,30,20,043,15,03,17,110,21*72
$GPRMC,212029.000,A,3747.6659,N,12215.4379,W,2.39,108.01,300412,,,D*70
$GPVTG,108.01,T,,M,2.39,N,4.4,K,D*08
$GPGGA,212030.000,3747.6654,N,12215.4370,W,2,05,2.3,25.1,M,-25.1,M,1.8,0000*72
$GPGSA,A,3,07,13,10,20,32,,,,,,,,3.9,2.3,3.2*3F
$GPRMC,212030.000,A,3747.6654,N,12215.4370,W,2.57,111.37,300412,,,D*79
$GPVTG,111.37,T,,M,2.57,N,4.8,K,D*01
$GPGGA,212031.000,3747.6653,N,12215.4358,W,2,05,2.3,26.1,M,-25.1,M,2.8,0000*7E
$GPGSA,A,3,07,13,10,20,32,,,,,,,,3.9,2.3,3.2*3F
$GPRMC,212031.000,A,3747.6653,N,12215.4358,W,2.61,106.19,300412,,,D*7A
$GPVTG,106.19,T,,M,2.61,N,4.8,K,D*0E
$GPGGA,212032.000,3747.6650,N,12215.4348,W,2,05,2.3,27.7,M,-25.1,M,3.8,0000*79
$GPGSA,A,3,07,13,10,20,32,,,,,,,,3.9,2.3,3.2*3F
$GPRMC,212032.000,A,3747.6650,N,12215.4348,W,2.58,117.92,300412,,,D*72
$GPVTG,117.92,T,,M,2.58,N,4.8,K,D*07
$GPGGA,212033.000,3747.6646,N,12215.4349,W,2,05,2.3,25.9,M,-25.1,M,1.8,0000*70
$GPGSA,A,3,07,13,10,20,32,,,,,,,,3.9,2.3,3.2*3F
$GPRMC,212033.000,A,3747.6646,N,12215.4349,W,2.24,124.54,300412,,,D*74
$GPVTG,124.54,T,,M,2.24,N,4.2,K,D*0C
$GPGGA,212034.000,3747.6639,N,12215.4353,W,2,05,2.3,23.9,M,-25.1,M,1.8,0000*72
$GPGSA,A,3,07,13,10,20,32,,,,,,,,3.9,2.3,3.2*3F
$GPGSV,3,1,12,23,70,062,27,13,60,330,23,07,46,265,32,16,44,058,17*73
$GPGSV,3,2,12,20,34,179,36,10,33,307,29,30,20,043,21,03,17,110,22*7A
$GPGSV,3,3,12,32,16,160,28,06,14,094,20,08,13,247,33,04,08,273,*7C
$GPRMC,212034.000,A,3747.6639,N,12215.4353,W,2.08,142.39,300412,,,D*75
$GPVTG,142.39,T,,M,2.08,N,3.9,K,D*05
$GPGGA,212035.000,3747.6635,N,12215.4353,W,2,05,2.3,22.2,M,-25.1,M,1.8,0000*75
$GPGSA,A,3,07,13,10,20,32,,,,,,,,3.9,2.3,3.2*3F
$GPRMC,212035.000,A,3747.6635,N,12215.4353,W,2.18,134.95,300412,,,D*7E
$GPVTG,134.95,T,,M,2.18,N,4.0,K,D*0D
$GPGGA,212036.000,3747.6629,N,12215.4355,W,2,05,2.3,19.9,M,-25.1,M,1.8,0000*7E
$GPGSA,A,3,07,13,10,20,32,,,,,,,,3.9,2.3,3.2*3F
$GPRMC,212036.000,A,3747.6629,N,12215.4355,W,1.98,148.74,300412,,,D*79
$GPVTG,148.74,T,,M,1.98,N,3.7,K,D*02
$GPGGA,212037.000,3747.6623,N,12215.4360,W,2,05,2.3,16.9,M,-25.1,M,2.8,0000*7F
$GPGSA,A,3,07,13,10,20,32,,,,,,,,3.9,2.3,3.2*3F
$GPRMC,212037.000,A,3747.6623,N,12215.4360,W,1.66,138.99,300412,,,D*71
$GPVTG,138.99,T,,M,1.66,N,3.1,K,D*01
$GPGGA,212038.000,3747.6622,N,12215.4358,W,2,05,2.3,15.3,M,-25.1,M,3.8,0000*72
$GPGSA,A,3,07,13,10,20,32,,,,,,,,3.9,2.3,3.2*3F
$GPRMC,212038.000,A,3747.6622,N,12215.4358,W,1.24,111.22,300412,,,D*79
$GPVTG,111.22,T,,M,1.24,N,2.3,K,D*0F
$GPGGA,212039.000,3747.6622,N,12215.4346,W,2,05,2.3,16.0,M,-25.1,M,1.8,0000*7E
$GPGSA,A,3,07,13,10,20,32,,,,,,,,3.9,2.3,3.2*3F
$GPGSV,3,1,12,23,70,062,27,13,60,330,23,07,46,265,32,16,44,058,20*77
$GPGSV,3,2,12,20,34,179,34,10,33,307,27,30,20,043,11,03,17,110,19*7D
$GPGSV,3,3,12,32,16,160,35,06,14,094,16,08,13,247,30,04,08,273,*76
$GPRMC,212039.000,A,3747.6622,N,12215.4346,W,1.90,114.53,300412,,,D*7B
$GPVTG,114.53,T,,M,1.90,N,3.5,K,D*04
$GPGGA,212040.000,3747.6614,N,12215.4340,W,2,05,2.3,17.6,M,-25.1,M,2.8,0000*77
$GPGSA,A,3,07,13,10,20,32,,,,,,,,3.9,2.3,3.2*3F
$GPRMC,212040.000,A,3747.6614,N,12215.4340,W,2.27,131.57,300412,,,D*7A
$GPVTG,131.57,T,,M,2.27,N,4.2,K,D*08
$GPGGA,212041.000,3747.6605,N,12215.4332,W,2,05,2.3,19.3,M,-25.1,M,3.8,0000*79
$GPGSA,A,3,07,13,10,20,32,,,,,,,,3.9,2.3,3.2*3F
$GPRMC,212041.000,A,3747.6605,N,12215.4332,W,2.36,128.50,300412,,,D*71
$GPVTG,128.50,T,,M,2.36,N,4.4,K,D*01
$GPGGA,212042.000,3747.6601,N,12215.4328,W,2,05,2.3,18.4,M,-25.1,M,4.8,0000*74
$GPGSA,A,3,07,13,10,20,32,,,,,,,,3.9,2.3,3.2*3F
$GPRMC,212042.000,A,3747.6601,N,12215.4328,W,2.30,116.25,300412,,,D*74
$GPVTG,116.25,T,,M,2.30,N,4.3,K,D*0F
$GPGGA,212043.000,3747.6596,N,12215.4331,W,2,05,2.3,15.9,M,-25.1,M,1.8,0000*75
$GPGSA,A,3,07,13,10,20,32,,,,,,,,3.9,2.3,3.2*3F
$GPRMC,212043.000,A,3747.6596,N,12215.4331,W,2.07,107.93,300412,,,D*79
$GPVTG,107.93,T,,M,2.07,N,3.8,K,D*0A
$GPGGA,212044.000,3747.6592,N,12215.4327,W,2,05,2.3,15.2,M,-25.1,M,1.8,0000*7A
$GPGSA,A,3,07,13,10,20,32,,,,,,,,3.9,2.3,3.2*3F
$GPGSV,3,1,12,23,70,062,27,13,60,330,22,07,46,265,32,16,44,058,21*77
$GPGSV,3,2,12,20,34,179,36,10,33,307,23,30,20,043,16,03,17,110,26*70
$GPGSV,3,3,12,32,16,160,35,06,14,094,18,08,13,247,31,04,08,273,*79
$GPRMC,212044.000,A,3747.6592,N,12215.4327,W,2.26,104.66,300412,,,D*77
$GPVTG,104.66,T,,M,2.26,N,4.2,K,D*0D
$GPGGA,212045.000,3747.6587,N,12215.4335,W,2,05,2.3,11.3,M,-25.1,M,1.8,0000*79
$GPGSA,A,3,07,13,10,20,32,,,,,,,,3.9,2.3,3.2*3F
$GPRMC,212045.000,A,3747.6587,N,12215.4335,W,1.93,140.99,300412,,,D*7C
$GPVTG,140.99,T,,M,1.93,N,3.6,K,D*03
$GPGGA,212046.000,3747.6579,N,12215.4339,W,2,05,2.3,9.3,M,-25.1,M,1.8,0000*4E
$GPGSA,A,3,07,13,10,20,32,,,,,,,,3.9,2.3,3.2*3F
$GPRMC,212046.000,A,3747.6579,N,12215.4339,W,1.88,146.85,300412,,,D*73
$GPVTG,146.85,T,,M,1.88,N,3.5,K,D*01
$GPGGA,212047.000,3747.6574,N,12215.4332,W,2,05,2.3,10.1,M,-25.1,M,1.8,0000*73
$GPGSA,A,3,07,13,10,20,32,,,,,,,,3.9,2.3,3.2*3F
$GPRMC,212047.000,A,3747.6574,N,12215.4332,W,1.61,131.56,300412,,,D*7D
$GPVTG,131.56,T,,M,1.61,N,3.0,K,D*0D
$GPGGA,212048.000,3747.6572,N,12215.4324,W,2,05,2.3,10.1,M,-25.1,M,2.8,0000*7E
$GPGSA,A,3,07,13,10,20,32,,,,,,,,3.9,2.3,3.2*3F
$GPRMC,212048.000,A,3747.6572,N,12215.4324,W,2.06,121.88,300412,,,D*73
$GPVTG,121.88,T,,M,2.06,N,3.8,K,D*05
$GPGGA,212049.000,3747.6571,N,12215.4309,W,2,05,2.3,11.7,M,-25.1,M,3.8,0000*75
$GPGSA,A,3,07,13,10,20,32,,,,,,,,3.9,2.3,3.2*3F
$GPGSV,3,1,12,23,70,062,26,13,60,330,23,07,46,265,32,16,44,058,22*74
$GPGSV,3,2,12,20,34,179,36,10,33,307,24,30,20,043,18,03,17,110,23*7C
$GPGSV,3,3,12,32,16,160,36,06,14,094,19,08,13,247,31,04,08,273,*7B
$GPRMC,212049.000,A,3747.6571,N,12215.4309,W,2.04,123.59,300412,,,D*72
$GPGGA,212050.000,3747.6565,N,12215.4304,W,2,05,2.3,12.4,M,-25.1,M,4.8,0000*72
$GPGSA,A,3,07,13,10,20,32,,,,,,,,3.9,2.3,3.2*3F
$GPRMC,212050.000,A,3747.6565,N,12215.4304,W,2.15,127.74,300412,,,D*79
$GPVTG,127.74,T,,M,2.15,N,4.0,K,D*0D
$GPGGA,212051.000,3747.6558,N,12215.4299,W,2,05,2.3,13.1,M,-25.1,M,1.8,0000*79
$GPGSA,A,3,07,13,10,20,32,,,,,,,,3.9,2.3,3.2*3F
$GPRMC,212051.000,A,3747.6558,N,12215.4299,W,2.02,121.00,300412,,,D*70
$GPVTG,121.00,T,,M,2.02,N,3.7,K,D*0E
$GPGGA,212052.000,3747.6554,N,12215.4294,W,2,06,1.8,13.1,M,-25.1,M,1.8,0000*70
$GPGSA,A,3,07,08,13,10,20,32,,,,,,,3.2,1.8,2.6*31
$GPRMC,212052.000,A,3747.6554,N,12215.4294,W,1.80,123.20,300412,,,D*7B
$GPVTG,123.20,T,,M,1.80,N,3.3,K,D*03
$GPGGA,212053.000,3747.6546,N,12215.4300,W,2,06,1.8,10.7,M,-25.1,M,1.8,0000*7B
$GPGSA,A,3,07,08,13,10,20,32,,,,,,,3.2,1.8,2.6*31
$GPRMC,212053.000,A,3747.6546,N,12215.4300,W,2.05,115.55,300412,,,D*7C
$GPVTG,115.55,T,,M,2.05,N,3.8,K,D*01
$GPGGA,212054.000,3747.6543,N,12215.4295,W,2,06,1.8,10.3,M,-25.1,M,2.8,0000*73
$GPGSA,A,3,07,08,13,10,20,32,,,,,,,3.2,1.8,2.6*31
$GPGSV,3,1,12,23,70,063,27,13,60,331,23,07,47,266,32,16,44,058,26*73
$GPGSV,3,2,12,20,34,179,36,10,34,306,24,30,20,043,18,03,17,109,22*73
$GPGSV,3,3,12,32,16,160,35,06,14,093,18,08,13,248,31,04,08,272,*70
$GPRMC,212054.000,A,3747.6543,N,12215.4295,W,2.05,104.83,300412,,,D*78
$GPVTG,104.83,T,,M,2.05,N,3.8,K,D*0A
$GPGGA,212055.000,3747.6537,N,12215.4295,W,2,06,1.8,9.3,M,-25.1,M,3.8,0000*48
$GPGSA,A,3,07,08,13,10,20,32,,,,,,,3.2,1.8,2.6*31
$GPRMC,212055.000,A,3747.6537,N,12215.4295,W,2.02,129.44,300412,,,D*79
$GPVTG,129.44,T,,M,2.02,N,3.7,K,D*06
$GPGGA,212056.000,3747.6529,N,12215.4289,W,2,06,1.8,10.8,M,-25.1,M,4.8,0000*7D
$GPGSA,A,3,07,08,13,10,20,32,,,,,,,3.2,1.8,2.6*31
$GPRMC,212056.000,A,3747.6529,N,12215.4289,W,2.16,128.52,300412,,,D*7B
$GPVTG,128.52,T,,M,2.16,N,4.0,K,D*05
$GPGGA,212057.000,3747.6525,N,12215.4283,W,2,06,1.8,10.6,M,-25.1,M,1.8,0000*71
$GPGSA,A,3,07,08,13,10,20,32,,,,,,,3.2,1.8,2.6*31
$GPRMC,212057.000,A,3747.6525,N,12215.4283,W,2.13,133.68,300412,,,D*7A
$GPVTG,133.68,T,,M,2.13,N,3.9,K,D*0D
$GPGGA,212058.000,3747.6523,N,12215.4275,W,2,06,1.8,10.6,M,-25.1,M,1.8,0000*71
$GPGSA,A,3,07,08,13,10,20,32,,,,,,,3.2,1.8,2.6*31
$GPRMC,212058.000,A,3747.6523,N,12215.4275,W,2.15,133.65,300412,,,D*71
$GPVTG,133.65,T,,M,2.15,N,4.0,K,D*08
$GPGGA,212059.000,3747.6522,N,12215.4265,W,2,06,1.8,10.8,M,-25.1,M,1.8,0000*7E
$GPGSA,A,3,07,08,13,10,20,32,,,,,,,3.2,1.8,2.6*31
$GPGSV,3,1,12,23,70,063,27,13,60,331,24,07,47,266,32,16,44,058,21*73
$GPGSV,3,2,12,20,34,179,37,10,34,306,26,30,20,043,17,03,17,109,15*7B
$GPGSV,3,3,12,32,16,160,35,06,14,093,18,08,13,248,31,04,08,272,*70
$GPRMC,212059.000,A,3747.6522,N,12215.4265,W,2.09,117.34,300412,,,D*7F
$GPVTG,117.34,T,,M,2.09,N,3.9,K,D*09
$GPGGA,212100.000,3747.6519,N,12215.4260,W,2,06,1.8,10.4,M,-25.1,M,2.8,0000*71
$GPGSA,A,3,07,08,13,10,20,32,,,,,,,3.2,1.8,2.6*31
$GPRMC,212100.000,A,3747.6519,N,12215.4260,W,2.10,108.60,300412,,,D*78
$GPVTG,108.60,T,,M,2.10,N,3.9,K,D*0E
$GPGGA,212101.000,3747.6510,N,12215.4261,W,2,06,1.8,9.5,M,-25.1,M,3.8,0000*40
$GPGSA,A,3,07,08,13,10,20,32,,,,,,,3.2,1.8,2.6*31
$GPRMC,212101.000,A,3747.6510,N,12215.4261,W,2.21,129.50,300412,,,D*73
$GPVTG,129.50,T,,M,2.21,N,4.1,K,D*03
$GPGGA,212102.000,3747.6502,N,12215.4260,W,2,06,1.8,9.4,M,-25.1,M,4.8,0000*47
$GPGSA,A,3,07,08,13,10,20,32,,,,,,,3.2,1.8,2.6*31
$GPRMC,212102.000,A,3747.6502,N,12215.4260,W,2.08,120.07,300412,,,D*72
$GPVTG,120.07,T,,M,2.08,N,3.8,K,D*0D
$GPGGA,212103.000,3747.6495,N,12215.4255,W,2,06,1.8,10.5,M,-25.1,M,1.8,0000*73
$GPGSA,A,3,07,08,13,10,20,32,,,,,,,3.2,1.8,2.6*31
$GPRMC,212103.000,A,3747.6495,N,12215.4255,W,2.21,109.49,300412,,,D*70
$GPVTG,109.49,T,,M,2.21,N,4.1,K,D*09
$GPGGA,212104.000,3747.6491,N,12215.4250,W,2,06,1.8,10.4,M,-25.1,M,1.8,0000*74
$GPGSA,A,3,07,08,13,10,20,32,,,,,,,3.2,1.8,2.6*31
$GPGSV,3,1,12,23,70,063,27,13,60,331,24,07,47,266,33,16,44,058,21*72
$GPGSV,3,2,12,20,34,179,37,10,34,306,28,30,20,043,17,03,17,109,16*76
$GPGSV,3,3,12,32,16,160,36,06,14,093,19,08,13,248,28,04,08,272,*7A
$GPRMC,212104.000,A,3747.6491,N,12215.4250,W,1.97,118.16,300412,,,D*72
$GPVTG,118.16,T,,M,1.97,N,3.6,K,D*0D
$GPGGA,212105.000,3747.6483,N,12215.4251,W,2,06,1.8,10.3,M,-25.1,M,2.8,0000*73
$GPGSA,A,3,07,08,13,10,20,32,,,,,,,3.2,1.8,2.6*31
$GPRMC,212105.000,A,3747.6483,N,12215.4251,W,1.90,129.53,300412,,,D*75
$GPVTG,129.53,T,,M,1.90,N,3.5,K,D*0A
$GPGGA,212106.000,3747.6481,N,12215.4246,W,2,06,1.8,9.3,M,-25.1,M,1.8,0000*4F
$GPGSA,A,3,07,08,13,10,20,32,,,,,,,3.2,1.8,2.6*31
$GPRMC,212106.000,A,3747.6481,N,12215.4246,W,1.91,122.51,300412,,,D*7A
$GPVTG,122.51,T,,M,1.91,N,3.5,K,D*02
$GPGGA,212107.000,3747.6475,N,12215.4243,W,2,06,1.8,9.3,M,-25.1,M,2.8,0000*43
$GPGSA,A,3,07,08,13,10,20,32,,,,,,,3.2,1.8,2.6*31
$GPRMC,212107.000,A,3747.6475,N,12215.4243,W,2.21,130.58,300412,,,D*77
$GPVTG,130.58,T,,M,2.21,N,4.1,K,D*03
$GPGGA,212108.000,3747.6468,N,12215.4241,W,2,06,1.8,8.9,M,-25.1,M,3.8,0000*48
$GPGSA,A,3,07,08,13,10,20,32,,,,,,,3.2,1.8,2.6*31
$GPRMC,212108.000,A,3747.6468,N,12215.4241,W,2.00,134.58,300412,,,D*71
$GPVTG,134.58,T,,M,2.00,N,3.7,K,D*05
$GPGGA,212109.000,3747.6462,N,12215.4236,W,2,06,1.8,10.0,M,-25.1,M,1.8,0000*71
$GPGSA,A,3,07,08,13,10,20,32,,,,,,,3.2,1.8,2.6*31
$GPGSV,3,1,12,23,70,063,27,13,60,331,23,07,47,266,32,16,44,058,20*75
$GPGSV,3,2,12,20,34,179,37,10,34,306,25,30,20,043,18,03,17,109,16*74
$GPGSV,3,3,12,32,16,160,31,06,14,093,28,08,13,248,29,04,08,272,*7E
$GPRMC,212109.000,A,3747.6462,N,12215.4236,W,1.97,116.13,300412,,,D*78
$GPGGA,212110.000,3747.6459,N,12215.4234,W,2,05,2.3,11.0,M,-25.1,M,1.8,0000*79
$GPGSA,A,3,07,13,10,20,32,,,,,,,,3.9,2.3,3.2*3F
$GPRMC,212110.000,A,3747.6459,N,12215.4234,W,1.19,114.83,300412,,,D*77
$GPVTG,114.83,T,,M,1.19,N,2.2,K,D*0E
$GPGGA,212111.000,3747.6456,N,12215.4232,W,2,05,2.3,11.1,M,-25.1,M,2.8,0000*73
$GPGSA,A,3,07,08,13,20,32,,,,,,,,3.9,2.3,3.2*36
$GPRMC,212111.000,A,3747.6456,N,12215.4232,W,1.36,159.46,300412,,,D*72
$GPVTG,159.46,T,,M,1.36,N,2.5,K,D*04
$GPGGA,212112.000,3747.6446,N,12215.4232,W,2,06,1.8,13.3,M,-25.1,M,3.8,0000*7B
$GPGSA,A,3,07,08,13,10,20,32,,,,,,,3.2,1.8,2.6*31
$GPRMC,212112.000,A,3747.6446,N,12215.4232,W,1.29,154.15,300412,,,D*75
$GPVTG,154.15,T,,M,1.29,N,2.4,K,D*00
$GPGGA,212113.000,3747.6447,N,12215.4221,W,2,06,1.8,14.6,M,-25.1,M,4.8,0000*7C
$GPGSA,A,3,07,08,13,10,20,32,,,,,,,3.2,1.8,2.6*31
$GPRMC,212113.000,A,3747.6447,N,12215.4221,W,0.67,77.56,300412,,,D*4B
$GPVTG,77.56,T,,M,0.67,N,1.2,K,D*39
$GPGGA,212114.000,3747.6446,N,12215.4216,W,2,06,1.8,17.8,M,-25.1,M,1.8,0000*76
$GPGSA,A,3,07,08,13,10,20,32,,,,,,,3.2,1.8,2.6*31
$GPGSV,3,1,12,23,70,063,27,13,60,331,24,07,47,266,28,16,44,058,26*7F
$GPGSV,3,2,12,20,34,179,35,10,34,306,19,30,20,043,17,03,17,109,16*76
$GPGSV,3,3,12,32,16,160,33,06,14,093,30,08,13,248,28,04,08,272,*74
$GPRMC,212114.000,A,3747.6446,N,12215.4216,W,0.63,53.16,300412,,,D*4F
$GPVTG,53.16,T,,M,0.63,N,1.2,K,D*3F
$GPGGA,212115.000,3747.6445,N,12215.4216,W,2,06,1.8,18.1,M,-25.1,M,1.8,0000*72
$GPGSA,A,3,07,08,13,10,20,32,,,,,,,3.2,1.8,2.6*31
$GPRMC,212115.000,A,3747.6445,N,12215.4216,W,0.69,143.90,300412,,,D*79
$GPVTG,143.90,T,,M,0.69,N,1.3,K,D*0A
$GPGGA,212116.000,3747.6441,N,12215.4217,W,2,06,1.8,19.0,M,-25.1,M,1.8,0000*74
$GPGSA,A,3,07,08,13,10,20,32,,,,,,,3.2,1.8,2.6*31
$GPRMC,212116.000,A,3747.6441,N,12215.4217,W,0.74,191.29,300412,,,D*7E
$GPVTG,191.29,T,,M,0.74,N,1.4,K,D*0C
$GPGGA,212117.000,3747.6437,N,12215.4219,W,2,06,1.8,19.7,M,-25.1,M,1.8,0000*7D
$GPGSA,A,3,07,08,13,10,20,32,,,,,,,3.2,1.8,2.6*31
$GPRMC,212117.000,A,3747.6437,N,12215.4219,W,0.93,195.51,300412,,,D*72
$GPVTG,195.51,T,,M,0.93,N,1.7,K,D*0D
$GPGGA,212118.000,3747.6434,N,12215.4222,W,2,06,1.8,21.8,M,-25.1,M,1.8,0000*7D
$GPGSA,A,3,07,08,13,10,20,32,,,,,,,3.2,1.8,2.6*31
$GPRMC,212118.000,A,3747.6434,N,12215.4222,W,0.60,182.75,300412,,,D*7A
$GPVTG,182.75,T,,M,0.60,N,1.1,K,D*07
$GPGGA,212119.000,3747.6442,N,12215.4215,W,2,06,1.8,20.5,M,-25.1,M,2.8,0000*76
$GPGSA,A,3,07,08,13,10,20,32,,,,,,,3.2,1.8,2.6*31
$GPGSV,3,1,12,23,70,063,28,13,60,331,24,07,47,266,30,16,44,058,20*7F
$GPGSV,3,2,12,20,34,179,36,10,34,306,20,30,20,043,18,03,17,109,16*70
$GPGSV,3,3,12,32,16,160,33,06,14,093,29,08,13,248,30,04,08,272,*75
$GPRMC,212119.000,A,3747.6442,N,12215.4215,W,0.41,116.88,300412,,,D*72
$GPVTG,116.88,T,,M,0.41,N,0.8,K,D*03
$GPGGA,212120.000,3747.6443,N,12215.4216,W,2,06,1.8,20.2,M,-25.1,M,3.8,0000*78
$GPGSA,A,3,07,08,13,10,20,32,,,,,,,3.2,1.8,2.6*31
$GPRMC,212120.000,A,3747.6443,N,12215.4216,W,0.40,180.66,300412,,,D*74
$GPVTG,180.66,T,,M,0.40,N,0.7,K,D*02
$GPGGA,212121.000,3747.6436,N,12215.4222,W,2,06,1.8,21.9,M,-25.1,M,1.8,0000*74
$GPGSA,A,3,07,08,13,10,20,32,,,,,,,3.2,1.8,2.6*31
$GPRMC,212121.000,A,3747.6436,N,12215.4222,W,0.69,214.47,300412,,,D*76
$GPVTG,214.47,T,,M,0.69,N,1.3,K,D*01
$GPGGA,212122.000,3747.6432,N,12215.4224,W,2,06,1.8,23.5,M,-25.1,M,1.8,0000*7B
$GPGSA,A,3,07,08,13,10,20,32,,,,,,,3.2,1.8,2.6*31
$GPRMC,212122.000,A,3747.6432,N,12215.4224,W,0.67,193.48,300412,,,D*7A
$GPVTG,193.48,T,,M,0.67,N,1.2,K,D*0D
$GPGGA,212123.000,3747.6431,N,12215.4221,W,2,06,1.9,24.3,M,-25.1,M,2.8,0000*7F
$GPGSA,A,3,07,08,13,10,20,32,,,,,,,3.2,1.9,2.6*30
$GPRMC,212123.000,A,3747.6431,N,12215.4221,W,0.45,160.50,300412,,,D*78
$GPVTG,160.50,T,,M,0.45,N,0.8,K,D*03
$GPGGA,212124.000,3747.6430,N,12215.4221,W,2,05,2.6,24.5,M,-25.1,M,3.8,0000*71
$GPGSA,A,3,07,08,13,10,20,,,,,,,,4.6,2.6,3.8*31
$GPGSV,3,1,12,23,70,063,34,13,60,331,25,07,47,266,24,16,44,058,28*7E
$GPGSV,3,2,12,20,34,179,32,10,34,306,21,30,20,043,16,03,17,109,15*78
$GPGSV,3,3,12,32,16,160,17,06,14,093,35,08,13,248,26,04,08,272,*79
$GPVTG,139.94,T,,M,0.32,N,0.6,K,D*09
$GPGGA,212125.000,3747.6428,N,12215.4222,W,2,06,1.9,25.7,M,-25.1,M,4.8,0000*71
$GPGSA,A,3,07,08,13,10,20,32,,,,,,,3.2,1.9,2.6*30
$GPRMC,212125.000,A,3747.6428,N,12215.4222,W,0.63,176.81,300412,,,D*7A
$GPVTG,176.81,T,,M,0.63,N,1.2,K,D*07
$GPGGA,212126.000,3747.6428,N,12215.4220,W,2,05,2.3,24.4,M,-25.1,M,5.8,0000*79
$GPGSA,A,3,07,13,10,20,32,,,,,,,,3.9,2.3,3.2*3F
$GPRMC,212126.000,A,3747.6428,N,12215.4220,W,0.66,164.12,300412,,,D*77
$GPVTG,164.12,T,,M,0.66,N,1.2,K,D*0B
$GPGGA,212127.000,3747.6417,N,12215.4228,W,2,05,2.3,26.1,M,-25.1,M,6.8,0000*78
$GPGSA,A,3,07,13,10,20,32,,,,,,,,3.9,2.3,3.2*3F
$GPRMC,212127.000,A,3747.6417,N,12215.4228,W,1.58,201.12,300412,,,D*7E
$GPVTG,201.12,T,,M,1.58,N,2.9,K,D*0F
$GPGGA,212128.000,3747.6415,N,12215.4229,W,2,06,1.9,25.5,M,-25.1,M,7.8,0000*78
$GPGSA,A,3,07,08,13,10,20,32,,,,,,,3.2,1.9,2.6*30
$GPRMC,212128.000,A,3747.6415,N,12215.4229,W,0.87,210.01,300412,,,D*73
$GPVTG,210.01,T,,M,0.87,N,1.6,K,D*02
$GPGGA,212129.000,3747.6418,N,12215.4230,W,2,06,1.9,24.4,M,-25.1,M,8.8,0000*73
$GPGSA,A,3,07,08,13,10,20,32,,,,,,,3.2,1.9,2.6*30
$GPGSV,3,1,12,23,70,063,29,13,60,331,21,07,47,266,25,16,44,058,28*77
$GPGSV,3,2,12,20,34,179,34,10,34,306,21,30,20,043,,03,17,109,14*78
$GPGSV,3,3,12,32,16,160,34,06,14,093,28,08,13,248,28,04,08,272,*7A
$GPRMC,212129.000,A,3747.6418,N,12215.4230,W,0.38,201.62,300412,,,D*76
$GPVTG,201.62,T,,M,0.38,N,0.7,K,D*03
$GPGGA,212130.000,3747.6417,N,12215.4227,W,2,04,3.6,25.5,M,-25.1,M,9.8,0000*7C
$GPGSA,A,3,13,10,20,32,,,,,,,,,5.0,3.6,3.5*34
$GPRMC,212130.000,A,3747.6417,N,12215.4227,W,0.49,115.39,300412,,,D*79
$GPVTG,115.39,T,,M,0.49,N,0.9,K,D*03
$GPGGA,212131.000,3747.6416,N,12215.4221,W,2,04,3.6,27.2,M,-25.1,M,10.8,0000*47
$GPGSA,A,3,13,10,20,32,,,,,,,,,5.0,3.6,3.5*34
$GPRMC,212131.000,A,3747.6416,N,12215.4221,W,0.53,82.03,300412,,,D*42
$GPVTG,82.03,T,,M,0.53,N,1.0,K,D*36
$GPGGA,212132.000,3747.6422,N,12215.4210,W,2,04,3.6,28.2,M,-25.1,M,11.8,0000*4F
$GPGSA,A,3,13,10,20,32,,,,,,,,,5.0,3.6,3.5*34
$GPRMC,212132.000,A,3747.6422,N,12215.4210,W,1.08,47.40,300412,,,D*45
$GPVTG,47.40,T,,M,1.08,N,2.0,K,D*34
$GPGGA,212133.000,3747.6423,N,12215.4206,W,2,04,3.6,28.7,M,-25.1,M,12.8,0000*4E
$GPGSA,A,3,13,10,20,32,,,,,,,,,5.0,3.6,3.5*34
$GPRMC,212133.000,A,3747.6423,N,12215.4206,W,0.66,47.90,300412,,,D*46
$GPVTG,47.90,T,,M,0.66,N,1.2,K,D*31
$GPGGA,212134.000,3747.6426,N,12215.4196,W,2,04,3.6,29.6,M,-25.1,M,13.8,0000*47
$GPGSA,A,3,13,10,20,32,,,,,,,,,5.0,3.6,3.5*34
$GPGSV,3,1,12,23,70,063,27,13,60,331,23,07,47,266,,16,44,058,31*74
$GPGSV,3,2,12,20,34,179,33,10,34,306,12,30,20,043,11,03,17,109,*7A
$GPGSV,3,3,12,32,16,160,25,06,14,093,28,08,13,248,,04,08,272,*70
$GPRMC,212134.000,A,3747.6426,N,12215.4196,W,1.04,84.94,300412,,,D*40
$GPVTG,84.94,T,,M,1.04,N,1.9,K,D*34
$GPGGA,212135.000,3747.6428,N,12215.4191,W,2,03,5.2,29.3,M,-25.1,M,14.8,0000*48
$GPGSA,A,2,13,20,32,,,,,,,,,,5.3,5.2,1.0*32
$GPRMC,212135.000,A,3747.6428,N,12215.4191,W,0.89,85.25,300412,,,D*47
$GPVTG,85.25,T,,M,0.89,N,1.6,K,N*3E
$GPGGA,212136.000,3747.6428,N,12215.4188,W,2,03,5.2,28.9,M,-25.1,M,15.8,0000*49
$GPGSA,A,2,13,20,32,,,,,,,,,,5.3,5.2,1.0*32
$GPRMC,212136.000,A,3747.6428,N,12215.4188,W,0.83,98.99,300412,,,D*4D
$GPVTG,98.99,T,,M,0.83,N,1.5,K,N*3C
$GPGGA,212137.000,3747.6431,N,12215.4181,W,2,03,5.2,28.9,M,-25.1,M,16.8,0000*4A
$GPGSA,A,2,13,20,32,,,,,,,,,,5.3,5.2,1.0*32
$GPRMC,212137.000,A,3747.6431,N,12215.4181,W,0.88,98.49,300412,,,D*4B
$GPVTG,98.49,T,,M,0.88,N,1.6,K,N*39
$GPGGA,212138.000,3747.6438,N,12215.4169,W,2,04,2.7,29.2,M,-25.1,M,17.8,0000*44
$GPGSA,A,3,08,13,20,32,,,,,,,,,4.8,2.7,3.9*38
$GPRMC,212138.000,A,3747.6438,N,12215.4169,W,0.77,49.98,300412,,,D*4B
$GPVTG,49.98,T,,M,0.77,N,1.4,K,D*31
$GPGGA,212139.000,3747.6436,N,12215.4175,W,1,04,2.7,28.3,M,-25.1,M,,0000*55
$GPGSA,A,3,08,13,20,32,,,,,,,,,4.8,2.7,3.9*38
$GPGSV,3,1,12,23,70,063,28,13,60,331,24,07,47,266,17,16,44,058,32*79
$GPGSV,3,2,12,20,34,179,34,10,34,306,,30,20,043,22,03,17,109,*7E
$GPGSV,3,3,12,32,16,160,32,06,14,093,28,08,13,248,30,04,08,272,*75
$GPVTG,189.74,T,,M,0.43,N,0.8,K,A*01
$GPGGA,212140.000,3747.6441,N,12215.4171,W,1,04,2.7,27.8,M,-25.1,M,,0000*5B
$GPGSA,A,3,08,13,20,32,,,,,,,,,4.8,2.7,3.9*38
$GPRMC,212140.000,A,3747.6441,N,12215.4171,W,0.30,39.00,300412,,,A*43
$GPVTG,39.00,T,,M,0.30,N,0.6,K,A*32
$GPGGA,212141.000,3747.6444,N,12215.4168,W,1,04,2.7,27.5,M,-25.1,M,,0000*5A
$GPGSA,A,3,08,13,20,32,,,,,,,,,4.8,2.7,3.9*38
$GPRMC,212141.000,A,3747.6444,N,12215.4168,W,0.26,123.00,300412,,,A*72
$GPVTG,123.00,T,,M,0.26,N,0.5,K,A*0C
$GPGGA,212142.000,3747.6450,N,12215.4165,W,1,04,2.7,26.5,M,-25.1,M,,0000*50
$GPGSA,A,3,08,13,20,32,,,,,,,,,4.8,2.7,3.9*38
$GPRMC,212142.000,A,3747.6450,N,12215.4165,W,0.35,73.00,300412,,,A*4F
$GPVTG,73.00,T,,M,0.35,N,0.6,K,A*39
$GPGGA,212143.000,3747.6461,N,12215.4154,W,1,04,2.7,25.9,M,-25.1,M,,0000*5E
$GPGSA,A,3,08,13,20,32,,,,,,,,,4.8,2.7,3.9*38
$GPRMC,212143.000,A,3747.6461,N,12215.4154,W,0.40,57.22,300412,,,A*4A
$GPVTG,57.22,T,,M,0.40,N,0.7,K,A*3C
$GPGGA,212144.000,3747.6460,N,12215.4176,W,1,05,2.3,26.6,M,-25.1,M,,0000*51
$GPGSA,A,3,08,13,07,20,32,,,,,,,,3.9,2.3,3.2*36
$GPGSV,3,1,12,23,70,063,29,13,60,331,25,07,47,266,20,16,44,058,32*7D
$GPGSV,3,2,12,20,34,179,34,10,34,306,,30,20,043,22,03,17,109,*7E
$GPGSV,3,3,12,32,16,160,33,06,14,093,28,08,13,248,30,04,08,272,*74
$GPRMC,212144.000,A,3747.6460,N,12215.4176,W,0.24,28.22,300412,,,A*46
$GPVTG,28.22,T,,M,0.24,N,0.4,K,A*35
$GPGGA,212145.000,3747.6460,N,12215.4179,W,1,06,1.9,27.5,M,-25.1,M,,0000*57
$GPGSA,A,3,10,08,13,07,20,32,,,,,,,3.2,1.9,2.6*30
$GPRMC,212145.000,A,3747.6460,N,12215.4179,W,0.44,42.27,300412,,,A*47
$GPVTG,42.27,T,,M,0.44,N,0.8,K,A*36
$GPGGA,212146.000,3747.6465,N,12215.4173,W,1,05,2.3,25.9,M,-25.1,M,,0000*5F
$GPGSA,A,3,08,13,07,20,32,,,,,,,,3.9,2.3,3.2*36
$GPRMC,212146.000,A,3747.6465,N,12215.4173,W,0.62,42.17,300412,,,A*4C
$GPVTG,42.17,T,,M,0.62,N,1.1,K,A*39
$GPGGA,212147.000,3747.6462,N,12215.4177,W,1,06,1.9,25.7,M,-25.1,M,,0000*59
$GPGSA,A,3,10,08,13,07,20,32,,,,,,,3.2,1.9,2.6*30
$GPRMC,212147.000,A,3747.6462,N,12215.4177,W,1.07,54.92,300412,,,A*46
$GPVTG,54.92,T,,M,1.07,N,2.0,K,A*33
$GPGGA,212148.000,3747.6467,N,12215.4182,W,1,06,1.9,22.1,M,-25.1,M,,0000*58
$GPGSA,A,3,10,08,13,07,20,32,,,,,,,3.2,1.9,2.6*30
$GPRMC,212148.000,A,3747.6467,N,12215.4182,W,0.30,118.40,300412,,,A*75
$GPVTG,118.40,T,,M,0.30,N,0.5,K,A*07
$GPGGA,212149.000,3747.6462,N,12215.4188,W,1,05,2.3,21.3,M,-25.1,M,,0000*5D
$GPGSA,A,3,08,13,07,20,32,,,,,,,,3.9,2.3,3.2*36
$GPGSV,3,1,12,23,70,065,26,13,61,332,22,07,47,266,33,16,43,057,21*79
$GPGSV,3,2,12,10,34,306,,20,33,179,34,30,20,043,21,03,17,109,*7A
$GPGSV,3,3,12,32,15,160,33,06,14,093,19,08,14,248,28,04,08,272,*7B
$GPRMC,212149.000,A,3747.6462,N,12215.4188,W,0.33,43.61,300412,,,A*44
$GPVTG,43.61,T,,M,0.33,N,0.6,K,A*3B
$GPGGA,212150.000,3747.6467,N,12215.4182,W,1,06,1.9,20.5,M,-25.1,M,,0000*57
$GPGSA,A,3,10,08,13,07,20,32,,,,,,,3.2,1.9,2.6*30
$GPRMC,212150.000,A,3747.6467,N,12215.4182,W,0.97,48.10,300412,,,A*40
$GPVTG,48.10,T,,M,0.97,N,1.8,K,A*37
$GPGGA,212151.000,3747.6471,N,12215.4175,W,1,06,1.9,19.1,M,-25.1,M,,0000*57
$GPGSA,A,3,10,08,13,07,20,32,,,,,,,3.2,1.9,2.6*30
$GPRMC,212151.000,A,3747.6471,N,12215.4175,W,1.02,46.10,300412,,,A*4D
$GPVTG,46.10,T,,M,1.02,N,1.9,K,A*35
$GPGGA,212152.000,3747.6470,N,12215.4173,W,1,06,1.9,19.3,M,-25.1,M,,0000*51
$GPGSA,A,3,10,08,13,07,20,32,,,,,,,3.2,1.9,2.6*30
$GPRMC,212152.000,A,3747.6470,N,12215.4173,W,0.55,64.30,300412,,,A*48
$GPVTG,64.30,T,,M,0.55,N,1.0,K,A*3D
$GPGGA,212153.000,3747.6476,N,12215.4167,W,1,06,1.9,17.7,M,-25.1,M,,0000*59
$GPGSA,A,3,10,08,13,07,20,32,,,,,,,3.2,1.9,2.6*30
$GPRMC,212153.000,A,3747.6476,N,12215.4167,W,0.87,85.40,300412,,,A*4D
$GPVTG,85.40,T,,M,0.87,N,1.6,K,A*3C
$GPGGA,212154.000,3747.6476,N,12215.4166,W,1,06,1.9,16.7,M,-25.1,M,,0000*5E
$GPGSA,A,3,10,08,13,07,20,32,,,,,,,3.2,1.9,2.6*30
$GPGSV,3,1,12,23,70,065,30,13,61,332,26,07,47,266,27,16,43,057,32*7D
$GPGSV,3,2,12,10,34,306,23,20,33,179,29,30,20,043,29,03,17,109,*7F
$GPGSV,3,3,12,32,15,160,33,06,14,093,26,08,14,248,21,04,08,272,*7E
$GPVTG,81.74,T,,M,0.99,N,1.8,K,A*3E
$GPGGA,212155.000,3747.6472,N,12215.4162,W,1,06,1.9,17.2,M,-25.1,M,,0000*5B
$GPGSA,A,3,10,08,13,07,20,32,,,,,,,3.2,1.9,2.6*30
$GPRMC,212155.000,A,3747.6472,N,12215.4162,W,0.64,81.28,300412,,,A*4D
$GPVTG,81.28,T,,M,0.64,N,1.2,K,A*3F
$GPGGA,212156.000,3747.6469,N,12215.4157,W,1,06,1.9,17.9,M,-25.1,M,,0000*5F
$GPGSA,A,3,10,08,13,07,20,32,,,,,,,3.2,1.9,2.6*30
$GPRMC,212156.000,A,3747.6469,N,12215.4157,W,1.03,81.46,300412,,,A*4A
$GPVTG,81.46,T,,M,1.03,N,1.9,K,A*3C
$GPGGA,212157.000,3747.6469,N,12215.4149,W,1,06,1.9,19.3,M,-25.1,M,,0000*55
$GPGSA,A,3,10,08,13,07,20,32,,,,,,,3.2,1.9,2.6*30
$GPRMC,212157.000,A,3747.6469,N,12215.4149,W,1.22,64.20,300412,,,A*4C
$GPVTG,64.20,T,,M,1.22,N,2.3,K,A*3D
$GPGGA,212158.000,3747.6470,N,12215.4149,W,1,06,1.9,18.5,M,-25.1,M,,0000*55
$GPGSA,A,3,10,08,13,07,20,32,,,,,,,3.2,1.9,2.6*30
$GPRMC,212158.000,A,3747.6470,N,12215.4149,W,0.96,80.58,300412,,,A*40
$GPVTG,80.58,T,,M,0.96,N,1.8,K,A*3E
$GPGGA,212159.000,3747.6464,N,12215.4150,W,1,06,1.9,19.0,M,-25.1,M,,0000*5D
$GPGSA,A,3,10,08,13,07,20,32,,,,,,,3.2,1.9,2.6*30
$GPGSV,3,1,12,23,70,065,28,13,61,332,24,07,47,266,34,16,43,057,22*75
$GPGSV,3,2,12,10,34,306,28,20,33,179,34,30,20,043,24,03,17,109,*75
$GPGSV,3,3,12,32,15,160,33,06,14,093,20,08,14,248,31,04,08,272,*79
$GPRMC,212159.000,A,3747.6464,N,12215.4150,W,1.40,125.98,300412,,,A*74
$GPVTG,125.98,T,,M,1.40,N,2.6,K,A*0B
$GPGGA,212200.000,3747.6458,N,12215.4147,W,1,06,1.9,20.2,M,-25.1,M,,0000*53
$GPGSA,A,3,10,08,13,07,20,32,,,,,,,3.2,1.9,2.6*30
$GPRMC,212200.000,A,3747.6458,N,12215.4147,W,1.85,127.60,300412,,,A*7E
$GPVTG,127.60,T,,M,1.85,N,3.4,K,A*04
$GPGGA,212201.000,3747.6454,N,12215.4148,W,1,06,1.9,20.3,M,-25.1,M,,0000*50
$GPGSA,A,3,10,08,13,07,20,32,,,,,,,3.2,1.9,2.6*30
$GPRMC,212201.000,A,3747.6454,N,12215.4148,W,0.76,87.44,300412,,,A*4C
$GPVTG,87.44,T,,M,0.76,N,1.4,K,A*36
$GPGGA,212202.000,3747.6450,N,12215.4152,W,1,06,1.9,20.4,M,-25.1,M,,0000*5B
$GPGSA,A,3,10,08,13,07,20,32,,,,,,,3.2,1.9,2.6*30
$GPRMC,212202.000,A,3747.6450,N,12215.4152,W,0.45,95.82,300412,,,A*49
$GPVTG,95.82,T,,M,0.45,N,0.8,K,A*32
$GPGGA,212203.000,3747.6448,N,12215.4152,W,1,06,1.9,20.5,M,-25.1,M,,0000*52
$GPGSA,A,3,10,08,13,07,20,32,,,,,,,3.2,1.9,2.6*30
$GPRMC,212203.000,A,3747.6448,N,12215.4152,W,0.60,117.26,300412,,,A*73
$GPVTG,117.26,T,,M,0.60,N,1.1,K,A*08
$GPGGA,212204.000,3747.6448,N,12215.4155,W,1,06,1.9,19.9,M,-25.1,M,,0000*54
$GPGSA,A,3,10,08,13,07,20,32,,,,,,,3.2,1.9,2.6*30
$GPGSV,3,1,12,23,70,065,30,13,61,332,32,07,47,266,33,16,43,057,27*79
$GPGSV,3,2,12,10,34,306,35,20,33,179,22,30,20,043,15,03,17,109,*7C
$GPGSV,3,3,12,32,15,160,23,06,14,093,10,08,14,248,31,04,08,272,*7B
$GPRMC,212204.000,A,3747.6448,N,12215.4155,W,0.68,166.74,300412,,,A*7A
$GPVTG,166.74,T,,M,0.68,N,1.3,K,A*03
$GPGGA,212205.000,3747.6447,N,12215.4152,W,1,06,1.9,19.1,M,-25.1,M,,0000*55
$GPGSA,A,3,10,08,13,07,20,32,,,,,,,3.2,1.9,2.6*30
$GPRMC,212205.000,A,3747.6447,N,12215.4152,W,1.49,123.77,300412,,,A*73
$GPVTG,123.77,T,,M,1.49,N,2.8,K,A*0B
$GPGGA,212206.000,3747.6442,N,12215.4149,W,1,05,2.1,20.0,M,-25.1,M,,0000*5A
$GPGSA,A,3,10,08,07,20,32,,,,,,,,3.5,2.1,2.8*30
$GPRMC,212206.000,A,3747.6442,N,12215.4149,W,1.48,122.09,300412,,,A*76
$GPVTG,122.09,T,,M,1.48,N,2.7,K,A*0D
$GPGGA,212207.000,3747.6443,N,12215.4142,W,1,05,2.1,19.5,M,-25.1,M,,0000*5E
$GPGSA,A,3,10,08,07,20,32,,,,,,,,3.5,2.1,2.8*30
$GPRMC,212207.000,A,3747.6443,N,12215.4142,W,2.17,101.66,300412,,,A*7C
$GPVTG,101.66,T,,M,2.17,N,4.0,K,A*0D
$GPGGA,212208.000,3747.6443,N,12215.4134,W,1,06,1.9,19.5,M,-25.1,M,,0000*58
$GPGSA,A,3,10,08,07,20,32,13,,,,,,,3.2,1.9,2.6*30
$GPRMC,212208.000,A,3747.6443,N,12215.4134,W,2.08,101.21,300412,,,A*7F
$GPVTG,101.21,T,,M,2.08,N,3.9,K,A*0E
$GPGGA,212209.000,3747.6445,N,12215.4121,W,1,06,1.9,20.7,M,-25.1,M,,0000*53
$GPGSA,A,3,10,08,07,20,32,13,,,,,,,3.2,1.9,2.6*30
$GPGSV,3,1,12,23,70,065,26,13,61,332,21,07,47,266,32,16,43,057,25*7F
$GPGSV,3,2,12,10,34,306,25,20,33,179,37,30,20,043,20,03,17,109,*7F
$GPGSV,3,3,12,32,15,160,36,06,14,093,14,08,14,248,27,04,08,272,*7C
$GPVTG,106.84,T,,M,2.16,N,4.0,K,A*07
$GPGGA,212210.000,3747.6442,N,12215.4113,W,1,06,1.9,22.1,M,-25.1,M,,0000*59
$GPGSA,A,3,10,08,07,20,32,13,,,,,,,3.2,1.9,2.6*30
$GPRMC,212210.000,A,3747.6442,N,12215.4113,W,2.05,110.40,300412,,,A*78
$GPVTG,110.40,T,,M,2.05,N,3.8,K,A*05
$GPGGA,212211.000,3747.6437,N,12215.4111,W,1,06,1.9,21.8,M,-25.1,M,,0000*52
$GPGSA,A,3,10,08,07,20,32,13,,,,,,,3.2,1.9,2.6*30
$GPRMC,212211.000,A,3747.6437,N,12215.4111,W,1.63,128.50,300412,,,A*70
$GPVTG,128.50,T,,M,1.63,N,3.0,K,A*04
$GPGGA,212212.000,3747.6434,N,12215.4107,W,1,06,1.9,21.6,M,-25.1,M,,0000*5B
$GPGSA,A,3,10,08,07,20,32,13,,,,,,,3.2,1.9,2.6*30
$GPRMC,212212.000,A,3747.6434,N,12215.4107,W,1.49,132.66,300412,,,A*71
$GPVTG,132.66,T,,M,1.49,N,2.8,K,A*0B
$GPGGA,212213.000,3747.6429,N,12215.4110,W,1,06,1.9,20.2,M,-25.1,M,,0000*55
$GPGSA,A,3,10,08,07,20,32,13,,,,,,,3.2,1.9,2.6*30
$GPRMC,212213.000,A,3747.6429,N,12215.4110,W,1.62,147.96,300412,,,A*7E
$GPVTG,147.96,T,,M,1.62,N,3.0,K,A*06
$GPGGA,212214.000,3747.6427,N,12215.4103,W,1,06,1.9,20.4,M,-25.1,M,,0000*58
$GPGSA,A,3,10,08,07,20,32,13,,,,,,,3.2,1.9,2.6*30
$GPGSV,3,1,12,23,70,065,27,13,61,332,21,07,47,266,32,16,43,057,16*7E
$GPGSV,3,2,12,10,34,306,25,20,33,179,36,30,20,043,19,03,17,109,*74
$GPGSV,3,3,12,32,15,160,35,06,14,093,13,08,14,248,23,04,08,272,*7C
$GPRMC,212214.000,A,3747.6427,N,12215.4103,W,2.00,123.00,300412,,,A*7F
$GPVTG,123.00,T,,M,2.00,N,3.7,K,A*0B
$GPGGA,212215.000,3747.6424,N,12215.4098,W,2,06,1.9,20.0,M,-25.1,M,2.8,0000*7A
$GPGSA,A,3,10,08,07,20,32,13,,,,,,,3.2,1.9,2.6*30
$GPRMC,212215.000,A,3747.6424,N,12215.4098,W,1.76,126.65,300412,,,D*7F
$GPVTG,126.65,T,,M,1.76,N,3.3,K,D*0E
$GPGGA,212216.000,3747.6420,N,12215.4093,W,2,06,1.9,20.0,M,-25.1,M,2.8,0000*76
$GPGSA,A,3,10,08,07,20,32,13,,,,,,,3.2,1.9,2.6*30
