$ADVER,3080,2.3
$GPRMC,200934.846,A,3747.6957,N,12215.4711,W,0.21,84.14,300412,,,A*48
$GPGGA,200935.846,3747.6958,N,12215.4710,W,1,04,2.4,15.1,M,-25.1,M,,0000*57
$GPGSA,A,3,32,04,13,07,,,,,,,,,5.1,2.4,4.5*31
$GPGSV,3,1,11,23,63,331,,32,48,151,40,13,36,298,37,07,22,236,42*74
$GPGSV,3,2,11,04,14,302,37,20,68,192,37,16,47,108,,30,42,068,*78
$GPGSV,3,3,11,31,09,049,,10,07,317,,01,06,200,*49
$GPRMC,200935.846,A,3747.6958,N,12215.4710,W,0.31,79.22,300412,,,A*41
$GPVTG,79.22,T,,M,0.31,N,0.6,K,A*37
$GPGGA,200936.845,3747.6957,N,12215.4704,W,1,05,2.3,11.7,M,-25.1,M,,0000*59
$GPGSA,A,3,32,23,04,13,07,,,,,,,,4.0,2.3,3.2*37
$GPRMC,200936.845,A,3747.6957,N,12215.4704,W,0.34,82.54,300412,,,A*4B
$GPVTG,82.54,T,,M,0.34,N,0.6,K,A*37
$GPGGA,200938.000,3747.6958,N,12215.4705,W,1,05,2.3,12.8,M,-25.1,M,,0000*5C
$GPGSA,A,3,32,23,04,13,07,,,,,,,,4.0,2.3,3.2*37
$GPRMC,200938.000,A,3747.6958,N,12215.4705,W,0.34,68.13,300412,,,A*45
$GPVTG,68.13,T,,M,0.34,N,0.6,K,A*30
$GPGGA,200939.000,3747.6959,N,12215.4703,W,1,04,2.4,12.8,M,-25.1,M,,0000*5C
$GPGSA,A,3,32,04,13,07,,,,,,,,,5.1,2.4,4.5*31
$GPRMC,200939.000,A,3747.6959,N,12215.4703,W,0.30,71.65,300412,,,A*4E
$GPVTG,71.65,T,,M,0.30,N,0.6,K,A*3D
$GPGGA,200940.000,3747.6959,N,12215.4702,W,1,05,2.3,12.4,M,-25.1,M,,0000*59
$GPGSA,A,3,32,23,04,13,07,,,,,,,,4.0,2.3,3.3*36
$GPRMC,200940.000,A,3747.6959,N,12215.4702,W,0.28,80.84,300412,,,A*49
$GPVTG,80.84,T,,M,0.28,N,0.5,K,A*36
$GPGGA,200941.000,3747.6958,N,12215.4697,W,1,05,2.3,9.2,M,-25.1,M,,0000*68
$GPGSA,A,3,32,23,04,13,07,,,,,,,,4.0,2.3,3.3*36
$GPGSV,3,1,12,23,63,331,26,32,48,151,35,13,36,298,38,07,22,236,41*7D
$GPGSV,3,2,12,04,14,302,36,20,68,192,37,16,47,108,36,30,42,068,*7F
$GPGSV,3,3,12,31,09,049,,10,07,317,27,01,06,200,32,48,00,000,40*76
$GPRMC,200941.000,A,3747.6958,N,12215.4697,W,0.36,74.29,300412,,,A*47
$GPGGA,200942.000,3747.6958,N,12215.4696,W,1,05,2.3,9.3,M,-25.1,M,,0000*6B
$GPGSA,A,3,32,23,04,13,07,,,,,,,,4.0,2.3,3.3*36
$GPRMC,200942.000,A,3747.6958,N,12215.4696,W,0.33,74.10,300412,,,A*4A
$GPVTG,74.10,T,,M,0.33,N,0.6,K,A*39
$GPGGA,200943.000,3747.6958,N,12215.4692,W,1,05,2.3,7.3,M,-25.1,M,,0000*60
$GPGSA,A,3,32,23,04,13,07,,,,,,,,4.0,2.3,3.3*36
$GPRMC,200943.000,A,3747.6958,N,12215.4692,W,0.37,76.96,300412,,,A*47
$GPVTG,76.96,T,,M,0.37,N,0.7,K,A*30
$GPGGA,200944.000,3747.6959,N,12215.4694,W,1,05,2.3,8.9,M,-25.1,M,,0000*65
$GPGSA,A,3,32,23,04,13,07,,,,,,,,4.0,2.3,3.3*36
$GPRMC,200944.000,A,3747.6959,N,12215.4694,W,0.26,68.01,300412,,,A*46
$GPVTG,68.01,T,,M,0.26,N,0.5,K,A*33
$GPGGA,200945.000,3747.6960,N,12215.4698,W,1,05,2.3,11.7,M,-25.1,M,,0000*54
$GPGSA,A,3,32,23,04,13,07,,,,,,,,4.0,2.3,3.3*36
$GPRMC,200945.000,A,3747.6960,N,12215.4698,W,0.29,42.24,300412,,,A*41
$GPVTG,42.24,T,,M,0.29,N,0.5,K,A*33
$GPGGA,200946.000,3747.6961,N,12215.4699,W,1,05,2.3,12.7,M,-25.1,M,,0000*54
$GPGSA,A,3,32,23,04,13,07,,,,,,,,4.0,2.3,3.3*36
$GPGSV,3,1,12,23,63,331,31,32,48,151,41,13,36,298,37,07,22,236,41*77
$GPGSV,3,2,12,04,14,302,36,20,68,192,38,16,47,108,35,30,42,068,*73
$GPGSV,3,3,12,31,09,049,,10,07,317,27,01,06,200,33,48,00,000,43*74
$GPRMC,200946.000,A,3747.6961,N,12215.4699,W,0.23,59.45,300412,,,A*45
$GPVTG,59.45,T,,M,0.23,N,0.4,K,A*35
$GPGGA,200947.000,3747.6961,N,12215.4699,W,1,05,2.3,13.6,M,-25.1,M,,0000*55
$GPGSA,A,3,32,23,04,13,07,,,,,,,,4.0,2.3,3.3*36
$GPRMC,200947.000,A,3747.6961,N,12215.4699,W,0.18,87.78,300412,,,A*41
$GPVTG,87.78,T,,M,0.18,N,0.3,K,A*37
$GPGGA,200948.000,3747.6961,N,12215.4700,W,1,05,2.3,14.2,M,-25.1,M,,0000*58
$GPGSA,A,3,32,23,04,13,07,,,,,,,,4.0,2.3,3.3*36
$GPRMC,200948.000,A,3747.6961,N,12215.4700,W,0.22,85.56,300412,,,A*48
$GPVTG,85.56,T,,M,0.22,N,0.4,K,A*37
$GPGGA,200949.000,3747.6961,N,12215.4700,W,1,05,2.3,14.7,M,-25.1,M,,0000*5C
$GPGSA,A,3,32,23,04,13,07,,,,,,,,4.0,2.3,3.3*36
$GPRMC,200949.000,A,3747.6961,N,12215.4700,W,0.17,79.80,300412,,,A*47
$GPVTG,79.80,T,,M,0.17,N,0.3,K,A*3E
$GPGGA,200950.000,3747.6962,N,12215.4700,W,1,05,2.3,14.9,M,-25.1,M,,0000*59
$GPGSA,A,3,32,23,04,13,07,,,,,,,,4.0,2.3,3.3*36
$GPRMC,200950.000,A,3747.6962,N,12215.4700,W,0.25,87.20,300412,,,A*46
$GPVTG,87.20,T,,M,0.25,N,0.5,K,A*32
$GPGGA,200951.000,3747.6962,N,12215.4700,W,1,05,2.3,15.7,M,-25.1,M,,0000*57
$GPGSA,A,3,32,23,04,13,07,,,,,,,,4.0,2.3,3.3*36
$GPGSV,3,1,12,23,63,331,23,32,48,151,40,13,36,298,37,07,22,236,39*7A
$GPGSV,3,2,12,04,14,302,35,20,68,192,38,16,47,108,35,30,42,068,*70
$GPGSV,3,3,12,31,09,049,,10,07,317,24,01,06,200,31,48,00,000,43*75
$GPRMC,200951.000,A,3747.6962,N,12215.4700,W,0.19,94.89,300412,,,A*49
$GPVTG,94.89,T,,M,0.19,N,0.4,K,A*3D
$GPGGA,200952.000,3747.6964,N,12215.4699,W,1,06,2.1,16.2,M,-25.1,M,,0000*54
$GPGSA,A,3,32,23,04,13,20,07,,,,,,,3.4,2.1,2.7*30
$GPRMC,200952.000,A,3747.6964,N,12215.4699,W,0.15,63.35,300412,,,A*4E
$GPVTG,63.35,T,,M,0.15,N,0.3,K,A*39
$GPGGA,200953.000,3747.6966,N,12215.4698,W,1,06,2.1,16.4,M,-25.1,M,,0000*50
$GPGSA,A,3,32,23,04,13,20,07,,,,,,,3.4,2.1,2.7*30
$GPRMC,200953.000,A,3747.6966,N,12215.4698,W,0.33,65.61,300412,,,A*4F
$GPVTG,65.61,T,,M,0.33,N,0.6,K,A*3F
$GPGGA,200954.000,3747.6965,N,12215.4701,W,1,06,2.1,18.3,M,-25.1,M,,0000*5C
$GPGSA,A,3,32,23,04,13,20,07,,,,,,,3.4,2.1,2.7*30
$GPRMC,200954.000,A,3747.6965,N,12215.4701,W,0.20,120.67,300412,,,A*7E
$GPVTG,120.67,T,,M,0.20,N,0.4,K,A*09
$GPGGA,200955.000,3747.6964,N,12215.4699,W,1,06,2.1,18.4,M,-25.1,M,,0000*5B
$GPGSA,A,3,32,23,04,13,20,07,,,,,,,3.4,2.1,2.7*30
$GPRMC,200955.000,A,3747.6964,N,12215.4699,W,0.36,164.17,300412,,,A*7E
$GPVTG,164.17,T,,M,0.36,N,0.7,K,A*0A
$GPGGA,200956.000,3747.6963,N,12215.4697,W,1,06,2.1,18.6,M,-25.1,M,,0000*53
$GPGSA,A,3,32,23,04,13,20,07,,,,,,,3.4,2.1,2.7*30
$GPGSV,3,1,12,20,68,192,34,23,63,332,28,32,48,151,40,16,47,108,35*72
$GPGSV,3,2,12,30,42,068,,13,36,298,20,07,22,236,32,04,14,302,17*71
$GPGSV,3,3,12,31,09,049,,10,08,317,,01,06,200,32,48,44,197,35*71
$GPRMC,200956.000,A,3747.6963,N,12215.4697,W,0.40,164.98,300412,,,A*72
$GPGGA,200957.000,3747.6961,N,12215.4699,W,1,05,2.2,19.5,M,-25.1,M,,0000*5C
$GPGSA,A,3,32,04,13,20,07,,,,,,,,3.7,2.2,3.0*37
$GPRMC,200957.000,A,3747.6961,N,12215.4699,W,0.18,359.46,300412,,,A*7D
$GPVTG,359.46,T,,M,0.18,N,0.3,K,A*0A
$GPGGA,200958.000,3747.6959,N,12215.4700,W,1,06,2.1,19.5,M,-25.1,M,,0000*59
$GPGSA,A,3,32,23,04,13,20,07,,,,,,,3.4,2.1,2.7*30
$GPRMC,200958.000,A,3747.6959,N,12215.4700,W,0.05,220.07,300412,,,A*7E
$GPVTG,220.07,T,,M,0.05,N,0.1,K,A*0E
$GPGGA,200959.000,3747.6956,N,12215.4700,W,1,06,2.1,18.9,M,-25.1,M,,0000*5A
$GPGSA,A,3,32,23,04,13,20,07,,,,,,,3.4,2.1,2.7*30
$GPRMC,200959.000,A,3747.6956,N,12215.4700,W,0.08,129.66,300412,,,A*70
$GPVTG,129.66,T,,M,0.08,N,0.1,K,A*0E
$GPGGA,201000.000,3747.6954,N,12215.4700,W,1,06,2.1,18.4,M,-25.1,M,,0000*51
$GPGSA,A,3,32,23,04,13,20,07,,,,,,,3.4,2.1,2.7*30
$GPRMC,201000.000,A,3747.6954,N,12215.4700,W,0.20,123.19,300412,,,A*7E
$GPVTG,123.19,T,,M,0.20,N,0.4,K,A*03
$GPGGA,201001.000,3747.6953,N,12215.4700,W,1,06,2.1,17.9,M,-25.1,M,,0000*55
$GPGSA,A,3,32,23,04,13,20,07,,,,,,,3.4,2.1,2.7*30
$GPGSV,3,1,12,20,68,192,34,23,63,332,29,32,48,151,38,16,47,108,29*71
$GPGSV,3,2,12,30,42,068,,13,36,298,33,07,22,236,39,04,14,302,35*78
$GPGSV,3,3,12,31,09,049,,10,08,317,,01,06,200,32,48,44,197,38*7C
$GPRMC,201001.000,A,3747.6953,N,12215.4700,W,0.15,60.41,300412,,,A*45
$GPVTG,60.41,T,,M,0.15,N,0.3,K,A*39
$GPGGA,201002.000,3747.6952,N,12215.4701,W,1,06,2.1,17.9,M,-25.1,M,,0000*56
$GPGSA,A,3,32,23,04,13,20,07,,,,,,,3.4,2.1,2.7*30
$GPRMC,201002.000,A,3747.6952,N,12215.4701,W,0.27,72.03,300412,,,A*42
$GPVTG,72.03,T,,M,0.27,N,0.5,K,A*3B
$GPGGA,201003.000,3747.6952,N,12215.4702,W,1,06,2.1,17.8,M,-25.1,M,,0000*55
$GPGSA,A,3,32,23,04,13,20,07,,,,,,,3.4,2.1,2.7*30
$GPRMC,201003.000,A,3747.6952,N,12215.4702,W,0.01,102.23,300412,,,A*70
$GPVTG,102.23,T,,M,0.01,N,0.0,K,A*0E
$GPGGA,201004.000,3747.6952,N,12215.4702,W,1,06,2.1,17.7,M,-25.1,M,,0000*5D
$GPGSA,A,3,32,23,04,13,20,07,,,,,,,3.4,2.1,2.7*30
$GPRMC,201004.000,A,3747.6952,N,12215.4702,W,0.15,106.54,300412,,,A*76
$GPVTG,106.54,T,,M,0.15,N,0.3,K,A*0C
$GPGGA,201005.000,3747.6952,N,12215.4703,W,1,06,2.1,17.5,M,-25.1,M,,0000*5F
$GPGSA,A,3,32,23,04,13,20,07,,,,,,,3.4,2.1,2.7*30
$GPRMC,201005.000,A,3747.6952,N,12215.4703,W,0.12,73.81,300412,,,A*4A
$GPVTG,73.81,T,,M,0.12,N,0.2,K,A*31
$GPGGA,201006.000,3747.6953,N,12215.4704,W,1,06,2.1,17.3,M,-25.1,M,,0000*5C
$GPGSA,A,3,32,23,04,13,20,07,,,,,,,3.4,2.1,2.7*30
$GPGSV,3,1,12,20,68,192,34,23,63,332,33,32,48,151,39,16,47,108,33*70
$GPGSV,3,2,12,30,42,068,,13,36,298,39,07,22,236,39,04,14,302,34*73
$GPGSV,3,3,12,31,09,049,,10,08,317,,01,06,200,33,48,44,197,39*7C
$GPRMC,201006.000,A,3747.6953,N,12215.4704,W,0.18,68.30,300412,,,A*45
$GPVTG,68.30,T,,M,0.18,N,0.3,K,A*3A
$GPGGA,201007.000,3747.6953,N,12215.4704,W,1,06,2.1,17.2,M,-25.1,M,,0000*5C
$GPGSA,A,3,32,23,04,13,20,07,,,,,,,3.4,2.1,2.7*30
$GPRMC,201007.000,A,3747.6953,N,12215.4704,W,0.19,78.74,300412,,,A*44
$GPVTG,78.74,T,,M,0.19,N,0.3,K,A*3A
$GPGGA,201008.000,3747.6954,N,12215.4704,W,1,06,2.1,17.1,M,-25.1,M,,0000*57
$GPGSA,A,3,32,23,04,13,20,07,,,,,,,3.4,2.1,2.7*30
$GPRMC,201008.000,A,3747.6954,N,12215.4704,W,0.18,81.77,300412,,,A*48
$GPVTG,81.77,T,,M,0.18,N,0.3,K,A*3E
$GPGGA,201009.000,3747.6954,N,12215.4705,W,1,06,2.1,16.9,M,-25.1,M,,0000*5E
$GPGSA,A,3,32,23,04,13,20,07,,,,,,,3.4,2.1,2.7*30
$GPRMC,201009.000,A,3747.6954,N,12215.4705,W,0.18,82.49,300412,,,A*46
$GPVTG,82.49,T,,M,0.18,N,0.3,K,A*30
$GPGGA,201010.000,3747.6954,N,12215.4704,W,1,06,2.1,16.8,M,-25.1,M,,0000*56
$GPGSA,A,3,32,23,04,13,20,07,,,,,,,3.4,2.1,2.7*30
$GPRMC,201010.000,A,3747.6954,N,12215.4704,W,0.21,74.33,300412,,,A*41
$GPVTG,74.33,T,,M,0.21,N,0.4,K,A*39
$GPGGA,201011.000,3747.6955,N,12215.4704,W,1,06,2.1,16.7,M,-25.1,M,,0000*59
$GPGSA,A,3,32,23,04,13,20,07,,,,,,,3.4,2.1,2.7*30
$GPGSV,3,1,12,20,68,192,34,23,63,332,33,32,48,151,31,16,47,108,27*7D
$GPGSV,3,2,12,30,42,068,,13,36,298,37,07,22,236,40,04,14,302,35*72
$GPGSV,3,3,12,31,09,049,,10,08,317,29,01,06,200,33,48,44,197,34*7A
$GPVTG,75.79,T,,M,0.18,N,0.3,K,A*3B
$GPGGA,201012.000,3747.6955,N,12215.4704,W,1,06,2.1,16.6,M,-25.1,M,,0000*5B
$GPGSA,A,3,32,23,04,13,20,07,,,,,,,3.4,2.1,2.7*30
$GPRMC,201012.000,A,3747.6955,N,12215.4704,W,0.20,71.36,300412,,,A*43
$GPVTG,71.36,T,,M,0.20,N,0.4,K,A*38
$GPGGA,201013.000,3747.6955,N,12215.4704,W,1,06,2.1,16.4,M,-25.1,M,,0000*58
$GPGSA,A,3,32,23,04,13,20,07,,,,,,,3.4,2.1,2.7*30
$GPRMC,201013.000,A,3747.6955,N,12215.4704,W,0.20,70.46,300412,,,A*44
$GPVTG,70.46,T,,M,0.20,N,0.4,K,A*3E
$GPGGA,201014.000,3747.6956,N,12215.4704,W,1,06,2.1,16.3,M,-25.1,M,,0000*5B
$GPGSA,A,3,32,23,04,13,20,07,,,,,,,3.4,2.1,2.7*30
$GPRMC,201014.000,A,3747.6956,N,12215.4704,W,0.20,54.18,300412,,,A*4D
$GPVTG,54.18,T,,M,0.20,N,0.4,K,A*33
$GPGGA,201015.000,3747.6956,N,12215.4704,W,1,06,2.1,16.2,M,-25.1,M,,0000*5B
$GPGSA,A,3,32,23,04,13,20,07,,,,,,,3.4,2.1,2.7*30
$GPRMC,201015.000,A,3747.6956,N,12215.4704,W,0.16,57.63,300412,,,A*46
$GPVTG,57.63,T,,M,0.16,N,0.3,K,A*3E
$GPGGA,201016.000,3747.6956,N,12215.4704,W,1,06,2.1,16.1,M,-25.1,M,,0000*5B
$GPGSA,A,3,32,23,04,13,20,07,,,,,,,3.4,2.1,2.7*30
$GPGSV,3,1,12,20,68,192,33,23,63,332,33,32,48,151,32,16,47,108,26*78
$GPGSV,3,2,12,30,42,068,,13,36,298,36,07,22,236,40,04,14,302,35*73
$GPGSV,3,3,12,31,09,049,,10,08,317,29,01,06,200,33,48,44,197,38*76
$GPRMC,201016.000,A,3747.6956,N,12215.4704,W,0.26,79.35,300412,,,A*49
$GPVTG,79.35,T,,M,0.26,N,0.5,K,A*34
$GPGGA,201017.000,3747.6957,N,12215.4704,W,1,06,2.1,15.9,M,-25.1,M,,0000*50
$GPGSA,A,3,32,23,04,13,20,07,,,,,,,3.4,2.1,2.7*30
$GPRMC,201017.000,A,3747.6957,N,12215.4704,W,0.21,72.97,300412,,,A*4D
$GPVTG,72.97,T,,M,0.21,N,0.4,K,A*31
$GPGGA,201018.000,3747.6957,N,12215.4704,W,1,06,2.1,15.8,M,-25.1,M,,0000*5E
$GPGSA,A,3,32,23,04,13,20,07,,,,,,,3.4,2.1,2.7*30
$GPRMC,201018.000,A,3747.6957,N,12215.4704,W,0.24,87.43,300412,,,A*44
$GPVTG,87.43,T,,M,0.24,N,0.4,K,A*37
$GPGGA,201019.000,3747.6957,N,12215.4704,W,1,06,2.1,15.7,M,-25.1,M,,0000*50
$GPGSA,A,3,32,23,04,13,20,07,,,,,,,3.4,2.1,2.7*30
$GPRMC,201019.000,A,3747.6957,N,12215.4704,W,0.36,121.23,300412,,,A*7D
$GPVTG,121.23,T,,M,0.36,N,0.7,K,A*0C
$GPGGA,201020.000,3747.6956,N,12215.4704,W,1,06,2.1,15.6,M,-25.1,M,,0000*5A
$GPGSA,A,3,32,23,04,13,20,07,,,,,,,3.4,2.1,2.7*30
$GPRMC,201020.000,A,3747.6956,N,12215.4704,W,0.24,105.59,300412,,,A*7E
$GPVTG,105.59,T,,M,0.24,N,0.4,K,A*07
$GPGGA,201021.000,3747.6956,N,12215.4701,W,1,06,2.1,14.8,M,-25.1,M,,0000*51
$GPGSA,A,3,32,23,04,13,20,07,,,,,,,3.4,2.1,2.7*30
$GPGSV,3,1,12,20,68,192,33,23,63,332,32,32,47,151,27,16,47,108,26*72
$GPGSV,3,2,12,30,42,067,,13,36,299,36,07,23,237,40,04,14,302,32*7A
$GPGSV,3,3,12,31,09,049,,10,08,317,25,01,06,200,32,48,44,197,38*7B
$GPRMC,201021.000,A,3747.6956,N,12215.4701,W,0.13,349.57,300412,,,A*7A
$GPVTG,349.57,T,,M,0.13,N,0.2,K,A*01
$GPGGA,201022.000,3747.6957,N,12215.4702,W,1,07,2.0,14.7,M,-25.1,M,,0000*5F
$GPGSA,A,3,32,23,04,13,20,07,01,,,,,,2.9,2.0,2.1*3A
$GPRMC,201022.000,A,3747.6957,N,12215.4702,W,0.42,306.62,300412,,,A*72
$GPVTG,306.62,T,,M,0.42,N,0.8,K,A*02
$GPGGA,201023.000,3747.6957,N,12215.4705,W,1,07,2.0,14.7,M,-25.1,M,,0000*59
$GPGSA,A,3,32,23,04,13,20,07,01,,,,,,2.9,2.0,2.1*3A
$GPRMC,201023.000,A,3747.6957,N,12215.4705,W,0.71,262.04,300412,,,A*77
$GPVTG,262.04,T,,M,0.71,N,1.3,K,A*0B
$GPGGA,201024.000,3747.6956,N,12215.4709,W,1,07,2.0,14.6,M,-25.1,M,,0000*52
$GPGSA,A,3,32,23,04,13,20,07,01,,,,,,2.9,2.0,2.1*3A
$GPRMC,201024.000,A,3747.6956,N,12215.4709,W,1.01,235.46,300412,,,A*7F
$GPVTG,235.46,T,,M,1.01,N,1.9,K,A*03
$GPGGA,201025.000,3747.6955,N,12215.4714,W,1,07,2.0,14.6,M,-25.1,M,,0000*5C
$GPGSA,A,3,32,23,04,13,20,07,01,,,,,,2.9,2.0,2.1*3A
$GPRMC,201025.000,A,3747.6955,N,12215.4714,W,1.53,252.42,300412,,,A*73
$GPVTG,252.42,T,,M,1.53,N,2.8,K,A*03
$GPGGA,201026.000,3747.6955,N,12215.4720,W,1,07,2.0,14.6,M,-25.1,M,,0000*58
$GPGSA,A,3,32,23,04,13,20,07,01,,,,,,2.9,2.0,2.1*3A
$GPGSV,3,1,12,20,68,192,33,23,63,332,36,32,47,151,26,16,47,108,26*77
$GPGSV,3,2,12,30,42,067,,13,36,299,37,07,23,237,40,04,14,302,33*7A
$GPGSV,3,3,12,31,09,049,,10,08,317,29,01,06,200,32,48,44,197,33*7C
$GPVTG,268.39,T,,M,1.42,N,2.6,K,A*08
$GPGGA,201027.000,3747.6954,N,12215.4726,W,1,07,2.0,14.8,M,-25.1,M,,0000*50
$GPGSA,A,3,32,23,04,13,20,07,01,,,,,,2.9,2.0,2.1*3A
$GPRMC,201027.000,A,3747.6954,N,12215.4726,W,0.97,264.07,300412,,,A*7C
$GPVTG,264.07,T,,M,0.97,N,1.8,K,A*0D
$GPGGA,201028.000,3747.6956,N,12215.4734,W,1,07,2.0,15.8,M,-25.1,M,,0000*5F
$GPGSA,A,3,32,23,04,13,20,07,01,,,,,,2.9,2.0,2.1*3A
$GPRMC,201028.000,A,3747.6956,N,12215.4734,W,0.89,285.28,300412,,,A*7F
$GPVTG,285.28,T,,M,0.89,N,1.7,K,A*0F
$GPGGA,201029.000,3747.6955,N,12215.4736,W,1,07,2.0,15.7,M,-25.1,M,,0000*50
$GPGSA,A,3,32,23,04,13,20,07,01,,,,,,2.9,2.0,2.1*3A
$GPRMC,201029.000,A,3747.6955,N,12215.4736,W,0.80,221.01,300412,,,A*73
$GPVTG,221.01,T,,M,0.80,N,1.5,K,A*01
$GPGGA,201030.000,3747.6952,N,12215.4738,W,1,07,2.0,16.0,M,-25.1,M,,0000*55
$GPGSA,A,3,32,23,04,13,20,07,01,,,,,,2.9,2.0,2.1*3A
$GPRMC,201030.000,A,3747.6952,N,12215.4738,W,1.21,206.31,300412,,,A*7E
$GPVTG,206.31,T,,M,1.21,N,2.2,K,A*09
$GPGGA,201031.000,3747.6948,N,12215.4740,W,1,06,2.2,16.2,M,-25.1,M,,0000*51
$GPGSA,A,3,32,23,04,13,07,01,,,,,,,3.4,2.2,2.6*31
$GPGSV,3,1,12,20,68,192,17,23,63,332,29,32,47,151,23,16,47,108,18*77
$GPGSV,3,2,12,30,42,067,,13,36,299,21,07,23,237,31,04,14,302,23*7A
$GPGSV,3,3,12,31,09,049,22,10,08,317,19,01,06,200,25,48,44,197,25*7E
$GPRMC,201031.000,A,3747.6948,N,12215.4740,W,1.24,218.18,300412,,,A*7A
$GPVTG,218.18,T,,M,1.24,N,2.3,K,A*09
$GPGGA,201032.000,3747.6945,N,12215.4743,W,1,07,2.0,16.0,M,-25.1,M,,0000*5D
$GPGSA,A,3,32,23,04,13,20,07,01,,,,,,2.9,2.0,2.1*3A
$GPRMC,201032.000,A,3747.6945,N,12215.4743,W,2.20,204.27,300412,,,A*71
$GPVTG,204.27,T,,M,2.20,N,4.1,K,A*0B
$GPGGA,201033.000,3747.6941,N,12215.4742,W,1,07,2.0,15.8,M,-25.1,M,,0000*52
$GPGSA,A,3,32,23,04,13,20,07,01,,,,,,2.9,2.0,2.1*3A
$GPRMC,201033.000,A,3747.6941,N,12215.4742,W,1.70,191.79,300412,,,A*77
$GPVTG,191.79,T,,M,1.70,N,3.1,K,A*0E
$GPGGA,201034.000,3747.6933,N,12215.4742,W,1,07,2.0,16.4,M,-25.1,M,,0000*5F
$GPGSA,A,3,32,23,04,13,20,07,01,,,,,,2.9,2.0,2.1*3A
$GPRMC,201034.000,A,3747.6933,N,12215.4742,W,1.72,205.47,300412,,,A*74
$GPVTG,205.47,T,,M,1.72,N,3.2,K,A*0C
$GPGGA,201035.000,3747.6929,N,12215.4740,W,1,07,2.0,16.2,M,-25.1,M,,0000*51
$GPGSA,A,3,32,23,04,13,20,07,01,,,,,,2.9,2.0,2.1*3A
$GPRMC,201035.000,A,3747.6929,N,12215.4740,W,1.73,194.80,300412,,,A*7D
$GPVTG,194.80,T,,M,1.73,N,3.2,K,A*0D
$GPGGA,201036.000,3747.6925,N,12215.4733,W,1,07,2.0,15.3,M,-25.1,M,,0000*58
$GPGSA,A,3,32,23,04,13,20,07,01,,,,,,2.9,2.0,2.1*3A
$GPGSV,3,1,11,20,68,192,26,23,63,332,28,32,47,151,25,16,47,108,21*7B
$GPGSV,3,2,11,30,42,067,,13,36,299,27,07,23,237,17,04,14,302,21*79
$GPGSV,3,3,11,31,09,049,13,10,08,317,18,01,06,200,14*48
$GPRMC,201036.000,A,3747.6925,N,12215.4733,W,1.89,189.86,300412,,,A*79
$GPVTG,189.86,T,,M,1.89,N,3.5,K,A*05
$GPGGA,201037.000,3747.6925,N,12215.4722,W,1,07,2.0,13.8,M,-25.1,M,,0000*54
$GPGSA,A,3,32,23,04,13,20,07,01,,,,,,2.9,2.0,2.1*3A
$GPRMC,201037.000,A,3747.6925,N,12215.4722,W,1.59,189.40,300412,,,A*7F
$GPVTG,189.40,T,,M,1.59,N,2.9,K,A*0F
$GPGGA,201038.000,3747.6927,N,12215.4718,W,1,07,2.0,12.8,M,-25.1,M,,0000*51
$GPGSA,A,3,32,23,04,13,20,07,01,,,,,,2.9,2.0,2.1*3A
$GPRMC,201038.000,A,3747.6927,N,12215.4718,W,1.20,201.73,300412,,,A*76
$GPVTG,201.73,T,,M,1.20,N,2.2,K,A*09
$GPGGA,201039.000,3747.6924,N,12215.4733,W,1,06,3.0,13.6,M,-25.1,M,,0000*55
$GPGSA,A,3,32,23,04,13,20,01,,,,,,,4.0,3.0,2.6*34
$GPRMC,201039.000,A,3747.6924,N,12215.4733,W,1.92,220.22,300412,,,A*73
$GPVTG,220.22,T,,M,1.92,N,3.6,K,A*02
$GPGGA,201040.000,3747.6924,N,12215.4739,W,1,05,3.6,12.3,M,-25.1,M,,0000*50
$GPGSA,A,3,32,23,04,13,20,,,,,,,,4.5,3.6,2.7*37
$GPRMC,201040.000,A,3747.6924,N,12215.4739,W,1.92,212.39,300412,,,A*7C
$GPVTG,212.39,T,,M,1.92,N,3.6,K,A*09
$GPGGA,201041.000,3747.6923,N,12215.4755,W,1,07,2.0,13.6,M,-25.1,M,,0000*5D
$GPGSA,A,3,32,23,04,13,20,07,01,,,,,,2.9,2.0,2.1*3A
$GPGSV,3,1,12,20,68,192,22,23,63,332,32,32,47,151,22,16,47,108,22*73
$GPGSV,3,2,12,30,42,067,,13,36,299,28,07,23,237,17,04,14,302,20*74
$GPGSV,3,3,12,31,09,049,11,10,08,317,22,01,06,200,24,48,44,197,26*74
$GPVTG,228.87,T,,M,2.50,N,4.6,K,A*0F
$GPGGA,201042.000,3747.6919,N,12215.4765,W,1,07,2.0,14.3,M,-25.1,M,,0000*56
$GPGSA,A,3,32,23,04,13,20,07,01,,,,,,2.9,2.0,2.1*3A
$GPRMC,201042.000,A,3747.6919,N,12215.4765,W,1.62,223.26,300412,,,A*7A
$GPVTG,223.26,T,,M,1.62,N,3.0,K,A*0C
$GPGGA,201043.000,3747.6915,N,12215.4773,W,1,06,3.0,14.6,M,-25.1,M,,0000*59
$GPGSA,A,3,32,23,04,13,20,01,,,,,,,4.0,3.0,2.6*34
$GPRMC,201043.000,A,3747.6915,N,12215.4773,W,1.69,201.01,300412,,,A*7E
$GPVTG,201.01,T,,M,1.69,N,3.1,K,A*03
$GPGGA,201044.000,3747.6909,N,12215.4784,W,1,06,3.0,15.8,M,-25.1,M,,0000*54
$GPGSA,A,3,32,23,04,13,20,01,,,,,,,4.0,3.0,2.6*34
$GPRMC,201044.000,A,3747.6909,N,12215.4784,W,1.65,188.51,300412,,,A*77
$GPVTG,188.51,T,,M,1.65,N,3.1,K,A*08
$GPGGA,201045.000,3747.6903,N,12215.4780,W,1,06,3.0,15.5,M,-25.1,M,,0000*56
$GPGSA,A,3,32,23,04,13,20,01,,,,,,,4.0,3.0,2.6*34
$GPRMC,201045.000,A,3747.6903,N,12215.4780,W,1.78,160.39,300412,,,A*7C
$GPVTG,160.39,T,,M,1.78,N,3.3,K,A*0E
$GPGGA,201046.000,3747.6896,N,12215.4773,W,1,05,3.6,14.3,M,-25.1,M,,0000*56
$GPGSA,A,3,32,23,04,13,20,,,,,,,,4.5,3.6,2.7*37
$GPGSV,3,1,12,20,68,192,33,23,63,332,25,32,47,151,31,16,47,108,25*70
$GPGSV,3,2,12,30,42,067,25,13,36,299,30,07,23,237,17,04,14,302,22*78
$GPGSV,3,3,12,31,09,049,11,10,08,317,20,01,06,200,16,48,44,197,26*77
$GPRMC,201046.000,A,3747.6896,N,12215.4773,W,2.65,168.65,300412,,,A*70
$GPVTG,168.65,T,,M,2.65,N,4.9,K,A*0D
$GPGGA,201047.000,3747.6890,N,12215.4765,W,1,07,2.0,13.9,M,-25.1,M,,0000*5E
$GPGSA,A,3,32,23,04,13,20,07,01,,,,,,2.9,2.0,2.1*3A
$GPRMC,201047.000,A,3747.6890,N,12215.4765,W,2.30,156.55,300412,,,A*7E
$GPVTG,156.55,T,,M,2.30,N,4.3,K,A*09
$GPGGA,201048.000,3747.6887,N,12215.4756,W,1,06,3.0,13.6,M,-25.1,M,,0000*58
$GPGSA,A,3,32,23,04,13,20,01,,,,,,,4.0,3.0,2.6*34
$GPRMC,201048.000,A,3747.6887,N,12215.4756,W,1.99,135.47,300412,,,A*71
$GPVTG,135.47,T,,M,1.99,N,3.7,K,A*0C
$GPGGA,201049.000,3747.6885,N,12215.4748,W,1,06,3.0,14.6,M,-25.1,M,,0000*53
$GPGSA,A,3,32,23,04,13,20,01,,,,,,,4.0,3.0,2.6*34
$GPRMC,201049.000,A,3747.6885,N,12215.4748,W,1.77,139.94,300412,,,A*7F
$GPVTG,139.94,T,,M,1.77,N,3.3,K,A*0A
$GPGGA,201050.000,3747.6883,N,12215.4742,W,1,07,2.0,15.3,M,-25.1,M,,0000*53
$GPGSA,A,3,32,23,04,13,20,07,01,,,,,,2.9,2.0,2.1*3A
$GPRMC,201050.000,A,3747.6883,N,12215.4742,W,1.34,129.94,300412,,,A*7D
$GPVTG,129.94,T,,M,1.34,N,2.5,K,A*0B
$GPGGA,201051.000,3747.6882,N,12215.4736,W,1,07,2.0,16.4,M,-25.1,M,,0000*54
$GPGSA,A,3,32,23,04,13,20,07,01,,,,,,2.9,2.0,2.1*3A
$GPGSV,3,1,12,20,68,192,35,23,63,332,26,32,47,151,38,16,47,107,35*72
$GPGSV,3,2,12,30,42,067,36,13,36,299,29,07,23,237,18,04,14,302,21*7E
$GPGSV,3,3,12,31,09,049,,10,08,317,21,01,06,200,25,48,44,197,23*73
$GPRMC,201051.000,A,3747.6882,N,12215.4736,W,1.40,132.00,300412,,,A*7A
$GPVTG,132.00,T,,M,1.40,N,2.6,K,A*0C
$GPGGA,201052.000,3747.6879,N,12215.4733,W,1,06,3.0,17.3,M,-25.1,M,,0000*50
$GPGSA,A,3,32,23,04,13,20,01,,,,,,,4.0,3.0,2.6*34
$GPRMC,201052.000,A,3747.6879,N,12215.4733,W,1.24,103.98,300412,,,A*79
$GPVTG,103.98,T,,M,1.24,N,2.3,K,A*08
$GPGGA,201053.000,3747.6879,N,12215.4726,W,1,07,2.0,17.5,M,-25.1,M,,0000*53
$GPGSA,A,3,32,23,04,13,20,07,01,,,,,,2.9,2.0,2.1*3A
$GPRMC,201053.000,A,3747.6879,N,12215.4726,W,1.20,99.95,300412,,,A*47
$GPVTG,99.95,T,,M,1.20,N,2.2,K,A*32
$GPGGA,201054.000,3747.6879,N,12215.4721,W,1,07,2.0,18.5,M,-25.1,M,,0000*5C
$GPGSA,A,3,32,23,04,13,20,07,01,,,,,,2.9,2.0,2.1*3A
$GPRMC,201054.000,A,3747.6879,N,12215.4721,W,1.12,126.20,300412,,,A*7D
$GPVTG,126.20,T,,M,1.12,N,2.1,K,A*0B
$GPGGA,201055.000,3747.6880,N,12215.4707,W,1,07,2.0,19.0,M,-25.1,M,,0000*5B
$GPGSA,A,3,32,23,04,13,20,07,01,,,,,,2.9,2.0,2.1*3A
$GPRMC,201055.000,A,3747.6880,N,12215.4707,W,1.22,121.15,300412,,,A*7C
$GPVTG,121.15,T,,M,1.22,N,2.3,K,A*0B
$GPGGA,201056.000,3747.6876,N,12215.4704,W,1,07,2.0,19.9,M,-25.1,M,,0000*5B
$GPGSA,A,3,32,23,04,13,20,07,01,,,,,,2.9,2.0,2.1*3A
$GPGSV,3,1,12,20,68,192,34,23,63,332,27,32,47,151,39,16,47,107,35*73
$GPGSV,3,2,12,30,42,067,34,13,36,299,21,07,23,237,19,04,14,302,17*70
$GPGSV,3,3,12,31,09,049,,10,08,317,20,01,06,200,22,48,44,197,26*70
$GPRMC,201056.000,A,3747.6876,N,12215.4704,W,1.28,110.09,300412,,,A*70
$GPVTG,110.09,T,,M,1.28,N,2.4,K,A*09
$GPGGA,201057.000,3747.6876,N,12215.4697,W,1,07,2.0,20.2,M,-25.1,M,,0000*50
$GPGSA,A,3,32,23,04,13,20,07,01,,,,,,2.9,2.0,2.1*3A
$GPRMC,201057.000,A,3747.6876,N,12215.4697,W,1.27,94.88,300412,,,A*41
$GPVTG,94.88,T,,M,1.27,N,2.4,K,A*32
$GPGGA,201058.000,3747.6876,N,12215.4688,W,1,07,2.0,20.7,M,-25.1,M,,0000*54
$GPGSA,A,3,32,23,04,13,20,07,01,,,,,,2.9,2.0,2.1*3A
$GPRMC,201058.000,A,3747.6876,N,12215.4688,W,1.54,98.59,300412,,,A*44
$GPVTG,98.59,T,,M,1.54,N,2.9,K,A*3B
$GPGGA,201059.000,3747.6876,N,12215.4678,W,1,07,2.0,20.6,M,-25.1,M,,0000*5B
$GPGSA,A,3,32,23,04,13,20,07,01,,,,,,2.9,2.0,2.1*3A
$GPRMC,201059.000,A,3747.6876,N,12215.4678,W,1.39,118.17,300412,,,A*72
$GPVTG,118.17,T,,M,1.39,N,2.6,K,A*0C
$GPGGA,201100.000,3747.6868,N,12215.4677,W,1,07,2.0,21.3,M,-25.1,M,,0000*52
$GPGSA,A,3,32,23,04,13,20,07,01,,,,,,2.9,2.0,2.1*3A
$GPRMC,201100.000,A,3747.6868,N,12215.4677,W,1.49,135.91,300412,,,A*79
$GPVTG,135.91,T,,M,1.49,N,2.8,K,A*04
$GPGGA,201101.000,3747.6851,N,12215.4685,W,1,07,2.0,23.1,M,-25.1,M,,0000*54
$GPGSA,A,3,32,23,04,13,20,07,01,,,,,,2.9,2.0,2.1*3A
$GPGSV,3,1,12,20,68,192,26,23,63,332,27,32,47,151,30,16,47,107,37*7B
$GPGSV,3,2,12,30,42,067,36,13,36,299,21,07,23,237,20,04,14,302,16*79
$GPGSV,3,3,12,31,09,049,,10,08,317,19,01,06,200,23,48,44,197,27*7A
$GPRMC,201101.000,A,3747.6851,N,12215.4685,W,1.78,180.27,300412,,,A*7E
$GPGGA,201102.000,3747.6844,N,12215.4690,W,1,07,2.0,25.0,M,-25.1,M,,0000*50
$GPGSA,A,3,32,23,04,13,20,07,01,,,,,,2.9,2.0,2.1*3A
$GPRMC,201102.000,A,3747.6844,N,12215.4690,W,1.42,201.59,300412,,,A*77
$GPVTG,201.59,T,,M,1.42,N,2.6,K,A*01
$GPGGA,201103.000,3747.6836,N,12215.4690,W,1,06,2.4,25.8,M,-25.1,M,,0000*59
$GPGSA,A,3,32,23,13,20,07,01,,,,,,,3.7,2.4,2.9*3D
$GPRMC,201103.000,A,3747.6836,N,12215.4690,W,1.43,163.84,300412,,,A*75
$GPVTG,163.84,T,,M,1.43,N,2.7,K,A*06
$GPGGA,201104.000,3747.6828,N,12215.4688,W,1,06,2.4,26.6,M,-25.1,M,,0000*55
$GPGSA,A,3,32,23,13,20,07,01,,,,,,,3.7,2.4,2.9*3D
$GPRMC,201104.000,A,3747.6828,N,12215.4688,W,1.37,149.99,300412,,,A*73
$GPVTG,149.99,T,,M,1.37,N,2.5,K,A*03
$GPGGA,201105.000,3747.6821,N,12215.4686,W,1,06,2.4,28.4,M,-25.1,M,,0000*5F
$GPGSA,A,3,32,23,13,20,07,01,,,,,,,3.7,2.4,2.9*3D
$GPRMC,201105.000,A,3747.6821,N,12215.4686,W,1.92,127.37,300412,,,A*76
$GPVTG,127.37,T,,M,1.92,N,3.6,K,A*02
$GPGGA,201106.000,3747.6818,N,12215.4678,W,1,06,2.4,29.8,M,-25.1,M,,0000*5A
$GPGSA,A,3,32,23,13,20,07,01,,,,,,,3.7,2.4,2.9*3D
$GPGSV,3,1,11,20,68,192,34,23,63,332,27,32,47,151,38,16,47,107,37*73
$GPGSV,3,2,11,30,42,067,34,13,36,299,19,07,23,237,21,04,14,302,17*73
$GPGSV,3,3,11,31,09,049,,10,08,317,18,01,06,200,24*49
$GPRMC,201106.000,A,3747.6818,N,12215.4678,W,1.11,149.45,300412,,,A*78
$GPVTG,149.45,T,,M,1.11,N,2.1,K,A*02
$GPGGA,201107.000,3747.6816,N,12215.4669,W,1,06,2.4,30.6,M,-25.1,M,,0000*53
$GPGSA,A,3,32,23,13,20,07,01,,,,,,,3.7,2.4,2.9*3D
$GPRMC,201107.000,A,3747.6816,N,12215.4669,W,1.18,158.09,300412,,,A*76
$GPVTG,158.09,T,,M,1.18,N,2.2,K,A*00
$GPGGA,201108.000,3747.6811,N,12215.4664,W,1,06,2.4,31.7,M,-25.1,M,,0000*56
$GPGSA,A,3,32,23,13,20,07,01,,,,,,,3.7,2.4,2.9*3D
$GPRMC,201108.000,A,3747.6811,N,12215.4664,W,1.34,149.91,300412,,,A*7C
$GPVTG,149.91,T,,M,1.34,N,2.5,K,A*08
$GPGGA,201109.000,3747.6806,N,12215.4662,W,1,07,2.0,33.7,M,-25.1,M,,0000*50
$GPGSA,A,3,32,23,04,13,20,07,01,,,,,,2.9,2.0,2.1*3A
$GPRMC,201109.000,A,3747.6806,N,12215.4662,W,1.31,175.97,300412,,,A*71
$GPVTG,175.97,T,,M,1.31,N,2.4,K,A*05
$GPGGA,201110.000,3747.6803,N,12215.4659,W,1,07,2.0,34.8,M,-25.1,M,,0000*5D
$GPGSA,A,3,32,23,04,13,20,07,01,,,,,,2.9,2.0,2.1*3A
$GPRMC,201110.000,A,3747.6803,N,12215.4659,W,1.23,181.96,300412,,,A*7D
$GPVTG,181.96,T,,M,1.23,N,2.3,K,A*0B
$GPGGA,201111.000,3747.6793,N,12215.4660,W,1,07,2.0,37.3,M,-25.1,M,,0000*58
$GPGSA,A,3,32,23,04,13,20,07,01,,,,,,2.9,2.0,2.1*3A
$GPGSV,3,1,12,20,67,191,34,23,63,333,26,16,47,107,36,32,47,151,38*7D
$GPGSV,3,2,12,30,42,067,35,13,36,299,20,07,23,237,21,04,14,301,17*78
$GPGSV,3,3,12,31,09,049,,10,08,317,19,01,06,200,30,48,44,197,32*7C
$GPRMC,201111.000,A,3747.6793,N,12215.4660,W,1.75,184.57,300412,,,A*7B
$GPVTG,184.57,T,,M,1.75,N,3.2,K,A*00
$GPGGA,201112.000,3747.6790,N,12215.4660,W,1,07,2.0,37.2,M,-25.1,M,,0000*59
$GPGSA,A,3,32,23,04,13,20,07,01,,,,,,2.9,2.0,2.1*3A
$GPRMC,201112.000,A,3747.6790,N,12215.4660,W,2.10,191.50,300412,,,A*78
$GPVTG,191.50,T,,M,2.10,N,3.9,K,A*08
$GPGGA,201113.000,3747.6785,N,12215.4659,W,1,07,2.0,37.2,M,-25.1,M,,0000*56
$GPGSA,A,3,32,23,04,13,20,07,01,,,,,,2.9,2.0,2.1*3A
$GPRMC,201113.000,A,3747.6785,N,12215.4659,W,1.72,188.61,300412,,,A*7A
$GPVTG,188.61,T,,M,1.72,N,3.2,K,A*0E
$GPGGA,201114.000,3747.6781,N,12215.4658,W,1,07,2.0,37.0,M,-25.1,M,,0000*56
$GPGSA,A,3,32,23,04,13,20,07,01,,,,,,2.9,2.0,2.1*3A
$GPRMC,201114.000,A,3747.6781,N,12215.4658,W,1.93,167.95,300412,,,A*7D
$GPVTG,167.95,T,,M,1.93,N,3.6,K,A*0F
$GPGGA,201115.000,3747.6773,N,12215.4661,W,1,07,2.0,37.7,M,-25.1,M,,0000*57
$GPGSA,A,3,32,23,04,13,20,07,01,,,,,,2.9,2.0,2.1*3A
$GPRMC,201115.000,A,3747.6773,N,12215.4661,W,1.17,154.36,300412,,,A*7E
$GPVTG,154.36,T,,M,1.17,N,2.2,K,A*0F
$GPGGA,201116.000,3747.6768,N,12215.4661,W,1,07,2.0,38.1,M,-25.1,M,,0000*57
$GPGSA,A,3,32,23,04,13,20,07,01,,,,,,2.9,2.0,2.1*3A
$GPGSV,3,1,12,20,67,191,33,23,63,333,26,16,47,107,35,32,47,151,32*73
$GPGSV,3,2,12,30,42,067,34,13,36,299,27,07,23,237,22,04,14,301,17*7D
$GPGSV,3,3,12,31,09,049,,10,08,317,19,01,06,200,26,48,44,197,33*7A
$GPVTG,171.87,T,,M,1.83,N,3.4,K,A*08
$GPGGA,201117.000,3747.6765,N,12215.4658,W,1,07,2.0,38.1,M,-25.1,M,,0000*51
$GPGSA,A,3,32,23,04,13,20,07,01,,,,,,2.9,2.0,2.1*3A
$GPRMC,201117.000,A,3747.6765,N,12215.4658,W,2.07,164.83,300412,,,A*7E
$GPVTG,164.83,T,,M,2.07,N,3.8,K,A*0B
$GPGGA,201118.000,3747.6763,N,12215.4655,W,1,07,2.0,37.9,M,-25.1,M,,0000*52
$GPGSA,A,3,32,23,04,13,20,07,01,,,,,,2.9,2.0,2.1*3A
$GPRMC,201118.000,A,3747.6763,N,12215.4655,W,1.55,136.29,300412,,,A*79
$GPVTG,136.29,T,,M,1.55,N,2.9,K,A*08
$GPGGA,201119.000,3747.6761,N,12215.4651,W,1,07,2.0,38.1,M,-25.1,M,,0000*52
$GPGSA,A,3,32,23,04,13,20,07,01,,,,,,2.9,2.0,2.1*3A
$GPRMC,201119.000,A,3747.6761,N,12215.4651,W,1.21,157.01,300412,,,A*70
$GPVTG,157.01,T,,M,1.21,N,2.2,K,A*0D
$GPGGA,201120.000,3747.6759,N,12215.4644,W,1,05,2.7,37.2,M,-25.1,M,,0000*5E
$GPGSA,A,3,32,23,13,20,07,,,,,,,,5.1,2.7,4.3*33
$GPRMC,201120.000,A,3747.6759,N,12215.4644,W,1.15,152.86,300412,,,A*78
$GPVTG,152.86,T,,M,1.15,N,2.1,K,A*03
$GPGGA,201121.000,3747.6756,N,12215.4641,W,1,05,2.7,36.5,M,-25.1,M,,0000*53
$GPGSA,A,3,32,23,13,20,07,,,,,,,,5.1,2.7,4.3*33
$GPGSV,3,1,12,20,67,191,33,23,63,333,26,16,47,107,35,32,47,151,33*72
$GPGSV,3,2,12,30,42,067,34,13,36,299,28,07,23,237,22,04,14,301,17*72
$GPGSV,3,3,12,31,09,049,,10,08,317,20,01,06,200,18,48,44,197,30*7E
$GPRMC,201121.000,A,3747.6756,N,12215.4641,W,1.73,139.28,300412,,,A*7A
$GPVTG,139.28,T,,M,1.73,N,3.2,K,A*08
$GPGGA,201122.000,3747.6756,N,12215.4632,W,1,07,2.0,36.2,M,-25.1,M,,0000*56
$GPGSA,A,3,32,23,04,13,20,07,01,,,,,,2.9,2.0,2.1*3A
$GPRMC,201122.000,A,3747.6756,N,12215.4632,W,1.45,163.15,300412,,,A*79
$GPVTG,163.15,T,,M,1.45,N,2.7,K,A*08
$GPGGA,201123.000,3747.6755,N,12215.4626,W,1,07,2.0,35.7,M,-25.1,M,,0000*57
$GPGSA,A,3,32,23,04,13,20,07,01,,,,,,2.9,2.0,2.1*3A
$GPRMC,201123.000,A,3747.6755,N,12215.4626,W,1.24,184.35,300412,,,A*72
$GPVTG,184.35,T,,M,1.24,N,2.3,K,A*00
$GPGGA,201124.000,3747.6754,N,12215.4617,W,1,07,2.0,35.1,M,-25.1,M,,0000*55
$GPGSA,A,3,32,23,04,13,20,07,01,,,,,,2.9,2.0,2.1*3A
$GPRMC,201124.000,A,3747.6754,N,12215.4617,W,1.52,125.81,300412,,,A*73
$GPVTG,125.81,T,,M,1.52,N,2.8,K,A*0E
$GPGGA,201125.000,3747.6748,N,12215.4613,W,1,07,2.0,35.7,M,-25.1,M,,0000*5B
$GPGSA,A,3,32,23,04,13,20,07,01,,,,,,2.9,2.0,2.1*3A
$GPRMC,201125.000,A,3747.6748,N,12215.4613,W,1.51,129.68,300412,,,A*73
$GPVTG,129.68,T,,M,1.51,N,2.8,K,A*06
$GPGGA,201126.000,3747.6743,N,12215.4609,W,1,07,2.0,35.4,M,-25.1,M,,0000*5B
$GPGSA,A,3,32,23,04,13,20,07,01,,,,,,2.9,2.0,2.1*3A
$GPGSV,3,1,12,20,67,191,33,23,63,333,26,16,47,107,35,32,47,151,34*75
$GPGSV,3,2,12,30,42,067,33,13,36,299,25,07,23,237,22,04,14,301,18*77
$GPGSV,3,3,12,31,09,049,,10,08,317,20,01,06,200,22,48,44,197,27*71
$GPRMC,201126.000,A,3747.6743,N,12215.4609,W,1.53,160.81,300412,,,A*78
$GPVTG,160.81,T,,M,1.53,N,2.8,K,A*0E
$GPGGA,201127.000,3747.6733,N,12215.4610,W,1,07,2.0,36.5,M,-25.1,M,,0000*57
$GPGSA,A,3,32,23,04,13,20,07,01,,,,,,2.9,2.0,2.1*3A
$GPRMC,201127.000,A,3747.6733,N,12215.4610,W,1.58,162.32,300412,,,A*77
$GPVTG,162.32,T,,M,1.58,N,2.9,K,A*0E
$GPGGA,201128.000,3747.6729,N,12215.4609,W,1,07,2.0,36.1,M,-25.1,M,,0000*5F
$GPGSA,A,3,32,23,04,13,20,07,01,,,,,,2.9,2.0,2.1*3A
$GPRMC,201128.000,A,3747.6729,N,12215.4609,W,1.14,185.04,300412,,,A*7F
$GPVTG,185.04,T,,M,1.14,N,2.1,K,A*02
$GPGGA,201129.000,3747.6726,N,12215.4603,W,1,06,2.1,36.2,M,-25.1,M,,0000*58
$GPGSA,A,3,32,23,04,20,07,01,,,,,,,3.0,2.1,2.1*31
$GPRMC,201129.000,A,3747.6726,N,12215.4603,W,0.87,124.83,300412,,,A*74
$GPVTG,124.83,T,,M,0.87,N,1.6,K,A*09
$GPGGA,201130.000,3747.6729,N,12215.4586,W,1,06,2.4,34.5,M,-25.1,M,,0000*51
$GPGSA,A,3,32,23,13,20,07,01,,,,,,,3.7,2.4,2.8*3C
$GPRMC,201130.000,A,3747.6729,N,12215.4586,W,1.16,145.68,300412,,,A*76
$GPVTG,145.68,T,,M,1.16,N,2.1,K,A*06
$GPGGA,201131.000,3747.6729,N,12215.4574,W,1,06,2.4,33.4,M,-25.1,M,,0000*5B
$GPGSA,A,3,32,23,13,20,07,01,,,,,,,3.7,2.4,2.8*3C
$GPGSV,3,1,11,20,67,191,33,23,63,333,29,16,47,107,38,32,47,151,41*76
$GPGSV,3,2,11,30,42,067,40,13,36,299,20,07,23,237,22,04,14,301,18*75
$GPRMC,201131.000,A,3747.6729,N,12215.4574,W,1.13,136.52,300412,,,A*72
$GPVTG,136.52,T,,M,1.13,N,2.1,K,A*0E
$GPGGA,201132.000,3747.6726,N,12215.4565,W,1,07,2.0,33.3,M,-25.1,M,,0000*55
$GPGSA,A,3,32,23,04,13,20,07,01,,,,,,2.9,2.0,2.1*3A
$GPRMC,201132.000,A,3747.6726,N,12215.4565,W,0.96,115.28,300412,,,A*7E
$GPVTG,115.28,T,,M,0.96,N,1.8,K,A*04
$GPGGA,201133.000,3747.6725,N,12215.4559,W,1,06,2.4,32.4,M,-25.1,M,,0000*5B
$GPGSA,A,3,32,23,13,20,07,01,,,,,,,3.7,2.4,2.8*3C
$GPRMC,201133.000,A,3747.6725,N,12215.4559,W,1.10,143.40,300412,,,A*71
$GPVTG,143.40,T,,M,1.10,N,2.0,K,A*0D
$GPGGA,201134.000,3747.6724,N,12215.4549,W,1,06,2.4,32.3,M,-25.1,M,,0000*5B
$GPGSA,A,3,32,23,13,20,07,01,,,,,,,3.7,2.4,2.8*3C
$GPRMC,201134.000,A,3747.6724,N,12215.4549,W,1.07,139.40,300412,,,A*7D
$GPVTG,139.40,T,,M,1.07,N,2.0,K,A*06
$GPGGA,201135.000,3747.6726,N,12215.4536,W,1,06,2.4,31.8,M,-25.1,M,,0000*58
$GPGSA,A,3,32,23,13,20,07,01,,,,,,,3.7,2.4,2.8*3C
$GPRMC,201135.000,A,3747.6726,N,12215.4536,W,1.63,115.72,300412,,,A*7B
$GPVTG,115.72,T,,M,1.63,N,3.0,K,A*0A
$GPGGA,201136.000,3747.6720,N,12215.4535,W,1,07,2.0,31.5,M,-25.1,M,,0000*56
$GPGSA,A,3,32,23,04,13,20,07,01,,,,,,2.9,2.0,2.1*3A
$GPGSV,3,1,12,20,67,191,33,23,63,333,27,16,47,107,36,32,47,151,39*7A
$GPGSV,3,2,12,30,42,067,33,13,36,299,25,07,23,237,22,04,14,301,18*77
$GPGSV,3,3,12,31,09,049,34,10,08,317,22,01,06,200,20,48,44,197,39*79
$GPRMC,201136.000,A,3747.6720,N,12215.4535,W,1.67,114.27,300412,,,A*78
$GPVTG,114.27,T,,M,1.67,N,3.1,K,A*0E
$GPGGA,201137.000,3747.6716,N,12215.4532,W,1,07,2.0,31.2,M,-25.1,M,,0000*52
$GPGSA,A,3,32,23,04,13,20,07,01,,,,,,2.9,2.0,2.1*3A
$GPRMC,201137.000,A,3747.6716,N,12215.4532,W,2.00,103.20,300412,,,A*78
$GPVTG,103.20,T,,M,2.00,N,3.7,K,A*0B
$GPGGA,201138.000,3747.6711,N,12215.4528,W,1,07,2.0,30.8,M,-25.1,M,,0000*5A
$GPGSA,A,3,32,23,04,13,20,07,01,,,,,,2.9,2.0,2.1*3A
$GPRMC,201138.000,A,3747.6711,N,12215.4528,W,1.23,132.95,300412,,,A*75
$GPVTG,132.95,T,,M,1.23,N,2.3,K,A*00
$GPGGA,201139.000,3747.6706,N,12215.4529,W,1,07,2.0,30.1,M,-25.1,M,,0000*55
$GPGSA,A,3,32,23,04,13,20,07,01,,,,,,2.9,2.0,2.1*3A
$GPRMC,201139.000,A,3747.6706,N,12215.4529,W,1.27,123.88,300412,,,A*7B
$GPVTG,123.88,T,,M,1.27,N,2.3,K,A*08
$GPGGA,201140.000,3747.6703,N,12215.4527,W,1,07,2.0,29.5,M,-25.1,M,,0000*5C
$GPGSA,A,3,32,23,04,13,20,07,01,,,,,,2.9,2.0,2.1*3A
$GPRMC,201140.000,A,3747.6703,N,12215.4527,W,1.11,138.53,300412,,,A*77
$GPVTG,138.53,T,,M,1.11,N,2.1,K,A*03
$GPGGA,201141.000,3747.6696,N,12215.4528,W,1,07,2.0,28.6,M,-25.1,M,,0000*5D
$GPGSA,A,3,32,23,04,13,20,07,01,,,,,,2.9,2.0,2.1*3A
$GPGSV,3,1,12,20,67,191,33,23,63,333,27,16,47,107,35,32,47,151,37*77
$GPGSV,3,2,12,30,42,067,31,13,36,299,25,07,23,237,26,04,14,301,19*70
$GPGSV,3,3,12,31,09,049,30,10,08,317,27,01,06,200,20,48,44,197,39*78
$GPRMC,201141.000,A,3747.6696,N,12215.4528,W,1.73,130.52,300412,,,A*79
$GPVTG,130.52,T,,M,1.73,N,3.2,K,A*0C
$GPGGA,201142.000,3747.6689,N,12215.4527,W,1,07,2.0,28.6,M,-25.1,M,,0000*5F
$GPGSA,A,3,32,23,04,13,20,07,01,,,,,,2.9,2.0,2.1*3A
$GPRMC,201142.000,A,3747.6689,N,12215.4527,W,1.70,116.70,300412,,,A*7C
$GPVTG,116.70,T,,M,1.70,N,3.1,K,A*08
$GPGGA,201143.000,3747.6682,N,12215.4525,W,1,07,2.0,27.8,M,-25.1,M,,0000*56
$GPGSA,A,3,32,23,04,13,20,07,01,,,,,,2.9,2.0,2.1*3A
$GPRMC,201143.000,A,3747.6682,N,12215.4525,W,1.63,110.45,300412,,,A*76
$GPVTG,110.45,T,,M,1.63,N,3.0,K,A*0B
$GPGGA,201144.000,3747.6677,N,12215.4522,W,1,07,2.0,27.8,M,-25.1,M,,0000*5C
$GPGSA,A,3,32,23,04,13,20,07,01,,,,,,2.9,2.0,2.1*3A
$GPRMC,201144.000,A,3747.6677,N,12215.4522,W,1.15,104.07,300412,,,A*7E
$GPVTG,104.07,T,,M,1.15,N,2.1,K,A*09
$GPGGA,201145.000,3747.6669,N,12215.4522,W,1,07,2.0,28.2,M,-25.1,M,,0000*57
$GPGSA,A,3,32,23,04,13,20,07,01,,,,,,2.9,2.0,2.1*3A
$GPRMC,201145.000,A,3747.6669,N,12215.4522,W,1.00,131.63,300412,,,A*70
$GPVTG,131.63,T,,M,1.00,N,1.9,K,A*02
$GPGGA,201146.000,3747.6662,N,12215.4518,W,1,07,2.0,27.3,M,-25.1,M,,0000*58
$GPGSA,A,3,32,23,04,13,20,07,01,,,,,,2.9,2.0,2.1*3A
$GPGSV,3,1,12,20,67,191,33,23,63,333,27,16,47,107,35,32,47,151,37*77
$GPGSV,3,2,12,30,42,067,29,13,36,299,25,07,23,237,25,04,14,301,24*74
$GPGSV,3,3,12,31,09,049,22,10,08,317,26,01,06,200,20,48,44,197,29*7B
$GPRMC,201146.000,A,3747.6662,N,12215.4518,W,1.54,126.51,300412,,,A*77
$GPVTG,126.51,T,,M,1.54,N,2.8,K,A*06
$GPGGA,201147.000,3747.6651,N,12215.4521,W,1,07,2.0,26.5,M,-25.1,M,,0000*54
$GPGSA,A,3,32,23,04,13,20,07,01,,,,,,2.9,2.0,2.1*3A
$GPRMC,201147.000,A,3747.6651,N,12215.4521,W,1.45,127.73,300412,,,A*7D
$GPVTG,127.73,T,,M,1.45,N,2.7,K,A*08
$GPGGA,201148.000,3747.6643,N,12215.4518,W,1,07,2.0,26.8,M,-25.1,M,,0000*5F
$GPGSA,A,3,32,23,04,13,20,07,01,,,,,,2.9,2.0,2.1*3A
$GPRMC,201148.000,A,3747.6643,N,12215.4518,W,1.94,148.42,300412,,,A*7C
$GPVTG,148.42,T,,M,1.94,N,3.6,K,A*0F
$GPGGA,201149.000,3747.6634,N,12215.4520,W,1,07,2.0,26.1,M,-25.1,M,,0000*5C
$GPGSA,A,3,32,23,04,13,20,07,01,,,,,,2.9,2.0,2.1*3A
$GPRMC,201149.000,A,3747.6634,N,12215.4520,W,1.72,174.08,300412,,,A*7F
$GPVTG,174.08,T,,M,1.72,N,3.2,K,A*02
$GPGGA,201150.000,3747.6629,N,12215.4521,W,1,07,2.0,25.2,M,-25.1,M,,0000*59
$GPGSA,A,3,32,23,04,13,20,07,01,,,,,,2.9,2.0,2.1*3A
$GPRMC,201150.000,A,3747.6629,N,12215.4521,W,1.48,151.38,300412,,,A*77
$GPVTG,151.38,T,,M,1.48,N,2.7,K,A*0B
$GPGGA,201151.000,3747.6621,N,12215.4522,W,1,07,2.0,25.1,M,-25.1,M,,0000*50
$GPGSA,A,3,32,23,04,13,20,07,01,,,,,,2.9,2.0,2.1*3A
$GPGSV,3,1,12,20,67,191,33,23,63,333,26,16,47,107,33,32,47,151,35*72
$GPGSV,3,2,12,30,42,067,29,13,36,299,32,07,23,237,21,04,14,301,22*70
$GPGSV,3,3,12,31,09,049,23,10,08,317,26,01,06,200,20,48,44,197,36*74
$GPVTG,149.13,T,,M,2.14,N,4.0,K,A*00
$GPGGA,201152.000,3747.6618,N,12215.4514,W,1,07,2.0,24.9,M,-25.1,M,,0000*55
$GPGSA,A,3,32,23,04,13,20,07,01,,,,,,2.9,2.0,2.1*3A
$GPRMC,201152.000,A,3747.6618,N,12215.4514,W,2.13,123.89,300412,,,A*73
$GPVTG,123.89,T,,M,2.13,N,4.0,K,A*08
$GPGGA,201153.000,3747.6617,N,12215.4506,W,1,07,2.0,24.2,M,-25.1,M,,0000*53
$GPGSA,A,3,32,23,04,13,20,07,01,,,,,,2.9,2.0,2.1*3A
$GPRMC,201153.000,A,3747.6617,N,12215.4506,W,2.61,105.81,300412,,,A*77
$GPVTG,105.81,T,,M,2.61,N,4.8,K,A*09
$GPGGA,201154.000,3747.6618,N,12215.4492,W,1,07,2.0,22.6,M,-25.1,M,,0000*55
$GPGSA,A,3,32,23,04,13,20,07,01,,,,,,2.9,2.0,2.1*3A
$GPRMC,201154.000,A,3747.6618,N,12215.4492,W,2.44,107.60,300412,,,A*79
$GPVTG,107.60,T,,M,2.44,N,4.5,K,A*0E
$GPGGA,201155.000,3747.6612,N,12215.4489,W,1,07,2.0,21.6,M,-25.1,M,,0000*57
$GPGSA,A,3,32,23,04,13,20,07,01,,,,,,2.9,2.0,2.1*3A
$GPRMC,201155.000,A,3747.6612,N,12215.4489,W,2.27,109.27,300412,,,A*70
$GPVTG,109.27,T,,M,2.27,N,4.2,K,A*01
$GPGGA,201156.000,3747.6609,N,12215.4483,W,1,07,2.0,20.2,M,-25.1,M,,0000*51
$GPGSA,A,3,32,23,04,13,20,07,01,,,,,,2.9,2.0,2.1*3A
$GPGSV,3,1,12,20,67,191,34,23,63,333,27,16,47,107,36,32,47,151,37*73
$GPGSV,3,2,12,30,42,067,30,13,36,299,34,07,23,237,24,04,14,301,23*7A
$GPGSV,3,3,12,31,09,049,16,10,08,317,26,01,06,200,21,48,44,197,38*7D
$GPRMC,201156.000,A,3747.6609,N,12215.4483,W,2.06,109.10,300412,,,A*74
$GPVTG,109.10,T,,M,2.06,N,3.8,K,A*0B
$GPGGA,201157.000,3747.6609,N,12215.4476,W,1,07,2.0,20.3,M,-25.1,M,,0000*5B
$GPGSA,A,3,32,23,04,13,20,07,01,,,,,,2.9,2.0,2.1*3A
$GPRMC,201157.000,A,3747.6609,N,12215.4476,W,2.09,104.29,300412,,,A*77
$GPVTG,104.29,T,,M,2.09,N,3.9,K,A*02
$GPGGA,201158.000,3747.6609,N,12215.4465,W,1,07,2.0,19.6,M,-25.1,M,,0000*59
$GPGSA,A,3,32,23,04,13,20,07,01,,,,,,2.9,2.0,2.1*3A
$GPRMC,201158.000,A,3747.6609,N,12215.4465,W,1.94,126.58,300412,,,A*7B
$GPVTG,126.58,T,,M,1.94,N,3.6,K,A*0C
$GPGGA,201159.000,3747.6612,N,12215.4454,W,1,07,2.0,19.8,M,-25.1,M,,0000*5E
$GPGSA,A,3,32,23,04,13,20,07,01,,,,,,2.9,2.0,2.1*3A
$GPRMC,201159.000,A,3747.6612,N,12215.4454,W,1.91,128.66,300412,,,A*74
$GPVTG,128.66,T,,M,1.91,N,3.5,K,A*09
$GPGGA,201200.000,3747.6610,N,12215.4448,W,1,07,2.0,21.1,M,-25.1,M,,0000*5C
$GPGSA,A,3,32,23,04,13,20,07,01,,,,,,2.9,2.0,2.1*3A
$GPRMC,201200.000,A,3747.6610,N,12215.4448,W,1.75,111.64,300412,,,A*76
$GPVTG,111.64,T,,M,1.75,N,3.2,K,A*0C
$GPGGA,201201.000,3747.6610,N,12215.4442,W,1,07,2.0,21.8,M,-25.1,M,,0000*5E
$GPGSA,A,3,32,23,04,13,20,07,01,,,,,,2.9,2.0,2.1*3A
$GPGSV,3,1,12,20,67,191,35,23,63,333,27,16,47,107,37,32,47,151,42*71
$GPGSV,3,2,12,30,42,067,34,13,36,299,26,07,23,237,23,04,14,301,27*7E
$GPGSV,3,3,12,31,09,049,15,10,08,317,20,01,06,200,27,48,44,197,37*71
$GPRMC,201201.000,A,3747.6610,N,12215.4442,W,1.85,106.31,300412,,,A*74
$GPVTG,106.31,T,,M,1.85,N,3.4,K,A*03
$GPGGA,201202.000,3747.6609,N,12215.4436,W,1,07,2.0,22.5,M,-25.1,M,,0000*58
$GPGSA,A,3,32,23,04,13,20,07,01,,,,,,2.9,2.0,2.1*3A
$GPRMC,201202.000,A,3747.6609,N,12215.4436,W,1.97,91.67,300412,,,A*43
$GPVTG,91.67,T,,M,1.97,N,3.6,K,A*3E
$GPGGA,201203.000,3747.6608,N,12215.4429,W,1,07,2.0,22.9,M,-25.1,M,,0000*5A
$GPGSA,A,3,32,23,04,13,20,07,01,,,,,,2.9,2.0,2.1*3A
$GPRMC,201203.000,A,3747.6608,N,12215.4429,W,2.03,85.41,300412,,,A*42
$GPVTG,85.41,T,,M,2.03,N,3.8,K,A*3F
$GPGGA,201204.000,3747.6607,N,12215.4423,W,1,07,2.0,23.2,M,-25.1,M,,0000*52
$GPGSA,A,3,32,23,04,13,20,07,01,,,,,,2.9,2.0,2.1*3A
$GPRMC,201204.000,A,3747.6607,N,12215.4423,W,1.49,102.37,300412,,,A*72
$GPVTG,102.37,T,,M,1.49,N,2.8,K,A*0C
$GPGGA,201205.000,3747.6599,N,12215.4428,W,1,07,2.0,25.2,M,-25.1,M,,0000*5A
$GPGSA,A,3,32,23,04,13,20,07,01,,,,,,2.9,2.0,2.1*3A
$GPRMC,201205.000,A,3747.6599,N,12215.4428,W,1.24,100.70,300412,,,A*76
$GPVTG,100.70,T,,M,1.24,N,2.3,K,A*0D
$GPGGA,201206.000,3747.6596,N,12215.4425,W,1,07,2.0,25.5,M,-25.1,M,,0000*5C
$GPGSA,A,3,32,23,04,13,20,07,01,,,,,,2.9,2.0,2.1*3A
$GPGSV,3,1,12,20,67,191,30,23,63,333,27,16,47,107,36,32,47,151,37*77
$GPGSV,3,2,12,30,42,067,30,13,36,299,27,07,23,237,27,04,14,301,22*7A
$GPRMC,201206.000,A,3747.6596,N,12215.4425,W,1.41,117.79,300412,,,A*7B
$GPVTG,117.79,T,,M,1.41,N,2.6,K,A*04
$GPGGA,201207.000,3747.6591,N,12215.4425,W,1,07,2.0,26.6,M,-25.1,M,,0000*5A
$GPGSA,A,3,32,23,04,13,20,07,01,,,,,,2.9,2.0,2.1*3A
$GPRMC,201207.000,A,3747.6591,N,12215.4425,W,1.67,106.71,300412,,,A*71
$GPVTG,106.71,T,,M,1.67,N,3.1,K,A*0E
$GPGGA,201208.000,3747.6588,N,12215.4422,W,1,07,2.0,27.1,M,-25.1,M,,0000*5C
$GPGSA,A,3,32,23,04,13,20,07,01,,,,,,2.9,2.0,2.1*3A
$GPRMC,201208.000,A,3747.6588,N,12215.4422,W,1.17,136.08,300412,,,A*7B
$GPVTG,136.08,T,,M,1.17,N,2.2,K,A*06
$GPGGA,201209.000,3747.6582,N,12215.4424,W,1,07,2.0,27.8,M,-25.1,M,,0000*58
$GPGSA,A,3,32,23,04,13,20,07,01,,,,,,2.9,2.0,2.1*3A
$GPRMC,201209.000,A,3747.6582,N,12215.4424,W,1.36,132.97,300412,,,A*77
$GPVTG,132.97,T,,M,1.36,N,2.5,K,A*00
$GPGGA,201210.000,3747.6580,N,12215.4419,W,1,07,2.0,27.6,M,-25.1,M,,0000*52
$GPGSA,A,3,32,23,04,13,20,07,01,,,,,,2.9,2.0,2.1*3A
$GPRMC,201210.000,A,3747.6580,N,12215.4419,W,1.67,148.20,300412,,,A*76
$GPVTG,148.20,T,,M,1.67,N,3.1,K,A*00
$GPGGA,201211.000,3747.6574,N,12215.4414,W,1,07,2.0,27.1,M,-25.1,M,,0000*52
$GPGSA,A,3,32,23,04,13,20,07,01,,,,,,2.9,2.0,2.1*3A
$GPGSV,3,1,12,20,67,191,31,23,63,334,26,16,47,106,36,32,47,151,36*70
$GPGSV,3,2,12,30,42,066,30,13,37,299,27,07,23,237,21,04,14,301,22*7C
$GPGSV,3,3,12,31,09,049,15,10,08,317,20,01,06,199,23,48,44,197,32*73
$GPRMC,201211.000,A,3747.6574,N,12215.4414,W,1.97,165.27,300412,,,A*76
$GPVTG,165.27,T,,M,1.97,N,3.6,K,A*00
$GPGGA,201212.000,3747.6568,N,12215.4407,W,1,07,2.0,27.2,M,-25.1,M,,0000*5D
$GPGSA,A,3,32,23,04,13,20,07,01,,,,,,2.9,2.0,2.1*3A
$GPRMC,201212.000,A,3747.6568,N,12215.4407,W,1.94,163.95,300412,,,A*76
$GPVTG,163.95,T,,M,1.94,N,3.6,K,A*0C
$GPGGA,201213.000,3747.6562,N,12215.4402,W,1,07,2.0,27.0,M,-25.1,M,,0000*51
$GPGSA,A,3,32,23,04,13,20,07,01,,,,,,2.9,2.0,2.1*3A
$GPRMC,201213.000,A,3747.6562,N,12215.4402,W,1.90,137.69,300412,,,A*7E
$GPVTG,137.69,T,,M,1.90,N,3.5,K,A*09
$GPGGA,201214.000,3747.6557,N,12215.4398,W,1,07,2.0,26.2,M,-25.1,M,,0000*57
$GPGSA,A,3,32,23,04,13,20,07,01,,,,,,2.9,2.0,2.1*3A
$GPRMC,201214.000,A,3747.6557,N,12215.4398,W,1.75,121.79,300412,,,A*76
$GPVTG,121.79,T,,M,1.75,N,3.2,K,A*03
$GPGGA,201215.000,3747.6550,N,12215.4397,W,1,06,2.0,26.0,M,-25.1,M,,0000*5D
$GPGSA,A,3,32,23,04,20,07,01,,,,,,,2.9,2.0,2.1*38
$GPRMC,201215.000,A,3747.6550,N,12215.4397,W,1.45,157.86,300412,,,A*7D
$GPVTG,157.86,T,,M,1.45,N,2.7,K,A*05
$GPGGA,201216.000,3747.6545,N,12215.4394,W,1,07,2.0,26.4,M,-25.1,M,,0000*5C
$GPGSA,A,3,32,23,04,13,20,07,01,,,,,,2.9,2.0,2.1*3A
$GPGSV,3,1,12,20,67,191,31,23,63,334,26,16,47,106,36,32,47,151,35*73
$GPGSV,3,2,12,30,42,066,31,13,37,299,21,07,23,237,19,04,14,301,22*70
$GPGSV,3,3,12,31,09,049,16,10,08,317,20,01,06,199,20,48,44,197,35*74
$GPRMC,201216.000,A,3747.6545,N,12215.4394,W,1.48,156.01,300412,,,A*7A
$GPVTG,156.01,T,,M,1.48,N,2.7,K,A*06
$GPGGA,201217.000,3747.6537,N,12215.4393,W,1,07,2.0,27.0,M,-25.1,M,,0000*5A
$GPGSA,A,3,32,23,04,13,20,07,01,,,,,,2.9,2.0,2.1*3A
$GPRMC,201217.000,A,3747.6537,N,12215.4393,W,1.80,149.94,300412,,,A*7F
$GPVTG,149.94,T,,M,1.80,N,3.3,K,A*05
$GPGGA,201218.000,3747.6541,N,12215.4377,W,1,07,2.0,27.7,M,-25.1,M,,0000*59
$GPGSA,A,3,32,23,04,13,20,07,01,,,,,,2.9,2.0,2.1*3A
$GPRMC,201218.000,A,3747.6541,N,12215.4377,W,2.16,110.61,300412,,,A*71
$GPVTG,110.61,T,,M,2.16,N,4.0,K,A*0B
$GPGGA,201219.000,3747.6538,N,12215.4369,W,1,07,2.0,27.5,M,-25.1,M,,0000*5B
$GPGSA,A,3,32,23,04,13,20,07,01,,,,,,2.9,2.0,2.1*3A
$GPRMC,201219.000,A,3747.6538,N,12215.4369,W,1.86,111.96,300412,,,A*72
$GPVTG,111.96,T,,M,1.86,N,3.4,K,A*0B
$GPGGA,201220.000,3747.6534,N,12215.4362,W,1,07,2.0,27.5,M,-25.1,M,,0000*56
$GPGSA,A,3,32,23,04,13,20,07,01,,,,,,2.9,2.0,2.1*3A
$GPRMC,201220.000,A,3747.6534,N,12215.4362,W,1.89,117.64,300412,,,A*7B
$GPVTG,117.64,T,,M,1.89,N,3.5,K,A*0E
$GPGGA,201221.000,3747.6530,N,12215.4355,W,1,07,2.0,27.6,M,-25.1,M,,0000*54
$GPGSA,A,3,32,23,04,13,20,07,01,,,,,,2.9,2.0,2.1*3A
$GPGSV,3,1,12,20,67,191,31,23,63,334,26,16,47,106,36,32,46,151,35*72
$GPGSV,3,2,12,30,42,066,31,13,37,299,23,07,23,237,20,04,14,301,21*7B
$GPGSV,3,3,12,31,09,050,16,10,08,317,20,01,05,199,23,48,44,197,34*7D
$GPRMC,201221.000,A,3747.6530,N,12215.4355,W,1.73,120.72,300412,,,A*7C
$GPVTG,120.72,T,,M,1.73,N,3.2,K,A*0F
$GPGGA,201222.000,3747.6532,N,12215.4345,W,1,07,2.0,26.7,M,-25.1,M,,0000*54
$GPGSA,A,3,32,23,04,13,20,07,01,,,,,,2.9,2.0,2.1*3A
$GPRMC,201222.000,A,3747.6532,N,12215.4345,W,1.49,107.85,300412,,,A*78
$GPVTG,107.85,T,,M,1.49,N,2.8,K,A*00
$GPGGA,201223.000,3747.6528,N,12215.4340,W,1,07,2.0,27.2,M,-25.1,M,,0000*5F
$GPGSA,A,3,32,23,04,13,20,07,01,,,,,,2.9,2.0,2.1*3A
$GPRMC,201223.000,A,3747.6528,N,12215.4340,W,1.15,119.99,300412,,,A*7C
$GPVTG,119.99,T,,M,1.15,N,2.1,K,A*02
$GPGGA,201224.000,3747.6525,N,12215.4340,W,1,07,2.0,27.3,M,-25.1,M,,0000*54
$GPGSA,A,3,32,23,04,13,20,07,01,,,,,,2.9,2.0,2.1*3A
$GPRMC,201224.000,A,3747.6525,N,12215.4340,W,1.44,120.26,300412,,,A*7C
$GPVTG,120.26,T,,M,1.44,N,2.7,K,A*0E
$GPGGA,201225.000,3747.6518,N,12215.4337,W,1,07,2.0,27.4,M,-25.1,M,,0000*5C
$GPGSA,A,3,32,23,04,13,20,07,01,,,,,,2.9,2.0,2.1*3A
$GPRMC,201225.000,A,3747.6518,N,12215.4337,W,1.62,126.37,300412,,,A*71
$GPVTG,126.37,T,,M,1.62,N,3.0,K,A*0A
$GPGGA,201226.000,3747.6517,N,12215.4330,W,1,07,2.0,27.6,M,-25.1,M,,0000*55
$GPGSA,A,3,32,23,04,13,20,07,01,,,,,,2.9,2.0,2.1*3A
$GPGSV,3,1,12,20,67,191,31,23,63,334,26,16,47,106,36,32,46,151,35*72
$GPGSV,3,2,12,30,42,066,31,13,37,299,23,07,23,237,22,04,14,301,24*7C
$GPGSV,3,3,12,31,09,050,17,10,08,317,20,01,05,199,25,48,44,197,33*7D
$GPVTG,110.38,T,,M,1.42,N,2.6,K,A*05
$GPGGA,201227.000,3747.6519,N,12215.4320,W,1,07,2.0,27.0,M,-25.1,M,,0000*5D
$GPGSA,A,3,32,23,04,13,20,07,01,,,,,,2.9,2.0,2.1*3A
$GPRMC,201227.000,A,3747.6519,N,12215.4320,W,1.38,109.07,300412,,,A*75
$GPVTG,109.07,T,,M,1.38,N,2.6,K,A*0C
$GPGGA,201228.000,3747.6511,N,12215.4319,W,1,07,2.0,26.8,M,-25.1,M,,0000*59
$GPGSA,A,3,32,23,04,13,20,07,01,,,,,,2.9,2.0,2.1*3A
$GPRMC,201228.000,A,3747.6511,N,12215.4319,W,1.54,130.20,300412,,,A*7D
$GPVTG,130.20,T,,M,1.54,N,2.8,K,A*07
$GPGGA,201229.000,3747.6511,N,12215.4309,W,1,07,2.0,27.2,M,-25.1,M,,0000*52
$GPGSA,A,3,32,23,04,13,20,07,01,,,,,,2.9,2.0,2.1*3A
$GPRMC,201229.000,A,3747.6511,N,12215.4309,W,1.54,115.51,300412,,,A*7C
$GPVTG,115.51,T,,M,1.54,N,2.9,K,A*07
$GPGGA,201230.000,3747.6511,N,12215.4301,W,1,07,2.0,27.1,M,-25.1,M,,0000*51
$GPGSA,A,3,32,23,04,13,20,07,01,,,,,,2.9,2.0,2.1*3A
$GPRMC,201230.000,A,3747.6511,N,12215.4301,W,1.26,108.22,300412,,,A*71
$GPVTG,108.22,T,,M,1.26,N,2.3,K,A*00
$GPGGA,201231.000,3747.6511,N,12215.4291,W,1,07,2.0,26.7,M,-25.1,M,,0000*5F
$GPGSA,A,3,32,23,04,13,20,07,01,,,,,,2.9,2.0,2.1*3A
$GPGSV,3,1,12,20,67,191,31,23,63,334,25,16,47,106,35,32,46,151,35*72
$GPGSV,3,2,12,30,42,066,31,13,37,299,23,07,23,237,22,04,14,301,23*7B
$GPGSV,3,3,12,31,09,050,18,10,08,317,20,01,05,199,21,48,44,197,37*72
$GPRMC,201231.000,A,3747.6511,N,12215.4291,W,0.91,117.54,300412,,,A*7A
$GPVTG,117.54,T,,M,0.91,N,1.7,K,A*05
$GPGGA,201232.000,3747.6508,N,12215.4287,W,1,07,2.0,26.8,M,-25.1,M,,0000*5C
$GPGSA,A,3,32,23,04,13,20,07,01,,,,,,2.9,2.0,2.1*3A
$GPRMC,201232.000,A,3747.6508,N,12215.4287,W,1.14,124.43,300412,,,A*7C
$GPVTG,124.43,T,,M,1.14,N,2.1,K,A*0A
$GPGGA,201233.000,3747.6501,N,12215.4286,W,1,07,2.0,26.4,M,-25.1,M,,0000*59
$GPGSA,A,3,32,23,04,13,20,07,01,,,,,,2.9,2.0,2.1*3A
$GPRMC,201233.000,A,3747.6501,N,12215.4286,W,1.29,132.04,300412,,,A*7F
$GPVTG,132.04,T,,M,1.29,N,2.4,K,A*05
$GPGGA,201234.000,3747.6498,N,12215.4276,W,1,07,2.0,25.5,M,-25.1,M,,0000*52
$GPGSA,A,3,32,23,04,13,20,07,01,,,,,,2.9,2.0,2.1*3A
$GPRMC,201234.000,A,3747.6498,N,12215.4276,W,1.40,143.92,300412,,,A*70
$GPVTG,143.92,T,,M,1.40,N,2.6,K,A*01
$GPGGA,201235.000,3747.6491,N,12215.4270,W,1,07,2.0,24.6,M,-25.1,M,,0000*5E
$GPGSA,A,3,32,23,04,13,20,07,01,,,,,,2.9,2.0,2.1*3A
$GPRMC,201235.000,A,3747.6491,N,12215.4270,W,1.55,134.55,300412,,,A*71
$GPVTG,134.55,T,,M,1.55,N,2.9,K,A*01
$GPGGA,201236.000,3747.6484,N,12215.4271,W,1,07,2.0,24.4,M,-25.1,M,,0000*5A
$GPGSA,A,3,32,23,04,13,20,07,01,,,,,,2.9,2.0,2.1*3A
$GPGSV,3,1,12,20,67,191,31,23,63,334,25,16,47,106,35,32,46,151,35*72
$GPGSV,3,2,12,30,42,066,27,13,37,299,24,07,23,237,29,04,14,301,20*73
$GPGSV,3,3,12,31,09,050,25,10,08,317,20,01,05,199,21,48,44,197,26*7C
$GPRMC,201236.000,A,3747.6484,N,12215.4271,W,1.59,123.72,300412,,,A*78
$GPVTG,123.72,T,,M,1.59,N,2.9,K,A*0E
$GPGGA,201237.000,3747.6477,N,12215.4270,W,1,07,2.0,24.5,M,-25.1,M,,0000*57
$GPGSA,A,3,32,23,04,13,20,07,01,,,,,,2.9,2.0,2.1*3A
$GPRMC,201237.000,A,3747.6477,N,12215.4270,W,1.85,145.47,300412,,,A*73
$GPVTG,145.47,T,,M,1.85,N,3.4,K,A*05
$GPGGA,201238.000,3747.6471,N,12215.4272,W,1,07,2.0,24.2,M,-25.1,M,,0000*5B
$GPGSA,A,3,32,23,04,13,20,07,01,,,,,,2.9,2.0,2.1*3A
$GPRMC,201238.000,A,3747.6471,N,12215.4272,W,1.46,141.34,300412,,,A*77
$GPVTG,141.34,T,,M,1.46,N,2.7,K,A*08
$GPGGA,201239.000,3747.6467,N,12215.4273,W,1,07,2.0,23.5,M,-25.1,M,,0000*5C
$GPGSA,A,3,32,23,04,13,20,07,01,,,,,,2.9,2.0,2.1*3A
$GPRMC,201239.000,A,3747.6467,N,12215.4273,W,1.14,133.80,300412,,,A*7D
$GPVTG,133.80,T,,M,1.14,N,2.1,K,A*03
$GPGGA,201240.000,3747.6462,N,12215.4269,W,1,07,2.0,23.3,M,-25.1,M,,0000*5A
$GPGSA,A,3,32,23,04,13,20,07,01,,,,,,2.9,2.0,2.1*3A
$GPRMC,201240.000,A,3747.6462,N,12215.4269,W,1.32,116.91,300412,,,A*7E
$GPVTG,116.91,T,,M,1.32,N,2.4,K,A*05
$GPGGA,201241.000,3747.6451,N,12215.4272,W,1,07,2.0,23.8,M,-25.1,M,,0000*5A
$GPGSA,A,3,32,23,04,13,20,07,01,,,,,,2.9,2.0,2.1*3A
$GPGSV,3,1,12,20,67,191,31,23,63,334,26,16,47,106,33,32,46,151,35*77
$GPGSV,3,2,12,30,42,066,31,13,37,299,24,07,23,237,24,04,14,301,19*73
$GPGSV,3,3,12,31,09,050,26,10,08,317,20,01,05,199,21,48,44,197,35*7D
$GPVTG,132.42,T,,M,1.89,N,3.5,K,A*0D
$GPGGA,201242.000,3747.6448,N,12215.4267,W,1,07,2.0,23.5,M,-25.1,M,,0000*58
$GPGSA,A,3,32,23,04,13,20,07,01,,,,,,2.9,2.0,2.1*3A
$GPRMC,201242.000,A,3747.6448,N,12215.4267,W,1.52,116.62,300412,,,A*70
$GPVTG,116.62,T,,M,1.52,N,2.8,K,A*03
$GPGGA,201243.000,3747.6439,N,12215.4269,W,1,07,2.0,23.3,M,-25.1,M,,0000*57
$GPGSA,A,3,32,23,04,13,20,07,01,,,,,,2.9,2.0,2.1*3A
$GPRMC,201243.000,A,3747.6439,N,12215.4269,W,1.68,136.87,300412,,,A*79
$GPVTG,136.87,T,,M,1.68,N,3.1,K,A*0B
$GPGGA,201244.000,3747.6426,N,12215.4275,W,1,07,2.0,24.5,M,-25.1,M,,0000*52
$GPGSA,A,3,32,23,04,13,20,07,01,,,,,,2.9,2.0,2.1*3A
$GPRMC,201244.000,A,3747.6426,N,12215.4275,W,1.61,153.20,300412,,,A*7A
$GPVTG,153.20,T,,M,1.61,N,3.0,K,A*0D
$GPGGA,201245.000,3747.6423,N,12215.4269,W,1,07,2.0,23.3,M,-25.1,M,,0000*5A
$GPGSA,A,3,32,23,04,13,20,07,01,,,,,,2.9,2.0,2.1*3A
$GPRMC,201245.000,A,3747.6423,N,12215.4269,W,1.97,137.04,300412,,,A*7E
$GPVTG,137.04,T,,M,1.97,N,3.6,K,A*06
$GPGGA,201246.000,3747.6418,N,12215.4265,W,1,07,2.0,23.6,M,-25.1,M,,0000*58
$GPGSA,A,3,32,23,04,13,20,07,01,,,,,,2.9,2.0,2.1*3A
$GPGSV,3,1,12,20,67,191,25,23,63,334,26,16,47,106,34,32,46,151,34*74
$GPGSV,3,2,12,30,42,066,28,13,37,299,25,07,23,237,26,04,14,301,19*78
$GPGSV,3,3,12,31,09,050,32,10,08,317,20,01,05,199,21,48,44,197,26*7A
$GPRMC,201246.000,A,3747.6418,N,12215.4265,W,1.86,128.80,300412,,,A*7B
$GPVTG,128.80,T,,M,1.86,N,3.4,K,A*06
$GPGGA,201247.000,3747.6418,N,12215.4255,W,1,07,2.0,22.7,M,-25.1,M,,0000*5A
$GPGSA,A,3,32,23,04,13,20,07,01,,,,,,2.9,2.0,2.1*3A
$GPRMC,201247.000,A,3747.6418,N,12215.4255,W,2.26,131.71,300412,,,A*76
$GPVTG,131.71,T,,M,2.26,N,4.2,K,A*08
$GPGGA,201248.000,3747.6417,N,12215.4243,W,1,07,2.0,21.9,M,-25.1,M,,0000*50
$GPGSA,A,3,32,23,04,13,20,07,01,,,,,,2.9,2.0,2.1*3A
$GPRMC,201248.000,A,3747.6417,N,12215.4243,W,1.67,140.61,300412,,,A*70
$GPVTG,140.61,T,,M,1.67,N,3.1,K,A*0D
$GPGGA,201249.000,3747.6411,N,12215.4237,W,1,07,2.0,22.5,M,-25.1,M,,0000*5B
$GPGSA,A,3,32,23,04,13,20,07,01,,,,,,2.9,2.0,2.1*3A
$GPRMC,201249.000,A,3747.6411,N,12215.4237,W,1.93,109.91,300412,,,A*7D
$GPVTG,109.91,T,,M,1.93,N,3.6,K,A*03
$GPGGA,201250.000,3747.6405,N,12215.4231,W,1,07,2.0,22.0,M,-25.1,M,,0000*55
$GPGSA,A,3,32,23,04,13,20,07,01,,,,,,2.9,2.0,2.1*3A
$GPRMC,201250.000,A,3747.6405,N,12215.4231,W,2.16,102.69,300412,,,A*74
$GPVTG,102.69,T,,M,2.16,N,4.0,K,A*00
$GPGGA,201251.000,3747.6400,N,12215.4221,W,1,07,2.0,21.9,M,-25.1,M,,0000*5A
$GPGSA,A,3,32,23,04,13,20,07,01,,,,,,2.9,2.0,2.1*3A
$GPGSV,3,1,12,20,67,191,27,23,63,334,25,16,47,106,34,32,46,151,34*75
$GPGSV,3,2,12,30,42,066,31,13,37,299,23,07,23,237,17,04,14,301,19*74
$GPGSV,3,3,12,31,09,050,28,10,08,317,21,01,05,199,21,48,44,197,32*75
$GPRMC,201251.000,A,3747.6400,N,12215.4221,W,2.62,98.86,300412,,,A*41
$GPVTG,98.86,T,,M,2.62,N,4.8,K,A*38
$GPGGA,201252.000,3747.6395,N,12215.4209,W,1,07,2.0,23.1,M,-25.1,M,,0000*52
$GPGSA,A,3,32,23,04,13,20,07,01,,,,,,2.9,2.0,2.1*3A
$GPRMC,201252.000,A,3747.6395,N,12215.4209,W,2.74,97.33,300412,,,A*45
$GPVTG,97.33,T,,M,2.74,N,5.1,K,A*36
$GPGGA,201253.000,3747.6388,N,12215.4201,W,1,07,2.0,23.6,M,-25.1,M,,0000*50
$GPGSA,A,3,32,23,04,13,20,07,01,,,,,,2.9,2.0,2.1*3A
$GPRMC,201253.000,A,3747.6388,N,12215.4201,W,1.75,106.70,300412,,,A*7C
$GPVTG,106.70,T,,M,1.75,N,3.2,K,A*0F
$GPGGA,201254.000,3747.6384,N,12215.4196,W,1,07,2.0,23.8,M,-25.1,M,,0000*58
$GPGSA,A,3,32,23,04,13,20,07,01,,,,,,2.9,2.0,2.1*3A
$GPRMC,201254.000,A,3747.6384,N,12215.4196,W,0.81,140.20,300412,,,A*77
$GPVTG,140.20,T,,M,0.81,N,1.5,K,A*07
$GPGGA,201255.000,3747.6374,N,12215.4200,W,1,07,2.0,24.7,M,-25.1,M,,0000*52
$GPGSA,A,3,32,23,04,13,20,07,01,,,,,,2.9,2.0,2.1*3A
$GPRMC,201255.000,A,3747.6374,N,12215.4200,W,0.74,120.88,300412,,,A*7B
$GPVTG,120.88,T,,M,0.74,N,1.4,K,A*08
$GPGGA,201256.000,3747.6371,N,12215.4196,W,1,07,2.0,25.6,M,-25.1,M,,0000*58
$GPGSA,A,3,32,23,04,13,20,07,01,,,,,,2.9,2.0,2.1*3A
$GPGSV,3,1,12,20,67,191,33,23,63,334,25,16,47,106,34,32,46,151,35*71
$GPGSV,3,2,12,30,42,066,32,13,37,299,21,07,23,237,24,04,14,301,19*75
$GPGSV,3,3,12,31,09,050,22,10,08,317,20,01,05,199,21,48,44,197,28*75
$GPRMC,201256.000,A,3747.6371,N,12215.4196,W,0.78,125.16,300412,,,A*7F
$GPVTG,125.16,T,,M,0.78,N,1.5,K,A*07
$GPGGA,201257.000,3747.6365,N,12215.4194,W,1,07,2.0,26.3,M,-25.1,M,,0000*58
$GPGSA,A,3,32,23,04,13,20,07,01,,,,,,2.9,2.0,2.1*3A
$GPRMC,201257.000,A,3747.6365,N,12215.4194,W,1.63,150.28,300412,,,A*7D
$GPVTG,150.28,T,,M,1.63,N,3.0,K,A*04
$GPGGA,201258.000,3747.6359,N,12215.4192,W,2,08,1.4,26.2,M,-25.1,M,1.8,0000*73
$GPGSA,A,3,32,23,04,13,20,07,16,01,,,,,2.2,1.4,1.8*3B
$GPRMC,201258.000,A,3747.6359,N,12215.4192,W,1.38,140.15,300412,,,D*7F
$GPVTG,140.15,T,,M,1.38,N,2.6,K,D*07
$GPGGA,201259.000,3747.6354,N,12215.4193,W,2,08,1.4,26.0,M,-25.1,M,1.8,0000*7C
$GPGSA,A,3,32,23,04,13,20,07,16,01,,,,,2.2,1.4,1.8*3B
$GPRMC,201259.000,A,3747.6354,N,12215.4193,W,1.17,119.38,300412,,,D*7C
$GPVTG,119.38,T,,M,1.17,N,2.2,K,D*0D
$GPGGA,201300.000,3747.6351,N,12215.4186,W,2,08,1.4,26.0,M,-25.1,M,2.8,0000*73
$GPGSA,A,3,32,23,04,13,20,07,16,01,,,,,2.2,1.4,1.8*3B
$GPRMC,201300.000,A,3747.6351,N,12215.4186,W,1.44,116.18,300412,,,D*7B
$GPVTG,116.18,T,,M,1.44,N,2.7,K,D*03
$GPGGA,201301.000,3747.6349,N,12215.4183,W,2,08,1.4,25.7,M,-25.1,M,3.8,0000*7B
$GPGSA,A,3,32,23,04,13,20,07,16,01,,,,,2.2,1.4,1.8*3B
$GPGSV,3,1,12,20,67,191,32,23,64,334,26,16,48,106,35,32,46,151,35*7A
$GPGSV,3,2,12,30,41,066,32,13,37,300,22,07,24,237,22,04,14,301,19*75
$GPGSV,3,3,12,10,09,317,26,31,08,050,17,01,05,199,20,03,00,133,*7F
$GPVTG,117.85,T,,M,1.51,N,2.8,K,D*0D
$GPGGA,201302.000,3747.6344,N,12215.4178,W,2,08,1.4,25.6,M,-25.1,M,1.8,0000*72
$GPGSA,A,3,32,23,04,13,20,07,16,01,,,,,2.2,1.4,1.8*3B
$GPRMC,201302.000,A,3747.6344,N,12215.4178,W,1.56,117.17,300412,,,D*71
$GPVTG,117.17,T,,M,1.56,N,2.9,K,D*00
$GPGGA,201303.000,3747.6341,N,12215.4174,W,2,08,1.4,25.0,M,-25.1,M,1.8,0000*7C
$GPGSA,A,3,32,23,04,13,20,07,16,01,,,,,2.2,1.4,1.8*3B
$GPRMC,201303.000,A,3747.6341,N,12215.4174,W,1.15,109.45,300412,,,D*76
$GPVTG,109.45,T,,M,1.15,N,2.1,K,D*07
$GPGGA,201304.000,3747.6336,N,12215.4171,W,2,08,1.4,24.3,M,-25.1,M,1.8,0000*7C
$GPGSA,A,3,32,23,04,13,20,07,16,01,,,,,2.2,1.4,1.8*3B
$GPRMC,201304.000,A,3747.6336,N,12215.4171,W,1.13,125.64,300412,,,D*7F
$GPVTG,125.64,T,,M,1.13,N,2.1,K,D*0C
$GPGGA,201305.000,3747.6333,N,12215.4171,W,2,08,1.4,23.5,M,-25.1,M,1.8,0000*79
$GPGSA,A,3,32,23,04,13,20,07,16,01,,,,,2.2,1.4,1.8*3B
$GPRMC,201305.000,A,3747.6333,N,12215.4171,W,1.29,145.69,300412,,,D*79
$GPVTG,145.69,T,,M,1.29,N,2.4,K,D*0B
$GPGGA,201306.000,3747.6331,N,12215.4170,W,2,08,1.4,22.8,M,-25.1,M,2.8,0000*76
$GPGSA,A,3,32,23,04,13,20,07,16,01,,,,,2.2,1.4,1.8*3B
$GPGSV,3,1,12,20,67,191,32,23,64,334,26,16,48,106,35,32,46,151,35*7A
$GPGSV,3,2,12,30,41,066,28,13,37,300,28,07,24,237,23,04,14,301,19*75
$GPGSV,3,3,12,10,09,317,22,31,08,050,17,01,05,199,20,03,00,133,*7B
$GPRMC,201306.000,A,3747.6331,N,12215.4170,W,1.43,149.22,300412,,,D*76
$GPVTG,149.22,T,,M,1.43,N,2.6,K,D*06
$GPGGA,201307.000,3747.6326,N,12215.4167,W,2,08,1.4,22.0,M,-25.1,M,3.8,0000*7E
$GPGSA,A,3,32,23,04,13,20,07,16,01,,,,,2.2,1.4,1.8*3B
$GPRMC,201307.000,A,3747.6326,N,12215.4167,W,1.33,129.11,300412,,,D*76
$GPVTG,129.11,T,,M,1.33,N,2.5,K,D*04
$GPGGA,201308.000,3747.6323,N,12215.4165,W,2,08,1.4,21.9,M,-25.1,M,4.8,0000*7B
$GPGSA,A,3,32,23,04,13,20,07,16,01,,,,,2.2,1.4,1.8*3B
$GPRMC,201308.000,A,3747.6323,N,12215.4165,W,1.36,122.83,300412,,,D*7B
$GPVTG,122.83,T,,M,1.36,N,2.5,K,D*01
$GPGGA,201309.000,3747.6320,N,12215.4161,W,2,08,1.4,21.3,M,-25.1,M,5.8,0000*76
$GPGSA,A,3,32,23,04,13,20,07,16,01,,,,,2.2,1.4,1.8*3B
$GPRMC,201309.000,A,3747.6320,N,12215.4161,W,1.63,136.50,300412,,,D*76
$GPVTG,136.50,T,,M,1.63,N,3.0,K,D*0E
$GPGGA,201310.000,3747.6315,N,12215.4158,W,2,07,1.5,20.6,M,-25.1,M,6.8,0000*7B
$GPGSA,A,3,32,23,04,13,20,07,16,,,,,,2.6,1.5,2.2*36
$GPRMC,201310.000,A,3747.6315,N,12215.4158,W,1.49,134.98,300412,,,D*7C
$GPVTG,134.98,T,,M,1.49,N,2.8,K,D*09
$GPGGA,201311.000,3747.6311,N,12215.4155,W,2,08,1.4,20.0,M,-25.1,M,7.8,0000*7A
$GPGSA,A,3,32,23,04,13,20,07,16,01,,,,,2.2,1.4,1.8*3B
$GPGSV,3,1,12,20,67,191,26,23,64,334,25,16,48,106,26,32,46,151,30*7B
$GPGSV,3,2,12,30,41,066,36,13,37,300,28,07,24,237,24,04,14,301,19*7D
$GPGSV,3,3,12,10,09,317,20,31,08,050,17,01,05,199,12,03,00,133,*78
$GPRMC,201311.000,A,3747.6311,N,12215.4155,W,1.36,116.86,300412,,,D*73
$GPVTG,116.86,T,,M,1.36,N,2.5,K,D*03
$GPGGA,201312.000,3747.6308,N,12215.4151,W,2,08,1.4,19.1,M,-25.1,M,8.8,0000*71
$GPGSA,A,3,32,23,04,13,20,07,16,01,,,,,2.2,1.4,1.8*3B
$GPRMC,201312.000,A,3747.6308,N,12215.4151,W,1.31,114.03,300412,,,D*74
$GPVTG,114.03,T,,M,1.31,N,2.4,K,D*0A
$GPGGA,201313.000,3747.6305,N,12215.4144,W,2,08,1.4,17.9,M,-25.1,M,9.8,0000*7E
$GPGSA,A,3,32,23,04,13,20,07,16,01,,,,,2.2,1.4,1.8*3B
$GPRMC,201313.000,A,3747.6305,N,12215.4144,W,1.35,112.99,300412,,,D*7D
$GPVTG,112.99,T,,M,1.35,N,2.5,K,D*0A
$GPGGA,201314.000,3747.6300,N,12215.4139,W,2,08,1.4,16.4,M,-25.1,M,10.8,0000*42
$GPGSA,A,3,32,23,04,13,20,07,16,01,,,,,2.2,1.4,1.8*3B
$GPRMC,201314.000,A,3747.6300,N,12215.4139,W,1.38,134.53,300412,,,D*7A
$GPVTG,134.53,T,,M,1.38,N,2.6,K,D*06
$GPGGA,201315.000,3747.6301,N,12215.4129,W,2,08,1.4,16.8,M,-25.1,M,11.8,0000*4E
$GPGSA,A,3,32,23,04,13,20,07,16,01,,,,,2.2,1.4,1.8*3B
$GPRMC,201315.000,A,3747.6301,N,12215.4129,W,1.50,120.89,300412,,,D*77
$GPVTG,120.89,T,,M,1.50,N,2.8,K,D*04
