$ADVER,3080,2.3
$GPRMC,193134.736,A,3748.8002,N,12217.8595,W,0.03,200.19,311012,,,A*7E
$GPGGA,193135.736,3748.7999,N,12217.8598,W,1,06,1.8,3.5,M,-25.1,M,,0000*6F
$GPGSA,A,3,25,02,29,31,05,12,,,,,,,3.0,1.8,2.4*34
$GPGSV,3,1,09,25,67,291,40,12,65,166,37,02,48,046,37,05,47,120,36*77
$GPGSV,3,2,09,29,44,303,40,31,13,311,36,10,25,053,,21,12,235,*7C
$GPGSV,3,3,09,04,03,052,23*41
$GPRMC,193135.736,A,3748.7999,N,12217.8598,W,0.05,127.68,311012,,,A*70
$GPVTG,127.68,T,,M,0.05,N,0.1,K,A*03
$GPGGA,193136.000,3748.7999,N,12217.8598,W,1,06,1.8,3.5,M,-25.1,M,,0000*6E
$GPGSA,A,3,25,02,29,31,05,12,,,,,,,3.0,1.8,2.4*34
$GPRMC,193136.000,A,3748.7999,N,12217.8598,W,0.11,114.55,311012,,,A*7A
$GPVTG,114.55,T,,M,0.11,N,0.2,K,A*0B
$GPGGA,193137.000,3748.7999,N,12217.8598,W,1,06,1.8,3.3,M,-25.1,M,,0000*69
$GPGSA,A,3,25,02,29,31,05,12,,,,,,,3.0,1.8,2.4*34
$GPRMC,193137.000,A,3748.7999,N,12217.8598,W,0.05,135.14,311012,,,A*78
$GPVTG,135.14,T,,M,0.05,N,0.1,K,A*0B
$GPGGA,193138.000,3748.7998,N,12217.8598,W,1,06,1.8,3.2,M,-25.1,M,,0000*66
$GPGSA,A,3,25,02,29,31,05,12,,,,,,,3.0,1.8,2.4*34
$GPRMC,193138.000,A,3748.7998,N,12217.8598,W,0.06,169.74,311012,,,A*7A
$GPVTG,169.74,T,,M,0.06,N,0.1,K,A*07
$GPGGA,193139.000,3748.7998,N,12217.8598,W,1,06,1.8,3.1,M,-25.1,M,,0000*64
$GPGSA,A,3,25,02,29,31,05,12,,,,,,,3.0,1.8,2.4*34
$GPRMC,193139.000,A,3748.7998,N,12217.8598,W,0.07,167.85,311012,,,A*7A
$GPVTG,167.85,T,,M,0.07,N,0.1,K,A*06
$GPGGA,193140.000,3748.7998,N,12217.8598,W,1,06,1.8,3.1,M,-25.1,M,,0000*6A
$GPGSA,A,3,25,02,29,31,05,12,,,,,,,3.0,1.8,2.4*34
$GPGSV,3,1,10,25,67,291,41,12,65,166,37,02,48,046,37,05,47,120,36*7E
$GPGSV,3,2,10,29,44,303,39,31,13,311,36,10,25,053,24,21,12,235,28*76
$GPGSV,3,3,10,04,03,052,22,48,00,000,31*76
$GPRMC,193140.000,A,3748.7998,N,12217.8598,W,0.06,165.99,311012,,,A*7A
$GPGGA,193141.000,3748.7998,N,12217.8598,W,1,06,1.8,3.0,M,-25.1,M,,0000*6A
$GPGSA,A,3,25,02,29,31,05,12,,,,,,,3.0,1.8,2.4*34
$GPRMC,193141.000,A,3748.7998,N,12217.8598,W,0.06,161.56,311012,,,A*7C
$GPVTG,161.56,T,,M,0.06,N,0.1,K,A*0F
$GPGGA,193142.000,3748.7998,N,12217.8598,W,1,06,1.8,3.0,M,-25.1,M,,0000*69
$GPGSA,A,3,25,02,29,31,05,12,,,,,,,3.0,1.8,2.4*34
$GPRMC,193142.000,A,3748.7998,N,12217.8598,W,0.05,153.88,311012,,,A*7E
$GPVTG,153.88,T,,M,0.05,N,0.1,K,A*0E
$GPGGA,193143.000,3748.7998,N,12217.8597,W,1,06,1.8,2.9,M,-25.1,M,,0000*6F
$GPGSA,A,3,25,02,29,31,05,12,,,,,,,3.0,1.8,2.4*34
$GPRMC,193143.000,A,3748.7998,N,12217.8597,W,0.06,128.85,311012,,,A*72
$GPVTG,128.85,T,,M,0.06,N,0.1,K,A*0C
$GPGGA,193144.000,3748.7998,N,12217.8597,W,1,06,1.8,2.9,M,-25.1,M,,0000*68
$GPGSA,A,3,25,02,29,31,05,12,,,,,,,3.0,1.8,2.4*34
$GPRMC,193144.000,A,3748.7998,N,12217.8597,W,0.06,159.37,311012,,,A*7A
$GPVTG,159.37,T,,M,0.06,N,0.1,K,A*03
$GPGGA,193145.000,3748.7998,N,12217.8597,W,1,06,1.8,2.8,M,-25.1,M,,0000*68
$GPGSA,A,3,25,02,29,31,05,12,,,,,,,3.0,1.8,2.4*34
$GPGSV,3,1,10,25,67,291,40,12,65,166,37,02,48,046,37,05,47,120,36*7F
$GPGSV,3,2,10,29,44,303,39,10,25,053,28,31,13,310,36,21,12,235,28*7B
$GPGSV,3,3,10,04,03,052,15,48,44,197,33*7F
$GPRMC,193145.000,A,3748.7998,N,12217.8597,W,0.05,146.14,311012,,,A*77
$GPVTG,146.14,T,,M,0.05,N,0.1,K,A*0F
$GPGGA,193146.000,3748.7998,N,12217.8597,W,1,06,1.8,2.8,M,-25.1,M,,0000*6B
$GPGSA,A,3,25,02,29,31,05,12,,,,,,,3.0,1.8,2.4*34
$GPRMC,193146.000,A,3748.7998,N,12217.8597,W,0.06,133.72,311012,,,A*75
$GPVTG,133.72,T,,M,0.06,N,0.1,K,A*0E
$GPGGA,193147.000,3748.7998,N,12217.8597,W,1,06,1.8,2.8,M,-25.1,M,,0000*6A
$GPGSA,A,3,25,02,29,31,05,12,,,,,,,3.0,1.8,2.4*34
$GPRMC,193147.000,A,3748.7998,N,12217.8597,W,0.06,146.31,311012,,,A*71
$GPVTG,146.31,T,,M,0.06,N,0.1,K,A*0B
$GPGGA,193148.000,3748.7998,N,12217.8597,W,1,06,1.8,2.8,M,-25.1,M,,0000*65
$GPGSA,A,3,25,02,29,31,05,12,,,,,,,3.0,1.8,2.4*34
$GPRMC,193148.000,A,3748.7998,N,12217.8597,W,0.05,142.93,311012,,,A*71
$GPVTG,142.93,T,,M,0.05,N,0.1,K,A*04
$GPGGA,193149.000,3748.7998,N,12217.8597,W,1,06,1.8,2.8,M,-25.1,M,,0000*64
$GPGSA,A,3,25,02,29,31,05,12,,,,,,,3.0,1.8,2.4*34
$GPRMC,193149.000,A,3748.7998,N,12217.8597,W,0.07,143.21,311012,,,A*7A
$GPVTG,143.21,T,,M,0.07,N,0.1,K,A*0E
$GPGGA,193150.000,3748.7998,N,12217.8597,W,1,06,1.8,2.8,M,-25.1,M,,0000*6C
$GPGSA,A,3,25,02,29,31,05,12,,,,,,,3.0,1.8,2.4*34
$GPGSV,3,1,10,25,67,291,40,12,65,166,37,02,48,046,37,05,47,120,36*7F
$GPGSV,3,2,10,29,44,303,39,10,25,052,28,31,13,310,36,21,12,235,27*75
$GPGSV,3,3,10,04,03,052,15,48,44,197,33*7F
$GPRMC,193150.000,A,3748.7998,N,12217.8597,W,0.05,137.39,311012,,,A*7A
$GPVTG,137.39,T,,M,0.05,N,0.1,K,A*06
$GPGGA,193151.000,3748.7998,N,12217.8597,W,1,06,1.8,2.7,M,-25.1,M,,0000*62
$GPGSA,A,3,25,02,29,31,05,12,,,,,,,3.0,1.8,2.4*34
$GPRMC,193151.000,A,3748.7998,N,12217.8597,W,0.05,137.95,311012,,,A*7D
$GPVTG,137.95,T,,M,0.05,N,0.1,K,A*00
$GPGGA,193152.000,3748.7998,N,12217.8597,W,1,06,1.8,2.7,M,-25.1,M,,0000*61
$GPGSA,A,3,25,02,29,31,05,12,,,,,,,3.0,1.8,2.4*34
$GPRMC,193152.000,A,3748.7998,N,12217.8597,W,0.06,143.84,311012,,,A*7E
$GPVTG,143.84,T,,M,0.06,N,0.1,K,A*00
$GPGGA,193153.000,3748.7998,N,12217.8597,W,1,06,1.8,2.7,M,-25.1,M,,0000*60
$GPGSA,A,3,25,02,29,31,05,12,,,,,,,3.0,1.8,2.4*34
$GPRMC,193153.000,A,3748.7998,N,12217.8597,W,0.05,115.46,311012,,,A*71
$GPVTG,115.46,T,,M,0.05,N,0.1,K,A*0E
$GPGGA,193154.000,3748.7998,N,12217.8597,W,1,06,1.8,2.7,M,-25.1,M,,0000*67
$GPGSA,A,3,25,02,29,31,05,12,,,,,,,3.0,1.8,2.4*34
$GPRMC,193154.000,A,3748.7998,N,12217.8597,W,0.04,135.92,311012,,,A*7C
$GPVTG,135.92,T,,M,0.04,N,0.1,K,A*04
$GPGGA,193155.000,3748.7998,N,12217.8597,W,1,06,1.8,2.6,M,-25.1,M,,0000*67
$GPGSA,A,3,25,02,29,31,05,12,,,,,,,3.0,1.8,2.4*34
$GPGSV,3,1,10,25,67,291,40,12,65,166,37,02,48,046,38,05,47,120,37*71
$GPGSV,3,2,10,29,44,303,39,10,25,052,28,31,13,310,36,21,12,235,27*75
$GPGSV,3,3,10,04,03,052,,48,44,197,32*7A
$GPRMC,193155.000,A,3748.7998,N,12217.8597,W,0.05,132.82,311012,,,A*7A
$GPGGA,193156.000,3748.7998,N,12217.8597,W,1,06,1.8,2.6,M,-25.1,M,,0000*64
$GPGSA,A,3,25,02,29,31,05,12,,,,,,,3.0,1.8,2.4*34
$GPRMC,193156.000,A,3748.7998,N,12217.8597,W,0.05,137.21,311012,,,A*75
$GPVTG,137.21,T,,M,0.05,N,0.1,K,A*0F
$GPGGA,193157.000,3748.7998,N,12217.8597,W,1,06,1.8,2.6,M,-25.1,M,,0000*65
$GPGSA,A,3,25,02,29,31,05,12,,,,,,,3.0,1.8,2.4*34
$GPRMC,193157.000,A,3748.7998,N,12217.8597,W,0.05,144.68,311012,,,A*7D
$GPVTG,144.68,T,,M,0.05,N,0.1,K,A*06
$GPGGA,193158.000,3748.7998,N,12217.8598,W,1,06,1.8,2.5,M,-25.1,M,,0000*66
$GPGSA,A,3,25,02,29,31,05,12,,,,,,,3.0,1.8,2.4*34
$GPRMC,193158.000,A,3748.7998,N,12217.8598,W,0.07,149.83,311012,,,A*77
$GPVTG,149.83,T,,M,0.07,N,0.1,K,A*0C
$GPGGA,193159.000,3748.7998,N,12217.8598,W,1,06,1.8,2.5,M,-25.1,M,,0000*67
$GPGSA,A,3,25,02,29,31,05,12,,,,,,,3.0,1.8,2.4*34
$GPRMC,193159.000,A,3748.7998,N,12217.8598,W,0.05,113.95,311012,,,A*7C
$GPVTG,113.95,T,,M,0.05,N,0.1,K,A*06
$GPGGA,193200.000,3748.7998,N,12217.8598,W,1,06,1.8,2.5,M,-25.1,M,,0000*68
$GPGSA,A,3,25,02,29,31,05,12,,,,,,,3.0,1.8,2.4*34
$GPGSV,3,1,10,25,67,291,40,12,65,166,38,02,48,046,38,05,47,120,37*7E
$GPGSV,3,2,10,29,44,303,39,10,25,052,28,31,13,310,35,21,12,235,27*76
$GPGSV,3,3,10,04,03,052,,48,44,197,31*79
$GPRMC,193200.000,A,3748.7998,N,12217.8598,W,0.07,129.58,311012,,,A*79
$GPVTG,129.58,T,,M,0.07,N,0.1,K,A*0C
$GPGGA,193201.000,3748.7998,N,12217.8598,W,1,06,1.8,2.5,M,-25.1,M,,0000*69
$GPGSA,A,3,25,02,29,31,05,12,,,,,,,3.0,1.8,2.4*34
$GPRMC,193201.000,A,3748.7998,N,12217.8598,W,0.06,137.85,311012,,,A*76
$GPVTG,137.85,T,,M,0.06,N,0.1,K,A*02
$GPGGA,193202.000,3748.7999,N,12217.8598,W,1,06,1.8,2.5,M,-25.1,M,,0000*6B
$GPGSA,A,3,25,02,29,31,05,12,,,,,,,3.0,1.8,2.4*34
$GPRMC,193202.000,A,3748.7999,N,12217.8598,W,0.03,143.69,311012,,,A*70
$GPVTG,143.69,T,,M,0.03,N,0.1,K,A*06
$GPGGA,193203.000,3748.7999,N,12217.8598,W,1,06,1.8,2.5,M,-25.1,M,,0000*6A
$GPGSA,A,3,25,02,29,31,05,12,,,,,,,3.0,1.8,2.4*34
$GPRMC,193203.000,A,3748.7999,N,12217.8598,W,0.03,111.36,311012,,,A*7C
$GPVTG,111.36,T,,M,0.03,N,0.1,K,A*0B
$GPGGA,193204.000,3748.7999,N,12217.8598,W,1,06,1.8,2.5,M,-25.1,M,,0000*6D
$GPGSA,A,3,25,02,29,31,05,12,,,,,,,3.0,1.8,2.4*34
$GPRMC,193204.000,A,3748.7999,N,12217.8598,W,0.02,99.10,311012,,,A*4F
$GPVTG,99.10,T,,M,0.02,N,0.0,K,A*3E
$GPGGA,193205.000,3748.7999,N,12217.8598,W,1,06,1.8,2.5,M,-25.1,M,,0000*6C
$GPGSA,A,3,25,02,29,31,05,12,,,,,,,3.0,1.8,2.4*34
$GPGSV,3,1,10,25,67,291,40,12,65,166,38,02,48,046,38,05,47,120,37*7E
$GPGSV,3,2,10,29,44,303,38,10,25,052,26,31,13,310,35,21,12,235,27*79
$GPGSV,3,3,10,04,03,052,,48,44,197,32*7A
$GPRMC,193205.000,A,3748.7999,N,12217.8598,W,0.03,132.21,311012,,,A*7D
$GPVTG,132.21,T,,M,0.03,N,0.1,K,A*0C
$GPGGA,193206.000,3748.7999,N,12217.8598,W,1,06,1.8,2.6,M,-25.1,M,,0000*6C
$GPGSA,A,3,25,02,29,31,05,12,,,,,,,3.0,1.8,2.4*34
$GPRMC,193206.000,A,3748.7999,N,12217.8598,W,0.04,122.47,311012,,,A*78
$GPVTG,122.47,T,,M,0.04,N,0.1,K,A*0A
$GPGGA,193207.000,3748.7999,N,12217.8599,W,1,06,1.8,2.6,M,-25.1,M,,0000*6C
$GPGSA,A,3,25,02,29,31,05,12,,,,,,,3.0,1.8,2.4*34
$GPRMC,193207.000,A,3748.7999,N,12217.8599,W,0.06,176.33,311012,,,A*78
$GPVTG,176.33,T,,M,0.06,N,0.1,K,A*0A
$GPGGA,193208.000,3748.7999,N,12217.8600,W,1,06,1.8,2.3,M,-25.1,M,,0000*65
$GPGSA,A,3,25,02,29,31,05,12,,,,,,,3.0,1.8,2.4*34
$GPRMC,193208.000,A,3748.7999,N,12217.8600,W,0.09,304.14,311012,,,A*79
$GPVTG,304.14,T,,M,0.09,N,0.2,K,A*04
$GPGGA,193209.000,3748.7999,N,12217.8600,W,1,06,1.8,2.7,M,-25.1,M,,0000*60
$GPGSA,A,3,25,02,29,31,05,12,,,,,,,3.0,1.8,2.4*34
$GPRMC,193209.000,A,3748.7999,N,12217.8600,W,0.23,124.43,311012,,,A*72
$GPVTG,124.43,T,,M,0.23,N,0.4,K,A*08
$GPGGA,193210.000,3748.7999,N,12217.8600,W,1,06,1.8,2.8,M,-25.1,M,,0000*67
$GPGSA,A,3,25,02,29,31,05,12,,,,,,,3.0,1.8,2.4*34
$GPGSV,3,1,10,25,67,291,23,12,65,166,23,02,48,046,37,05,47,120,31*78
$GPGSV,3,2,10,29,44,303,31,10,25,052,22,31,13,310,24,21,12,235,22*71
$GPGSV,3,3,10,04,03,052,,48,44,197,26*7F
$GPRMC,193210.000,A,3748.7999,N,12217.8600,W,0.26,129.59,311012,,,A*79
$GPVTG,129.59,T,,M,0.26,N,0.5,K,A*0A
$GPGGA,193211.000,3748.8000,N,12217.8600,W,1,06,1.8,3.2,M,-25.1,M,,0000*6B
$GPGSA,A,3,25,02,29,31,05,12,,,,,,,3.0,1.8,2.4*34
$GPRMC,193211.000,A,3748.8000,N,12217.8600,W,0.33,68.12,311012,,,A*41
$GPVTG,68.12,T,,M,0.33,N,0.6,K,A*36
$GPGGA,193212.000,3748.8003,N,12217.8599,W,1,06,1.8,3.4,M,-25.1,M,,0000*6E
$GPGSA,A,3,25,02,29,31,05,12,,,,,,,3.0,1.8,2.4*34
$GPRMC,193212.000,A,3748.8003,N,12217.8599,W,0.24,17.21,311012,,,A*4C
$GPVTG,17.21,T,,M,0.24,N,0.4,K,A*3A
$GPGGA,193213.000,3748.8006,N,12217.8599,W,1,06,1.8,3.8,M,-25.1,M,,0000*66
$GPGSA,A,3,25,02,29,31,05,12,,,,,,,3.0,1.8,2.4*34
$GPRMC,193213.000,A,3748.8006,N,12217.8599,W,0.13,302.50,311012,,,A*7D
$GPVTG,302.50,T,,M,0.13,N,0.2,K,A*09
$GPGGA,193214.000,3748.8007,N,12217.8599,W,1,06,1.8,4.2,M,-25.1,M,,0000*6D
$GPGSA,A,3,25,02,29,31,05,12,,,,,,,3.0,1.8,2.4*34
$GPRMC,193214.000,A,3748.8007,N,12217.8599,W,0.14,253.94,311012,,,A*71
$GPVTG,253.94,T,,M,0.14,N,0.3,K,A*02
$GPGGA,193215.000,3748.8008,N,12217.8598,W,1,06,1.8,4.5,M,-25.1,M,,0000*65
$GPGSA,A,3,25,02,29,31,05,12,,,,,,,3.0,1.8,2.4*34
$GPGSV,3,1,10,25,67,291,22,12,65,166,24,02,48,046,29,05,47,120,31*71
$GPGSV,3,2,10,29,44,303,28,10,24,052,22,31,13,310,27,21,12,236,21*7B
$GPGSV,3,3,10,04,03,052,,48,44,197,28*71
$GPRMC,193215.000,A,3748.8008,N,12217.8598,W,0.22,239.74,311012,,,A*79
$GPVTG,239.74,T,,M,0.22,N,0.4,K,A*02
$GPGGA,193216.000,3748.8014,N,12217.8594,W,1,05,1.9,5.1,M,-25.1,M,,0000*60
$GPGSA,A,3,02,29,31,05,12,,,,,,,,3.6,1.9,3.1*30
$GPRMC,193216.000,A,3748.8014,N,12217.8594,W,1.27,31.06,311012,,,A*40
$GPVTG,31.06,T,,M,1.27,N,2.4,K,A*3B
$GPGGA,193217.000,3748.8016,N,12217.8594,W,1,06,1.8,5.4,M,-25.1,M,,0000*64
$GPGSA,A,3,25,02,29,31,05,12,,,,,,,3.0,1.8,2.4*34
$GPRMC,193217.000,A,3748.8016,N,12217.8594,W,0.42,340.01,311012,,,A*73
$GPVTG,340.01,T,,M,0.42,N,0.8,K,A*05
$GPGGA,193218.000,3748.8016,N,12217.8598,W,1,06,1.8,6.0,M,-25.1,M,,0000*60
$GPGSA,A,3,25,02,29,31,05,12,,,,,,,3.0,1.8,2.4*34
$GPRMC,193218.000,A,3748.8016,N,12217.8598,W,0.51,315.65,311012,,,A*70
$GPVTG,315.65,T,,M,0.51,N,0.9,K,A*04
$GPGGA,193219.000,3748.8016,N,12217.8603,W,1,06,1.8,6.8,M,-25.1,M,,0000*68
$GPGSA,A,3,25,02,29,31,05,12,,,,,,,3.0,1.8,2.4*34
$GPRMC,193219.000,A,3748.8016,N,12217.8603,W,0.64,288.52,311012,,,A*77
$GPVTG,288.52,T,,M,0.64,N,1.2,K,A*09
$GPGGA,193220.000,3748.8014,N,12217.8604,W,1,06,1.8,6.9,M,-25.1,M,,0000*66
$GPGSA,A,3,25,02,29,31,05,12,,,,,,,3.0,1.8,2.4*34
$GPGSV,3,1,10,25,67,291,31,12,65,166,23,02,48,046,27,05,47,120,23*79
$GPGSV,3,2,10,29,44,303,35,10,24,052,23,31,13,310,32,21,12,236,35*77
$GPGSV,3,3,10,04,03,052,,48,44,197,35*7D
$GPRMC,193220.000,A,3748.8014,N,12217.8604,W,0.42,95.79,311012,,,A*4B
$GPVTG,95.79,T,,M,0.42,N,0.8,K,A*31
$GPGGA,193221.000,3748.8008,N,12217.8604,W,1,06,1.8,5.9,M,-25.1,M,,0000*69
$GPGSA,A,3,25,02,29,31,05,12,,,,,,,3.0,1.8,2.4*34
$GPRMC,193221.000,A,3748.8008,N,12217.8604,W,0.84,196.82,311012,,,A*7B
$GPVTG,196.82,T,,M,0.84,N,1.6,K,A*02
$GPGGA,193222.000,3748.7999,N,12217.8608,W,1,06,1.8,5.0,M,-25.1,M,,0000*61
$GPGSA,A,3,25,02,29,31,05,12,,,,,,,3.0,1.8,2.4*34
$GPRMC,193222.000,A,3748.7999,N,12217.8608,W,0.94,160.60,311012,,,A*7E
$GPVTG,160.60,T,,M,0.94,N,1.7,K,A*07
$GPGGA,193223.000,3748.8000,N,12217.8602,W,1,06,1.8,5.4,M,-25.1,M,,0000*68
$GPGSA,A,3,25,02,29,31,05,12,,,,,,,3.0,1.8,2.4*34
$GPRMC,193223.000,A,3748.8000,N,12217.8602,W,0.70,118.24,311012,,,A*76
$GPVTG,118.24,T,,M,0.70,N,1.3,K,A*06
$GPGGA,193224.000,3748.7995,N,12217.8595,W,1,06,1.8,5.0,M,-25.1,M,,0000*6C
$GPGSA,A,3,25,02,29,31,05,12,,,,,,,3.0,1.8,2.4*34
$GPRMC,193224.000,A,3748.7995,N,12217.8595,W,1.08,115.54,311012,,,A*72
$GPVTG,115.54,T,,M,1.08,N,2.0,K,A*02
$GPGGA,193225.000,3748.7981,N,12217.8594,W,1,06,1.8,4.0,M,-25.1,M,,0000*68
$GPGSA,A,3,25,02,29,31,05,12,,,,,,,3.0,1.8,2.4*34
$GPGSV,3,1,09,25,67,291,22,12,65,166,29,02,48,046,25,05,47,120,34*7D
$GPGSV,3,2,09,29,44,303,22,10,24,052,28,31,13,310,21,21,12,236,26*72
$GPGSV,3,3,09,04,03,052,*40
$GPRMC,193225.000,A,3748.7981,N,12217.8594,W,1.66,152.07,311012,,,A*7A
$GPVTG,152.07,T,,M,1.66,N,3.1,K,A*0F
$GPGGA,193226.000,3748.7963,N,12217.8596,W,1,06,1.8,2.5,M,-25.1,M,,0000*66
$GPGSA,A,3,25,02,29,31,05,12,,,,,,,3.0,1.8,2.4*34
$GPRMC,193226.000,A,3748.7963,N,12217.8596,W,1.47,162.30,311012,,,A*73
$GPVTG,162.30,T,,M,1.47,N,2.7,K,A*0C
$GPGGA,193227.000,3748.7954,N,12217.8598,W,1,06,1.8,2.6,M,-25.1,M,,0000*6E
$GPGSA,A,3,25,02,29,31,05,12,,,,,,,3.0,1.8,2.4*34
$GPRMC,193227.000,A,3748.7954,N,12217.8598,W,1.17,144.29,311012,,,A*71
$GPVTG,144.29,T,,M,1.17,N,2.2,K,A*00
$GPGGA,193228.000,3748.7946,N,12217.8599,W,1,06,1.8,3.5,M,-25.1,M,,0000*61
$GPGSA,A,3,25,02,29,31,05,12,,,,,,,3.0,1.8,2.4*34
$GPRMC,193228.000,A,3748.7946,N,12217.8599,W,1.07,117.56,311012,,,A*73
$GPVTG,117.56,T,,M,1.07,N,2.0,K,A*0D
$GPGGA,193229.000,3748.7938,N,12217.8594,W,1,06,1.8,2.1,M,-25.1,M,,0000*61
$GPGSA,A,3,25,02,29,31,05,12,,,,,,,3.0,1.8,2.4*34
$GPRMC,193229.000,A,3748.7938,N,12217.8594,W,0.94,108.61,311012,,,A*77
$GPVTG,108.61,T,,M,0.94,N,1.7,K,A*08
$GPGGA,193230.000,3748.7936,N,12217.8592,W,1,06,1.8,4.0,M,-25.1,M,,0000*66
$GPGSA,A,3,25,02,29,31,05,12,,,,,,,3.0,1.8,2.4*34
$GPGSV,3,1,10,25,67,291,22,12,65,166,33,02,48,046,22,05,47,120,34*79
$GPGSV,3,2,10,29,44,303,17,10,24,052,20,31,13,310,19,21,12,236,25*7C
$GPGSV,3,3,10,04,03,052,,48,44,197,35*7D
$GPRMC,193230.000,A,3748.7936,N,12217.8592,W,0.61,94.11,311012,,,A*4E
$GPVTG,94.11,T,,M,0.61,N,1.1,K,A*37
$GPGGA,193231.000,3748.7935,N,12217.8589,W,1,06,1.8,4.6,M,-25.1,M,,0000*68
$GPGSA,A,3,25,02,29,31,05,12,,,,,,,3.0,1.8,2.4*34
$GPRMC,193231.000,A,3748.7935,N,12217.8589,W,0.44,109.62,311012,,,A*70
$GPVTG,109.62,T,,M,0.44,N,0.8,K,A*09
$GPGGA,193232.000,3748.7928,N,12217.8586,W,1,05,1.9,3.9,M,-25.1,M,,0000*62
$GPGSA,A,3,25,02,31,05,12,,,,,,,,3.1,1.9,2.5*3E
$GPRMC,193232.000,A,3748.7928,N,12217.8586,W,0.86,143.83,311012,,,A*7F
$GPVTG,143.83,T,,M,0.86,N,1.6,K,A*09
$GPGGA,193233.000,3748.7917,N,12217.8586,W,1,05,1.9,2.2,M,-25.1,M,,0000*65
$GPGSA,A,3,25,02,31,05,12,,,,,,,,3.1,1.9,2.5*3E
$GPRMC,193233.000,A,3748.7917,N,12217.8586,W,0.81,142.17,311012,,,A*79
$GPVTG,142.17,T,,M,0.81,N,1.5,K,A*01
$GPGGA,193234.000,3748.7909,N,12217.8580,W,1,05,1.9,2.2,M,-25.1,M,,0000*6B
$GPGSA,A,3,25,02,31,05,12,,,,,,,,3.1,1.9,2.5*3E
$GPRMC,193234.000,A,3748.7909,N,12217.8580,W,1.64,122.39,311012,,,A*77
$GPVTG,122.39,T,,M,1.64,N,3.0,K,A*06
$GPGGA,193235.000,3748.7901,N,12217.8571,W,1,05,1.9,0.9,M,-25.1,M,,0000*65
$GPGSA,A,3,25,02,31,05,12,,,,,,,,3.1,1.9,2.5*3E
$GPGSV,3,1,10,25,67,291,22,12,65,166,32,02,48,046,21,05,47,120,34*7B
$GPGSV,3,2,10,29,44,303,18,10,24,052,22,31,13,310,19,21,12,236,25*71
$GPRMC,193235.000,A,3748.7901,N,12217.8571,W,1.95,138.18,311012,,,A*76
$GPVTG,138.18,T,,M,1.95,N,3.6,K,A*06
$GPGGA,193236.000,3748.7898,N,12217.8556,W,1,06,1.8,-0.2,M,-25.1,M,,0000*46
$GPGSA,A,3,25,02,29,31,05,12,,,,,,,3.0,1.8,2.4*34
$GPRMC,193236.000,A,3748.7898,N,12217.8556,W,2.06,135.01,311012,,,A*7D
$GPVTG,135.01,T,,M,2.06,N,3.8,K,A*04
$GPGGA,193237.000,3748.7894,N,12217.8540,W,1,06,1.8,-1.5,M,-25.1,M,,0000*4A
$GPGSA,A,3,25,02,29,31,05,12,,,,,,,3.0,1.8,2.4*34
$GPRMC,193237.000,A,3748.7894,N,12217.8540,W,2.08,134.08,311012,,,A*71
$GPVTG,134.08,T,,M,2.08,N,3.9,K,A*03
$GPGGA,193238.000,3748.7890,N,12217.8529,W,1,05,1.9,-2.7,M,-25.1,M,,0000*4D
$GPGSA,A,3,25,02,31,05,12,,,,,,,,3.1,1.9,2.5*3E
$GPRMC,193238.000,A,3748.7890,N,12217.8529,W,2.57,122.09,311012,,,A*79
$GPVTG,122.09,T,,M,2.57,N,4.8,K,A*09
$GPGGA,193239.000,3748.7881,N,12217.8521,W,1,06,1.8,-3.8,M,-25.1,M,,0000*48
$GPGSA,A,3,25,02,29,31,05,12,,,,,,,3.0,1.8,2.4*34
$GPRMC,193239.000,A,3748.7881,N,12217.8521,W,1.77,110.72,311012,,,A*7C
$GPVTG,110.72,T,,M,1.77,N,3.3,K,A*09
$GPGGA,193240.000,3748.7884,N,12217.8517,W,1,06,1.8,-3.2,M,-25.1,M,,0000*4C
$GPGSA,A,3,25,02,29,31,05,12,,,,,,,3.0,1.8,2.4*34
$GPGSV,3,1,10,25,67,291,22,12,65,166,33,02,48,046,22,05,47,120,31*7C
$GPGSV,3,2,10,29,44,303,19,10,24,052,17,31,13,310,19,21,12,236,24*77
$GPGSV,3,3,10,04,03,052,,48,44,197,35*7D
$GPRMC,193240.000,A,3748.7884,N,12217.8517,W,0.82,99.73,311012,,,A*48
$GPVTG,99.73,T,,M,0.82,N,1.5,K,A*37
$GPGGA,193241.000,3748.7883,N,12217.8511,W,1,06,1.8,-1.4,M,-25.1,M,,0000*48
$GPGSA,A,3,25,02,29,31,05,12,,,,,,,3.0,1.8,2.4*34
$GPRMC,193241.000,A,3748.7883,N,12217.8511,W,1.57,128.97,311012,,,A*70
$GPVTG,128.97,T,,M,1.57,N,2.9,K,A*00
$GPGGA,193242.000,3748.7881,N,12217.8504,W,1,06,1.8,-0.6,M,-25.1,M,,0000*4E
$GPGSA,A,3,25,02,29,31,05,12,,,,,,,3.0,1.8,2.4*34
$GPRMC,193242.000,A,3748.7881,N,12217.8504,W,1.36,131.00,311012,,,A*74
$GPVTG,131.00,T,,M,1.36,N,2.5,K,A*0D
$GPGGA,193243.000,3748.7883,N,12217.8496,W,1,06,1.8,-0.4,M,-25.1,M,,0000*45
$GPGSA,A,3,25,02,29,31,05,12,,,,,,,3.0,1.8,2.4*34
$GPRMC,193243.000,A,3748.7883,N,12217.8496,W,1.05,121.22,311012,,,A*7C
$GPVTG,121.22,T,,M,1.05,N,1.9,K,A*03
$GPGGA,193244.000,3748.7877,N,12217.8492,W,1,06,1.8,-0.9,M,-25.1,M,,0000*40
$GPGSA,A,3,25,02,29,31,05,12,,,,,,,3.0,1.8,2.4*34
$GPRMC,193244.000,A,3748.7877,N,12217.8492,W,0.84,149.61,311012,,,A*75
$GPVTG,149.61,T,,M,0.84,N,1.6,K,A*0D
$GPGGA,193245.000,3748.7871,N,12217.8490,W,1,06,1.8,0.2,M,-25.1,M,,0000*63
$GPGSA,A,3,25,02,29,31,05,12,,,,,,,3.0,1.8,2.4*34
$GPGSV,3,1,10,25,67,291,23,12,65,166,30,02,48,046,22,05,47,120,27*79
$GPGSV,3,2,10,29,44,303,19,10,24,052,17,31,13,310,19,21,12,236,*71
$GPGSV,3,3,10,04,03,052,,48,44,197,33*7B
$GPRMC,193245.000,A,3748.7871,N,12217.8490,W,1.73,160.26,311012,,,A*71
$GPVTG,160.26,T,,M,1.73,N,3.2,K,A*0A
$GPGGA,193246.000,3748.7863,N,12217.8485,W,1,06,1.8,-0.7,M,-25.1,M,,0000*4F
$GPGSA,A,3,25,02,29,31,05,12,,,,,,,3.0,1.8,2.4*34
$GPRMC,193246.000,A,3748.7863,N,12217.8485,W,1.84,149.70,311012,,,A*75
$GPVTG,149.70,T,,M,1.84,N,3.4,K,A*0C
$GPGGA,193247.000,3748.7868,N,12217.8481,W,1,06,1.8,-0.8,M,-25.1,M,,0000*4E
$GPGSA,A,3,25,02,29,31,05,12,,,,,,,3.0,1.8,2.4*34
$GPRMC,193247.000,A,3748.7868,N,12217.8481,W,1.35,110.92,311012,,,A*71
$GPVTG,110.92,T,,M,1.35,N,2.5,K,A*06
$GPGGA,193248.000,3748.7862,N,12217.8479,W,1,06,1.8,-1.7,M,-25.1,M,,0000*42
$GPGSA,A,3,25,02,29,31,05,12,,,,,,,3.0,1.8,2.4*34
$GPRMC,193248.000,A,3748.7862,N,12217.8479,W,1.42,147.42,311012,,,A*7C
$GPVTG,147.42,T,,M,1.42,N,2.6,K,A*0A
$GPGGA,193249.000,3748.7851,N,12217.8481,W,1,06,1.8,-2.8,M,-25.1,M,,0000*48
$GPGSA,A,3,25,02,29,31,05,12,,,,,,,3.0,1.8,2.4*34
$GPRMC,193249.000,A,3748.7851,N,12217.8481,W,1.54,163.80,311012,,,A*75
$GPVTG,163.80,T,,M,1.54,N,2.8,K,A*0B
$GPGGA,193250.000,3748.7847,N,12217.8482,W,1,06,1.8,-2.3,M,-25.1,M,,0000*4F
$GPGSA,A,3,25,02,29,31,05,12,,,,,,,3.0,1.8,2.4*34
$GPGSV,3,1,10,25,67,291,18,12,65,166,30,02,48,046,21,05,47,120,35*71
$GPGSV,3,2,10,29,44,303,19,10,24,052,18,31,13,310,19,21,12,236,22*7E
$GPGSV,3,3,10,04,03,052,,48,44,197,35*7D
$GPVTG,129.57,T,,M,0.98,N,1.8,K,A*0D
$GPGGA,193251.000,3748.7855,N,12217.8470,W,1,06,1.8,-0.4,M,-25.1,M,,0000*45
$GPGSA,A,3,25,02,29,31,05,12,,,,,,,3.0,1.8,2.4*34
$GPRMC,193251.000,A,3748.7855,N,12217.8470,W,1.89,91.69,311012,,,A*4D
$GPVTG,91.69,T,,M,1.89,N,3.5,K,A*3C
$GPGGA,193252.000,3748.7855,N,12217.8460,W,1,06,1.8,0.9,M,-25.1,M,,0000*67
$GPGSA,A,3,25,02,29,31,05,12,,,,,,,3.0,1.8,2.4*34
$GPRMC,193252.000,A,3748.7855,N,12217.8460,W,1.98,85.14,311012,,,A*40
$GPVTG,85.14,T,,M,1.98,N,3.7,K,A*31
$GPGGA,193253.000,3748.7858,N,12217.8442,W,1,06,1.8,0.1,M,-25.1,M,,0000*63
$GPGSA,A,3,25,02,29,31,05,12,,,,,,,3.0,1.8,2.4*34
$GPRMC,193253.000,A,3748.7858,N,12217.8442,W,3.14,60.61,311012,,,A*43
$GPVTG,60.61,T,,M,3.14,N,5.8,K,A*37
$GPGGA,193254.000,3748.7858,N,12217.8430,W,1,06,1.8,-0.2,M,-25.1,M,,0000*4F
$GPGSA,A,3,25,02,29,31,05,12,,,,,,,3.0,1.8,2.4*34
$GPRMC,193254.000,A,3748.7858,N,12217.8430,W,2.06,59.94,311012,,,A*43
$GPVTG,59.94,T,,M,2.06,N,3.8,K,A*33
$GPGGA,193255.000,3748.7855,N,12217.8423,W,1,06,1.8,-0.7,M,-25.1,M,,0000*44
$GPGSA,A,3,25,02,29,31,05,12,,,,,,,3.0,1.8,2.4*34
$GPGSV,3,1,10,25,67,291,24,12,65,166,30,02,48,046,21,05,47,120,33*78
$GPGSV,3,2,10,29,44,303,20,10,24,052,24,31,13,310,18,21,12,236,30*79
$GPGSV,3,3,10,04,03,052,,48,44,197,30*78
$GPRMC,193255.000,A,3748.7855,N,12217.8423,W,1.51,93.55,311012,,,A*47
$GPVTG,93.55,T,,M,1.51,N,2.8,K,A*38
$GPGGA,193256.000,3748.7846,N,12217.8419,W,1,06,1.8,-1.2,M,-25.1,M,,0000*48
$GPGSA,A,3,25,02,29,31,05,12,,,,,,,3.0,1.8,2.4*34
$GPRMC,193256.000,A,3748.7846,N,12217.8419,W,1.80,134.15,311012,,,A*7B
$GPVTG,134.15,T,,M,1.80,N,3.3,K,A*06
$GPGGA,193257.000,3748.7837,N,12217.8417,W,1,06,1.8,-2.5,M,-25.1,M,,0000*45
$GPGSA,A,3,25,02,29,31,05,12,,,,,,,3.0,1.8,2.4*34
$GPRMC,193257.000,A,3748.7837,N,12217.8417,W,1.87,148.15,311012,,,A*7E
$GPVTG,148.15,T,,M,1.87,N,3.5,K,A*0C
$GPGGA,193258.000,3748.7834,N,12217.8412,W,1,06,1.8,-3.5,M,-25.1,M,,0000*4D
$GPGSA,A,3,25,02,29,31,05,12,,,,,,,3.0,1.8,2.4*34
$GPRMC,193258.000,A,3748.7834,N,12217.8412,W,2.00,132.84,311012,,,A*7E
$GPVTG,132.84,T,,M,2.00,N,3.7,K,A*07
$GPGGA,193259.000,3748.7830,N,12217.8404,W,1,06,1.8,-4.3,M,-25.1,M,,0000*4E
$GPGSA,A,3,25,02,29,31,05,12,,,,,,,3.0,1.8,2.4*34
$GPRMC,193259.000,A,3748.7830,N,12217.8404,W,1.98,131.63,311012,,,A*74
$GPVTG,131.63,T,,M,1.98,N,3.7,K,A*0F
$GPGGA,193300.000,3748.7826,N,12217.8395,W,1,06,1.8,-6.0,M,-25.1,M,,0000*4A
$GPGSA,A,3,25,02,29,31,05,12,,,,,,,3.0,1.8,2.4*34
$GPGSV,3,1,10,25,67,291,25,12,65,166,31,02,48,046,24,05,47,120,33*7D
$GPGSV,3,2,10,29,44,303,25,10,24,052,23,31,13,310,19,21,12,236,27*7C
$GPGSV,3,3,10,04,03,052,,48,44,197,36*7E
$GPRMC,193300.000,A,3748.7826,N,12217.8395,W,1.99,140.54,311012,,,A*72
$GPVTG,140.54,T,,M,1.99,N,3.7,K,A*0C
$GPGGA,193301.000,3748.7829,N,12217.8380,W,1,06,1.8,-3.2,M,-25.1,M,,0000*47
$GPGSA,A,3,25,02,29,31,05,12,,,,,,,3.0,1.8,2.4*34
$GPRMC,193301.000,A,3748.7829,N,12217.8380,W,2.55,115.29,311012,,,A*71
$GPVTG,115.29,T,,M,2.55,N,4.7,K,A*02
$GPGGA,193302.000,3748.7828,N,12217.8367,W,1,06,1.8,-2.0,M,-25.1,M,,0000*4F
$GPGSA,A,3,25,02,29,31,05,12,,,,,,,3.0,1.8,2.4*34
$GPRMC,193302.000,A,3748.7828,N,12217.8367,W,2.70,128.46,311012,,,A*7A
$GPVTG,128.46,T,,M,2.70,N,5.0,K,A*04
$GPGGA,193303.000,3748.7827,N,12217.8346,W,1,06,1.8,-1.5,M,-25.1,M,,0000*44
$GPGSA,A,3,25,02,29,31,05,12,,,,,,,3.0,1.8,2.4*34
$GPRMC,193303.000,A,3748.7827,N,12217.8346,W,2.90,98.12,311012,,,A*42
$GPVTG,98.12,T,,M,2.90,N,5.4,K,A*35
$GPGGA,193304.000,3748.7823,N,12217.8328,W,1,06,1.8,-2.1,M,-25.1,M,,0000*48
$GPGSA,A,3,25,02,29,31,05,12,,,,,,,3.0,1.8,2.4*34
$GPRMC,193304.000,A,3748.7823,N,12217.8328,W,3.36,102.17,311012,,,A*73
$GPVTG,102.17,T,,M,3.36,N,6.2,K,A*0A
$GPGGA,193305.000,3748.7824,N,12217.8312,W,1,06,1.8,-2.0,M,-25.1,M,,0000*46
$GPGSA,A,3,25,02,29,31,05,12,,,,,,,3.0,1.8,2.4*34
$GPGSV,3,1,10,25,67,291,25,12,65,166,28,02,48,046,20,05,47,120,33*71
$GPGSV,3,2,10,29,44,303,22,10,24,052,23,31,13,310,19,21,12,236,28*74
$GPGSV,3,3,10,04,03,052,,48,44,197,36*7E
$GPRMC,193305.000,A,3748.7824,N,12217.8312,W,2.49,107.66,311012,,,A*76
$GPGGA,193306.000,3748.7823,N,12217.8302,W,1,06,1.8,-3.5,M,-25.1,M,,0000*47
$GPGSA,A,3,25,02,29,31,05,12,,,,,,,3.0,1.8,2.4*34
$GPRMC,193306.000,A,3748.7823,N,12217.8302,W,2.02,87.70,311012,,,A*42
$GPVTG,87.70,T,,M,2.02,N,3.7,K,A*31
$GPGGA,193307.000,3748.7815,N,12217.8296,W,1,06,1.8,-8.2,M,-25.1,M,,0000*43
$GPGSA,A,3,25,02,29,31,05,12,,,,,,,3.0,1.8,2.4*34
$GPRMC,193307.000,A,3748.7815,N,12217.8296,W,1.69,110.72,311012,,,A*79
$GPVTG,110.72,T,,M,1.69,N,3.1,K,A*04
$GPGGA,193308.000,3748.7802,N,12217.8300,W,1,06,1.8,-10.8,M,-25.1,M,,0000*77
$GPGSA,A,3,25,02,29,31,05,12,,,,,,,3.0,1.8,2.4*34
$GPRMC,193308.000,A,3748.7802,N,12217.8300,W,1.33,137.25,311012,,,A*76
$GPVTG,137.25,T,,M,1.33,N,2.5,K,A*09
$GPGGA,193309.000,3748.7797,N,12217.8294,W,1,06,1.8,-8.9,M,-25.1,M,,0000*41
$GPGSA,A,3,25,02,29,31,05,12,,,,,,,3.0,1.8,2.4*34
$GPRMC,193309.000,A,3748.7797,N,12217.8294,W,1.99,123.22,311012,,,A*7A
$GPVTG,123.22,T,,M,1.99,N,3.7,K,A*08
$GPGGA,193310.000,3748.7798,N,12217.8280,W,1,06,1.8,-6.7,M,-25.1,M,,0000*43
$GPGSA,A,3,25,02,29,31,05,12,,,,,,,3.0,1.8,2.4*34
$GPGSV,3,1,10,25,67,291,24,12,65,166,29,02,48,046,21,05,47,120,29*7B
$GPGSV,3,2,10,29,44,303,23,10,24,052,22,31,13,310,22,21,12,236,22*76
$GPGSV,3,3,10,04,03,052,,48,44,197,30*78
$GPRMC,193310.000,A,3748.7798,N,12217.8280,W,2.21,108.14,311012,,,A*74
$GPVTG,108.14,T,,M,2.21,N,4.1,K,A*05
$GPGGA,193311.000,3748.7798,N,12217.8269,W,1,06,1.8,-8.5,M,-25.1,M,,0000*49
$GPGSA,A,3,25,02,29,31,05,12,,,,,,,3.0,1.8,2.4*34
$GPRMC,193311.000,A,3748.7798,N,12217.8269,W,1.88,114.28,311012,,,A*70
$GPVTG,114.28,T,,M,1.88,N,3.5,K,A*04
$GPGGA,193312.000,3748.7800,N,12217.8259,W,1,06,1.8,-9.8,M,-25.1,M,,0000*4B
$GPGSA,A,3,25,02,29,31,05,12,,,,,,,3.0,1.8,2.4*34
$GPRMC,193312.000,A,3748.7800,N,12217.8259,W,1.73,117.96,311012,,,A*7C
$GPVTG,117.96,T,,M,1.73,N,3.2,K,A*01
$GPGGA,193313.000,3748.7799,N,12217.8255,W,1,06,1.8,-10.8,M,-25.1,M,,0000*71
$GPGSA,A,3,25,02,29,31,05,12,,,,,,,3.0,1.8,2.4*34
$GPRMC,193313.000,A,3748.7799,N,12217.8255,W,1.88,109.31,311012,,,A*78
$GPVTG,109.31,T,,M,1.88,N,3.5,K,A*00
$GPGGA,193314.000,3748.7795,N,12217.8248,W,1,06,1.8,-11.6,M,-25.1,M,,0000*79
$GPGSA,A,3,25,02,29,31,05,12,,,,,,,3.0,1.8,2.4*34
$GPRMC,193314.000,A,3748.7795,N,12217.8248,W,2.10,99.95,311012,,,A*4B
$GPVTG,99.95,T,,M,2.10,N,3.9,K,A*38
$GPGGA,193315.000,3748.7784,N,12217.8246,W,1,06,1.8,-13.3,M,-25.1,M,,0000*71
$GPGSA,A,3,25,02,29,31,05,12,,,,,,,3.0,1.8,2.4*34
$GPGSV,3,1,10,25,67,291,24,12,65,166,32,02,48,046,23,05,47,120,32*79
$GPGSV,3,2,10,29,44,303,22,10,24,052,22,31,13,310,20,21,12,236,24*73
$GPGSV,3,3,10,04,03,052,,48,44,197,36*7E
$GPRMC,193315.000,A,3748.7784,N,12217.8246,W,1.95,125.50,311012,,,A*75
$GPVTG,125.50,T,,M,1.95,N,3.6,K,A*06
$GPGGA,193316.000,3748.7773,N,12217.8241,W,1,06,1.8,-15.1,M,-25.1,M,,0000*79
$GPGSA,A,3,25,02,29,31,05,12,,,,,,,3.0,1.8,2.4*34
$GPRMC,193316.000,A,3748.7773,N,12217.8241,W,1.76,113.79,311012,,,A*7A
$GPVTG,113.79,T,,M,1.76,N,3.3,K,A*00
$GPGGA,193317.000,3748.7772,N,12217.8230,W,1,06,1.8,-14.7,M,-25.1,M,,0000*78
$GPGSA,A,3,25,02,29,31,05,12,,,,,,,3.0,1.8,2.4*34
$GPRMC,193317.000,A,3748.7772,N,12217.8230,W,1.50,96.43,311012,,,A*4D
$GPVTG,96.43,T,,M,1.50,N,2.8,K,A*3B
$GPGGA,193318.000,3748.7775,N,12217.8219,W,1,06,1.8,-14.6,M,-25.1,M,,0000*7A
$GPGSA,A,3,25,02,29,31,05,12,,,,,,,3.0,1.8,2.4*34
$GPRMC,193318.000,A,3748.7775,N,12217.8219,W,1.79,114.18,311012,,,A*70
$GPVTG,114.18,T,,M,1.79,N,3.3,K,A*0F
$GPGGA,193319.000,3748.7773,N,12217.8216,W,1,06,1.8,-11.7,M,-25.1,M,,0000*76
$GPGSA,A,3,25,02,29,31,05,12,,,,,,,3.0,1.8,2.4*34
$GPRMC,193319.000,A,3748.7773,N,12217.8216,W,1.62,108.90,311012,,,A*7F
$GPVTG,108.90,T,,M,1.62,N,3.0,K,A*0B
$GPGGA,193320.000,3748.7768,N,12217.8207,W,1,06,1.8,-11.9,M,-25.1,M,,0000*78
$GPGSA,A,3,25,02,29,31,05,12,,,,,,,3.0,1.8,2.4*34
$GPGSV,3,1,10,25,67,290,24,12,64,166,32,05,48,119,32,02,48,047,22*7C
$GPGSV,3,2,10,29,44,304,23,10,24,052,21,31,14,310,20,21,12,236,25*70
$GPGSV,3,3,10,04,03,052,,48,44,197,35*7D
$GPRMC,193320.000,A,3748.7768,N,12217.8207,W,1.35,128.62,311012,,,A*72
$GPGGA,193321.000,3748.7763,N,12217.8198,W,1,06,1.8,-10.4,M,-25.1,M,,0000*7B
$GPGSA,A,3,25,02,29,31,05,12,,,,,,,3.0,1.8,2.4*34
$GPRMC,193321.000,A,3748.7763,N,12217.8198,W,1.38,125.94,311012,,,A*74
$GPVTG,125.94,T,,M,1.38,N,2.6,K,A*08
$GPGGA,193322.000,3748.7758,N,12217.8196,W,1,06,1.8,-10.5,M,-25.1,M,,0000*7F
$GPGSA,A,3,25,02,29,31,05,12,,,,,,,3.0,1.8,2.4*34
$GPRMC,193322.000,A,3748.7758,N,12217.8196,W,1.08,137.34,311012,,,A*7B
$GPVTG,137.34,T,,M,1.08,N,2.0,K,A*04
$GPGGA,193323.000,3748.7751,N,12217.8189,W,1,06,1.8,-9.9,M,-25.1,M,,0000*4D
$GPGSA,A,3,25,02,29,31,05,12,,,,,,,3.0,1.8,2.4*34
$GPRMC,193323.000,A,3748.7751,N,12217.8189,W,1.68,104.14,311012,,,A*79
$GPVTG,104.14,T,,M,1.68,N,3.1,K,A*00
$GPGGA,193324.000,3748.7747,N,12217.8188,W,1,06,1.8,-11.0,M,-25.1,M,,0000*7C
$GPGSA,A,3,25,02,29,31,05,12,,,,,,,3.0,1.8,2.4*34
$GPRMC,193324.000,A,3748.7747,N,12217.8188,W,1.45,74.56,311012,,,A*47
$GPVTG,74.56,T,,M,1.45,N,2.7,K,A*38
$GPGGA,193325.000,3748.7738,N,12217.8189,W,1,06,1.8,-12.5,M,-25.1,M,,0000*72
$GPGSA,A,3,25,02,29,31,05,12,,,,,,,3.0,1.8,2.4*34
$GPGSV,3,1,10,25,67,290,23,12,64,166,33,05,48,119,31,02,48,047,22*79
$GPGSV,3,2,10,29,44,304,22,10,24,052,21,31,14,310,20,21,12,236,22*76
$GPGSV,3,3,10,04,03,052,,48,44,197,36*7E
$GPRMC,193325.000,A,3748.7738,N,12217.8189,W,1.28,129.84,311012,,,A*72
$GPVTG,129.84,T,,M,1.28,N,2.4,K,A*06
$GPGGA,193326.000,3748.7736,N,12217.8180,W,1,06,1.8,-12.2,M,-25.1,M,,0000*71
$GPGSA,A,3,25,02,29,31,05,12,,,,,,,3.0,1.8,2.4*34
$GPRMC,193326.000,A,3748.7736,N,12217.8180,W,1.46,99.85,311012,,,A*45
$GPVTG,99.85,T,,M,1.46,N,2.7,K,A*36
$GPGGA,193327.000,3748.7736,N,12217.8171,W,1,06,1.8,-12.2,M,-25.1,M,,0000*7E
$GPGSA,A,3,25,02,29,31,05,12,,,,,,,3.0,1.8,2.4*34
$GPRMC,193327.000,A,3748.7736,N,12217.8171,W,1.18,86.62,311012,,,A*46
$GPVTG,86.62,T,,M,1.18,N,2.2,K,A*3F
$GPGGA,193328.000,3748.7734,N,12217.8161,W,1,06,1.8,-14.6,M,-25.1,M,,0000*70
$GPGSA,A,3,25,02,29,31,05,12,,,,,,,3.0,1.8,2.4*34
$GPRMC,193328.000,A,3748.7734,N,12217.8161,W,1.22,82.19,311012,,,A*4B
$GPVTG,82.19,T,,M,1.22,N,2.3,K,A*3F
$GPGGA,193329.000,3748.7732,N,12217.8157,W,1,06,1.8,-14.4,M,-25.1,M,,0000*70
$GPGSA,A,3,25,02,29,31,05,12,,,,,,,3.0,1.8,2.4*34
$GPRMC,193329.000,A,3748.7732,N,12217.8157,W,0.95,96.38,311012,,,A*42
$GPVTG,96.38,T,,M,0.95,N,1.8,K,A*3C
$GPGGA,193330.000,3748.7721,N,12217.8150,W,1,06,1.8,-16.0,M,-25.1,M,,0000*7B
$GPGSA,A,3,25,02,29,31,05,12,,,,,,,3.0,1.8,2.4*34
$GPGSV,3,1,10,25,67,290,23,12,64,166,33,05,48,119,32,02,48,047,22*7A
$GPGSV,3,2,10,29,44,304,21,10,24,052,20,31,14,310,20,21,12,236,23*75
$GPGSV,3,3,10,04,03,052,,48,44,197,36*7E
$GPRMC,193330.000,A,3748.7721,N,12217.8150,W,1.61,94.52,311012,,,A*4B
$GPVTG,94.52,T,,M,1.61,N,3.0,K,A*32
$GPGGA,193331.000,3748.7715,N,12217.8142,W,1,06,1.8,-16.7,M,-25.1,M,,0000*79
$GPGSA,A,3,25,02,29,31,05,12,,,,,,,3.0,1.8,2.4*34
$GPRMC,193331.000,A,3748.7715,N,12217.8142,W,1.71,96.80,311012,,,A*42
$GPVTG,96.80,T,,M,1.71,N,3.2,K,A*3C
$GPGGA,193332.000,3748.7709,N,12217.8136,W,1,06,1.8,-14.9,M,-25.1,M,,0000*78
$GPGSA,A,3,25,02,29,31,05,12,,,,,,,3.0,1.8,2.4*34
$GPRMC,193332.000,A,3748.7709,N,12217.8136,W,1.67,120.51,311012,,,A*78
$GPVTG,120.51,T,,M,1.67,N,3.1,K,A*08
$GPGGA,193333.000,3748.7701,N,12217.8129,W,1,06,1.8,-15.3,M,-25.1,M,,0000*74
$GPGSA,A,3,25,02,29,31,05,12,,,,,,,3.0,1.8,2.4*34
$GPRMC,193333.000,A,3748.7701,N,12217.8129,W,1.83,147.37,311012,,,A*74
$GPVTG,147.37,T,,M,1.83,N,3.4,K,A*06
$GPGGA,193334.000,3748.7698,N,12217.8125,W,1,06,1.8,-15.1,M,-25.1,M,,0000*7C
$GPGSA,A,3,25,02,29,31,05,12,,,,,,,3.0,1.8,2.4*34
$GPRMC,193334.000,A,3748.7698,N,12217.8125,W,1.19,123.25,311012,,,A*7C
$GPVTG,123.25,T,,M,1.19,N,2.2,K,A*03
$GPGGA,193335.000,3748.7697,N,12217.8119,W,1,06,1.8,-13.8,M,-25.1,M,,0000*72
$GPGSA,A,3,25,02,29,31,05,12,,,,,,,3.0,1.8,2.4*34
$GPGSV,3,1,10,25,67,290,24,12,64,166,33,05,48,119,31,02,48,047,22*7E
$GPGSV,3,2,10,29,44,304,21,10,24,052,20,31,14,310,20,21,12,236,30*77
$GPGSV,3,3,10,04,03,052,,48,44,197,35*7D
$GPRMC,193335.000,A,3748.7697,N,12217.8119,W,2.06,108.24,311012,,,A*78
$GPVTG,108.24,T,,M,2.06,N,3.8,K,A*0D
$GPGGA,193336.000,3748.7697,N,12217.8107,W,1,06,1.8,-10.8,M,-25.1,M,,0000*7D
$GPGSA,A,3,25,02,29,31,05,12,,,,,,,3.0,1.8,2.4*34
$GPRMC,193336.000,A,3748.7697,N,12217.8107,W,2.39,94.77,311012,,,A*4A
$GPVTG,94.77,T,,M,2.39,N,4.4,K,A*38
$GPGGA,193337.000,3748.7689,N,12217.8102,W,1,06,1.8,-9.4,M,-25.1,M,,0000*42
$GPGSA,A,3,25,02,29,31,05,12,,,,,,,3.0,1.8,2.4*34
$GPRMC,193337.000,A,3748.7689,N,12217.8102,W,1.51,123.61,311012,,,A*76
$GPVTG,123.61,T,,M,1.51,N,2.8,K,A*05
$GPGGA,193338.000,3748.7678,N,12217.8096,W,1,06,1.8,-8.9,M,-25.1,M,,0000*43
$GPGSA,A,3,25,02,29,31,05,12,,,,,,,3.0,1.8,2.4*34
$GPRMC,193338.000,A,3748.7678,N,12217.8096,W,1.50,136.43,311012,,,A*7E
$GPVTG,136.43,T,,M,1.50,N,2.8,K,A*00
$GPGGA,193339.000,3748.7670,N,12217.8089,W,1,06,1.8,-7.3,M,-25.1,M,,0000*41
$GPGSA,A,3,25,02,29,31,05,12,,,,,,,3.0,1.8,2.4*34
$GPRMC,193339.000,A,3748.7670,N,12217.8089,W,1.70,149.05,311012,,,A*71
$GPVTG,149.05,T,,M,1.70,N,3.1,K,A*00
$GPGGA,193340.000,3748.7666,N,12217.8085,W,1,06,1.8,-4.5,M,-25.1,M,,0000*41
$GPGSA,A,3,25,02,29,31,05,12,,,,,,,3.0,1.8,2.4*34
$GPGSV,3,1,10,25,67,290,24,12,64,166,33,05,48,119,31,02,48,047,20*7C
$GPGSV,3,2,10,29,44,304,21,10,24,052,20,31,14,310,19,21,12,236,29*75
$GPGSV,3,3,10,04,03,052,,48,44,197,36*7E
$GPRMC,193340.000,A,3748.7666,N,12217.8085,W,2.01,143.73,311012,,,A*7A
$GPVTG,143.73,T,,M,2.01,N,3.7,K,A*08
$GPGGA,193341.000,3748.7658,N,12217.8081,W,1,06,1.8,-3.3,M,-25.1,M,,0000*48
$GPGSA,A,3,25,02,29,31,05,12,,,,,,,3.0,1.8,2.4*34
$GPRMC,193341.000,A,3748.7658,N,12217.8081,W,1.23,133.12,311012,,,A*71
$GPVTG,133.12,T,,M,1.23,N,2.3,K,A*0E
$GPGGA,193342.000,3748.7653,N,12217.8076,W,1,06,1.8,-1.8,M,-25.1,M,,0000*41
$GPGSA,A,3,25,02,29,31,05,12,,,,,,,3.0,1.8,2.4*34
$GPRMC,193342.000,A,3748.7653,N,12217.8076,W,1.57,111.41,311012,,,A*74
$GPVTG,111.41,T,,M,1.57,N,2.9,K,A*01
$GPGGA,193343.000,3748.7651,N,12217.8072,W,1,06,1.8,-0.6,M,-25.1,M,,0000*49
$GPGSA,A,3,25,02,29,31,05,12,,,,,,,3.0,1.8,2.4*34
$GPRMC,193343.000,A,3748.7651,N,12217.8072,W,1.84,93.70,311012,,,A*44
$GPVTG,93.70,T,,M,1.84,N,3.4,K,A*3A
$GPGGA,193344.000,3748.7642,N,12217.8070,W,1,06,1.8,-1.3,M,-25.1,M,,0000*4A
$GPGSA,A,3,25,02,29,31,05,12,,,,,,,3.0,1.8,2.4*34
$GPRMC,193344.000,A,3748.7642,N,12217.8070,W,1.82,104.90,311012,,,A*74
$GPVTG,104.90,T,,M,1.82,N,3.4,K,A*0D
$GPGGA,193345.000,3748.7634,N,12217.8067,W,1,06,1.8,-2.4,M,-25.1,M,,0000*48
$GPGSA,A,3,25,02,29,31,05,12,,,,,,,3.0,1.8,2.4*34
$GPGSV,3,1,10,25,67,290,24,12,64,166,33,05,48,119,22,02,48,047,20*7E
$GPGSV,3,2,10,29,44,304,22,10,24,052,19,31,14,310,27,21,12,236,29*71
$GPGSV,3,3,10,04,03,052,,48,44,197,35*7D
$GPRMC,193345.000,A,3748.7634,N,12217.8067,W,2.01,115.30,311012,,,A*70
$GPVTG,115.30,T,,M,2.01,N,3.7,K,A*0C
$GPGGA,193346.000,3748.7626,N,12217.8062,W,1,06,1.8,-3.5,M,-25.1,M,,0000*4D
$GPGSA,A,3,25,02,29,31,05,12,,,,,,,3.0,1.8,2.4*34
$GPRMC,193346.000,A,3748.7626,N,12217.8062,W,1.89,131.32,311012,,,A*72
$GPVTG,131.32,T,,M,1.89,N,3.5,K,A*09
$GPGGA,193347.000,3748.7616,N,12217.8062,W,1,06,1.8,-3.5,M,-25.1,M,,0000*4F
$GPGSA,A,3,25,02,29,31,05,12,,,,,,,3.0,1.8,2.4*34
$GPRMC,193347.000,A,3748.7616,N,12217.8062,W,2.15,125.49,311012,,,A*7F
$GPVTG,125.49,T,,M,2.15,N,4.0,K,A*04
$GPGGA,193348.000,3748.7618,N,12217.8045,W,1,06,1.8,-4.5,M,-25.1,M,,0000*4C
$GPGSA,A,3,25,02,29,31,05,12,,,,,,,3.0,1.8,2.4*34
$GPRMC,193348.000,A,3748.7618,N,12217.8045,W,2.40,95.82,311012,,,A*46
$GPVTG,95.82,T,,M,2.40,N,4.4,K,A*3D
$GPGGA,193349.000,3748.7622,N,12217.8034,W,1,06,1.8,-2.7,M,-25.1,M,,0000*46
$GPGSA,A,3,25,02,29,31,05,12,,,,,,,3.0,1.8,2.4*34
$GPRMC,193349.000,A,3748.7622,N,12217.8034,W,1.63,78.01,311012,,,A*42
$GPVTG,78.01,T,,M,1.63,N,3.0,K,A*34
$GPGGA,193350.000,3748.7632,N,12217.8018,W,2,06,1.8,-0.2,M,-25.1,M,1.8,0000*62
$GPGSA,A,3,25,02,29,31,05,12,,,,,,,3.0,1.8,2.4*34
$GPGSV,3,1,10,25,67,289,23,12,64,166,32,05,48,119,33,02,47,047,27*78
$GPGSV,3,2,10,29,44,304,21,10,24,052,26,31,14,310,20,21,13,236,27*76
$GPGSV,3,3,10,04,03,052,,48,44,197,35*7D
$GPRMC,193350.000,A,3748.7632,N,12217.8018,W,2.42,89.04,311012,,,D*4B
$GPGGA,193351.000,3748.7631,N,12217.8009,W,2,06,1.8,0.7,M,-25.1,M,1.8,0000*48
$GPGSA,A,3,25,02,29,31,05,12,,,,,,,3.0,1.8,2.4*34
$GPRMC,193351.000,A,3748.7631,N,12217.8009,W,2.00,111.70,311012,,,D*7C
$GPVTG,111.70,T,,M,2.00,N,3.7,K,D*08
$GPGGA,193352.000,3748.7633,N,12217.7995,W,2,06,1.8,1.5,M,-25.1,M,2.8,0000*4A
$GPGSA,A,3,25,02,29,31,05,12,,,,,,,3.0,1.8,2.4*34
$GPRMC,193352.000,A,3748.7633,N,12217.7995,W,1.90,113.87,311012,,,D*7E
$GPVTG,113.87,T,,M,1.90,N,3.5,K,D*0A
$GPGGA,193353.000,3748.7623,N,12217.7996,W,2,06,1.8,2.0,M,-25.1,M,3.8,0000*4E
$GPGSA,A,3,25,02,29,31,05,12,,,,,,,3.0,1.8,2.4*34
$GPRMC,193353.000,A,3748.7623,N,12217.7996,W,2.06,144.64,311012,,,D*7E
$GPVTG,144.64,T,,M,2.06,N,3.8,K,D*04
$GPGGA,193354.000,3748.7611,N,12217.7992,W,2,06,1.8,1.9,M,-25.1,M,4.8,0000*41
$GPGSA,A,3,25,02,29,31,05,12,,,,,,,3.0,1.8,2.4*34
$GPRMC,193354.000,A,3748.7611,N,12217.7992,W,2.49,156.19,311012,,,D*7E
$GPVTG,156.19,T,,M,2.49,N,4.6,K,D*0F
$GPGGA,193355.000,3748.7595,N,12217.7992,W,2,06,1.8,2.4,M,-25.1,M,5.8,0000*40
$GPGSA,A,3,25,02,29,31,05,12,,,,,,,3.0,1.8,2.4*34
$GPGSV,3,1,10,25,67,289,24,12,64,166,33,05,48,119,32,02,47,047,19*72
$GPGSV,3,2,10,29,44,304,21,10,24,052,20,31,14,310,21,21,13,236,22*74
$GPGSV,3,3,10,04,03,052,,48,44,197,35*7D
$GPRMC,193355.000,A,3748.7595,N,12217.7992,W,2.96,168.57,311012,,,D*75
$GPVTG,168.57,T,,M,2.96,N,5.5,K,D*08
$GPGGA,193356.000,3748.7585,N,12217.7985,W,2,06,1.8,3.5,M,-25.1,M,1.8,0000*40
$GPGSA,A,3,25,02,29,31,05,12,,,,,,,3.0,1.8,2.4*34
$GPRMC,193356.000,A,3748.7585,N,12217.7985,W,2.87,167.05,311012,,,D*79
$GPVTG,167.05,T,,M,2.87,N,5.3,K,D*06
$GPGGA,193357.000,3748.7582,N,12217.7979,W,2,06,1.8,4.4,M,-25.1,M,1.8,0000*43
$GPGSA,A,3,25,02,29,31,05,12,,,,,,,3.0,1.8,2.4*34
$GPRMC,193357.000,A,3748.7582,N,12217.7979,W,1.47,130.52,311012,,,D*73
$GPVTG,130.52,T,,M,1.47,N,2.7,K,D*0A
$GPGGA,193358.000,3748.7578,N,12217.7969,W,2,06,1.8,3.7,M,-25.1,M,2.8,0000*4F
$GPGSA,A,3,25,02,29,31,05,12,,,,,,,3.0,1.8,2.4*34
$GPRMC,193358.000,A,3748.7578,N,12217.7969,W,2.01,107.16,311012,,,D*7D
$GPVTG,107.16,T,,M,2.01,N,3.7,K,D*0E
$GPGGA,193359.000,3748.7581,N,12217.7955,W,2,06,1.8,3.4,M,-25.1,M,3.8,0000*45
$GPGSA,A,3,25,02,29,31,05,12,,,,,,,3.0,1.8,2.4*34
$GPRMC,193359.000,A,3748.7581,N,12217.7955,W,1.62,97.72,311012,,,D*49
$GPVTG,97.72,T,,M,1.62,N,3.0,K,D*35
$GPGGA,193400.000,3748.7581,N,12217.7948,W,2,06,1.8,3.8,M,-25.1,M,4.8,0000*49
$GPGSA,A,3,25,02,29,31,05,12,,,,,,,3.0,1.8,2.4*34
$GPGSV,3,1,10,25,67,289,24,12,64,166,33,05,48,119,32,02,47,047,21*79
$GPGSV,3,2,10,29,44,304,21,10,24,052,28,31,14,310,21,21,13,236,24*7A
$GPGSV,3,3,10,04,03,052,,48,44,197,36*7E
$GPRMC,193400.000,A,3748.7581,N,12217.7948,W,1.23,99.99,311012,,,D*40
$GPVTG,99.99,T,,M,1.23,N,2.3,K,D*39
$GPGGA,193401.000,3748.7581,N,12217.7935,W,2,06,1.8,2.9,M,-25.1,M,1.8,0000*47
$GPGSA,A,3,25,02,29,31,05,12,,,,,,,3.0,1.8,2.4*34
$GPRMC,193401.000,A,3748.7581,N,12217.7935,W,0.99,100.40,311012,,,D*7E
$GPVTG,100.40,T,,M,0.99,N,1.8,K,D*04
$GPGGA,193402.000,3748.7571,N,12217.7928,W,2,06,1.8,2.3,M,-25.1,M,2.8,0000*4E
$GPGSA,A,3,25,02,29,31,05,12,,,,,,,3.0,1.8,2.4*34
$GPRMC,193402.000,A,3748.7571,N,12217.7928,W,1.76,135.47,311012,,,D*7F
$GPVTG,135.47,T,,M,1.76,N,3.3,K,D*0C
$GPGGA,193403.000,3748.7566,N,12217.7916,W,2,06,1.8,2.2,M,-25.1,M,3.8,0000*44
$GPGSA,A,3,25,02,29,31,05,12,,,,,,,3.0,1.8,2.4*34
$GPRMC,193403.000,A,3748.7566,N,12217.7916,W,1.79,148.53,311012,,,D*75
$GPVTG,148.53,T,,M,1.79,N,3.3,K,D*0C
$GPGGA,193404.000,3748.7567,N,12217.7904,W,2,06,1.8,2.3,M,-25.1,M,4.8,0000*47
$GPGSA,A,3,25,02,29,31,05,12,,,,,,,3.0,1.8,2.4*34
$GPRMC,193404.000,A,3748.7567,N,12217.7904,W,1.65,148.11,311012,,,D*7B
$GPVTG,148.11,T,,M,1.65,N,3.1,K,D*05
$GPGGA,193405.000,3748.7567,N,12217.7899,W,2,06,1.8,3.6,M,-25.1,M,1.8,0000*42
$GPGSA,A,3,25,02,29,31,05,12,,,,,,,3.0,1.8,2.4*34
$GPGSV,3,1,10,25,67,289,24,12,64,166,33,05,48,119,32,02,47,047,21*79
$GPGSV,3,2,10,29,44,304,21,10,24,052,20,31,14,310,21,21,13,236,29*7F
$GPGSV,3,3,10,04,03,052,,48,44,197,35*7D
$GPRMC,193405.000,A,3748.7567,N,12217.7899,W,1.69,114.96,311012,,,D*75
$GPGGA,193406.000,3748.7563,N,12217.7891,W,2,06,1.8,3.0,M,-25.1,M,1.8,0000*4B
$GPGSA,A,3,25,02,29,31,05,12,,,,,,,3.0,1.8,2.4*34
$GPRMC,193406.000,A,3748.7563,N,12217.7891,W,1.76,111.75,311012,,,D*7C
$GPVTG,111.75,T,,M,1.76,N,3.3,K,D*0B
$GPGGA,193407.000,3748.7561,N,12217.7883,W,2,06,1.8,2.0,M,-25.1,M,1.8,0000*4A
$GPGSA,A,3,25,02,29,31,05,12,,,,,,,3.0,1.8,2.4*34
$GPRMC,193407.000,A,3748.7561,N,12217.7883,W,1.59,120.04,311012,,,D*75
$GPVTG,120.04,T,,M,1.59,N,2.9,K,D*09
$GPGGA,193408.000,3748.7559,N,12217.7873,W,2,06,1.8,0.9,M,-25.1,M,1.8,0000*4A
$GPGSA,A,3,25,02,29,31,05,12,,,,,,,3.0,1.8,2.4*34
$GPRMC,193408.000,A,3748.7559,N,12217.7873,W,1.82,95.59,311012,,,D*4F
$GPVTG,95.59,T,,M,1.82,N,3.4,K,D*34
$GPGGA,193409.000,3748.7554,N,12217.7862,W,2,06,1.8,0.3,M,-25.1,M,1.8,0000*4C
$GPGSA,A,3,25,02,29,31,05,12,,,,,,,3.0,1.8,2.4*34
$GPRMC,193409.000,A,3748.7554,N,12217.7862,W,2.71,91.31,311012,,,D*46
$GPVTG,91.31,T,,M,2.71,N,5.0,K,D*33
$GPGGA,193410.000,3748.7545,N,12217.7856,W,2,06,1.8,0.2,M,-25.1,M,2.8,0000*41
$GPGSA,A,3,25,02,29,31,05,12,,,,,,,3.0,1.8,2.4*34
$GPGSV,3,1,10,25,67,289,23,12,64,166,33,05,48,119,32,02,47,047,21*7E
$GPGSV,3,2,10,29,44,304,21,10,24,052,19,31,14,310,21,21,13,236,28*74
$GPGSV,3,3,10,04,03,052,,48,44,197,36*7E
$GPRMC,193410.000,A,3748.7545,N,12217.7856,W,2.89,125.40,311012,,,D*76
$GPVTG,125.40,T,,M,2.89,N,5.4,K,D*08
$GPGGA,193411.000,3748.7528,N,12217.7853,W,2,06,1.8,-2.7,M,-25.1,M,3.8,0000*65
$GPGSA,A,3,25,02,29,31,05,12,,,,,,,3.0,1.8,2.4*34
$GPRMC,193411.000,A,3748.7528,N,12217.7853,W,2.54,132.59,311012,,,D*77
$GPVTG,132.59,T,,M,2.54,N,4.7,K,D*04
$GPGGA,193412.000,3748.7514,N,12217.7852,W,2,06,1.8,-4.0,M,-25.1,M,4.8,0000*6E
$GPGSA,A,3,25,02,29,31,05,12,,,,,,,3.0,1.8,2.4*34
$GPRMC,193412.000,A,3748.7514,N,12217.7852,W,1.93,133.72,311012,,,D*7A
$GPVTG,133.72,T,,M,1.93,N,3.6,K,D*02
$GPGGA,193413.000,3748.7509,N,12217.7848,W,2,06,1.8,-3.4,M,-25.1,M,1.8,0000*6E
$GPGSA,A,3,25,02,29,31,05,12,,,,,,,3.0,1.8,2.4*34
$GPRMC,193413.000,A,3748.7509,N,12217.7848,W,2.41,122.17,311012,,,D*73
$GPVTG,122.17,T,,M,2.41,N,4.5,K,D*09
$GPGGA,193414.000,3748.7503,N,12217.7843,W,2,06,1.8,-3.1,M,-25.1,M,1.8,0000*6D
$GPGSA,A,3,25,02,29,31,05,12,,,,,,,3.0,1.8,2.4*34
$GPRMC,193414.000,A,3748.7503,N,12217.7843,W,1.69,147.11,311012,,,D*79
$GPVTG,147.11,T,,M,1.69,N,3.1,K,D*06
$GPGGA,193415.000,3748.7495,N,12217.7835,W,2,06,1.8,-3.3,M,-25.1,M,1.8,0000*61
$GPGSA,A,3,25,02,29,31,05,12,,,,,,,3.0,1.8,2.4*34
$GPGSV,3,1,10,25,67,289,24,12,64,166,33,05,48,119,32,02,47,047,21*79
$GPGSV,3,2,10,29,44,304,21,10,24,052,18,31,14,310,20,21,13,236,21*7D
$GPGSV,3,3,10,04,03,052,,48,44,197,36*7E
$GPRMC,193415.000,A,3748.7495,N,12217.7835,W,1.91,120.67,311012,,,D*70
$GPVTG,120.67,T,,M,1.91,N,3.5,K,D*05
$GPGGA,193416.000,3748.7486,N,12217.7823,W,2,06,1.8,-3.3,M,-25.1,M,2.8,0000*64
$GPGSA,A,3,25,02,29,31,05,12,,,,,,,3.0,1.8,2.4*34
$GPRMC,193416.000,A,3748.7486,N,12217.7823,W,2.70,110.84,311012,,,D*74
$GPVTG,110.84,T,,M,2.70,N,5.0,K,D*04
$GPGGA,193417.000,3748.7486,N,12217.7813,W,2,06,1.8,-0.7,M,-25.1,M,3.8,0000*60
$GPGSA,A,3,25,02,29,31,05,12,,,,,,,3.0,1.8,2.4*34
$GPRMC,193417.000,A,3748.7486,N,12217.7813,W,1.96,102.76,311012,,,D*73
$GPVTG,102.76,T,,M,1.96,N,3.6,K,D*01
$GPGGA,193418.000,3748.7483,N,12217.7805,W,2,06,1.8,-0.9,M,-25.1,M,1.8,0000*61
$GPGSA,A,3,25,02,29,31,05,12,,,,,,,3.0,1.8,2.4*34
$GPRMC,193418.000,A,3748.7483,N,12217.7805,W,1.91,106.04,311012,,,D*78
$GPVTG,106.04,T,,M,1.91,N,3.5,K,D*04
$GPGGA,193419.000,3748.7482,N,12217.7800,W,2,06,1.8,-0.0,M,-25.1,M,1.8,0000*6D
$GPGSA,A,3,25,02,29,31,05,12,,,,,,,3.0,1.8,2.4*34
$GPRMC,193419.000,A,3748.7482,N,12217.7800,W,1.59,89.59,311012,,,D*47
$GPVTG,89.59,T,,M,1.59,N,2.9,K,D*33
$GPGGA,193420.000,3748.7481,N,12217.7795,W,2,06,1.8,1.1,M,-25.1,M,1.8,0000*4A
$GPGSA,A,3,25,02,29,31,05,12,,,,,,,3.0,1.8,2.4*34
$GPGSV,3,1,10,25,68,288,24,12,64,166,33,05,48,119,31,02,47,047,20*75
$GPGSV,3,2,10,29,44,304,21,10,24,051,18,31,14,309,21,21,13,236,23*75
$GPGSV,3,3,10,04,03,052,,48,44,197,37*7F
$GPRMC,193420.000,A,3748.7481,N,12217.7795,W,1.10,105.89,311012,,,D*78
$GPGGA,193421.000,3748.7479,N,12217.7789,W,2,06,1.8,1.3,M,-25.1,M,1.8,0000*43
$GPGSA,A,3,25,02,29,31,05,12,,,,,,,3.0,1.8,2.4*34
$GPRMC,193421.000,A,3748.7479,N,12217.7789,W,1.26,84.07,311012,,,D*48
$GPVTG,84.07,T,,M,1.26,N,2.3,K,D*37
$GPGGA,193422.000,3748.7477,N,12217.7781,W,2,06,1.8,1.4,M,-25.1,M,2.8,0000*42
$GPGSA,A,3,25,02,29,31,05,12,,,,,,,3.0,1.8,2.4*34
$GPRMC,193422.000,A,3748.7477,N,12217.7781,W,1.82,78.28,311012,,,D*4D
$GPVTG,78.28,T,,M,1.82,N,3.4,K,D*31
$GPGGA,193423.000,3748.7472,N,12217.7772,W,2,06,1.8,1.0,M,-25.1,M,3.8,0000*4F
$GPGSA,A,3,25,02,29,31,05,12,,,,,,,3.0,1.8,2.4*34
$GPRMC,193423.000,A,3748.7472,N,12217.7772,W,2.26,92.42,311012,,,D*40
$GPVTG,92.42,T,,M,2.26,N,4.2,K,D*35
$GPGGA,193424.000,3748.7462,N,12217.7767,W,2,06,1.8,0.5,M,-25.1,M,4.8,0000*4E
$GPGSA,A,3,25,02,29,31,05,12,,,,,,,3.0,1.8,2.4*34
$GPRMC,193424.000,A,3748.7462,N,12217.7767,W,1.51,107.78,311012,,,D*75
$GPVTG,107.78,T,,M,1.51,N,2.8,K,D*0E
$GPGGA,193425.000,3748.7462,N,12217.7760,W,2,05,4.9,2.2,M,-25.1,M,5.8,0000*4B
$GPGSA,A,3,25,29,31,05,12,,,,,,,,5.7,4.9,3.1*37
$GPGSV,3,1,10,25,68,288,24,12,64,166,33,05,48,119,31,02,47,047,17*71
$GPGSV,3,2,10,29,44,304,21,10,24,051,17,31,14,309,20,21,13,236,21*79
$GPGSV,3,3,10,04,03,052,,48,44,197,37*7F
$GPRMC,193425.000,A,3748.7462,N,12217.7760,W,1.51,125.80,311012,,,D*74
$GPVTG,125.80,T,,M,1.51,N,2.8,K,D*09
$GPGGA,193426.000,3748.7458,N,12217.7751,W,2,05,4.9,2.0,M,-25.1,M,1.8,0000*45
$GPGSA,A,3,25,29,31,05,12,,,,,,,,5.7,4.9,3.1*37
$GPRMC,193426.000,A,3748.7458,N,12217.7751,W,1.37,130.05,311012,,,D*75
$GPVTG,130.05,T,,M,1.37,N,2.5,K,D*0D
$GPGGA,193427.000,3748.7455,N,12217.7744,W,2,05,4.9,2.8,M,-25.1,M,1.8,0000*45
$GPGSA,A,3,25,29,31,05,12,,,,,,,,5.7,4.9,3.1*37
$GPRMC,193427.000,A,3748.7455,N,12217.7744,W,2.23,141.60,311012,,,D*7E
$GPVTG,141.60,T,,M,2.23,N,4.1,K,D*0C
$GPGGA,193428.000,3748.7455,N,12217.7735,W,2,05,4.9,4.5,M,-25.1,M,1.8,0000*47
$GPGSA,A,3,25,29,31,05,12,,,,,,,,5.7,4.9,3.0*36
$GPRMC,193428.000,A,3748.7455,N,12217.7735,W,2.15,138.34,311012,,,D*7D
$GPVTG,138.34,T,,M,2.15,N,4.0,K,D*07
$GPGGA,193429.000,3748.7453,N,12217.7725,W,2,05,4.9,5.4,M,-25.1,M,2.8,0000*42
$GPGSA,A,3,25,29,31,05,12,,,,,,,,5.7,4.9,3.0*36
$GPRMC,193429.000,A,3748.7453,N,12217.7725,W,2.23,125.49,311012,,,D*78
$GPVTG,125.49,T,,M,2.23,N,4.1,K,D*05
$GPGGA,193430.000,3748.7453,N,12217.7714,W,2,05,4.9,5.6,M,-25.1,M,3.8,0000*4B
$GPGSA,A,3,25,29,31,05,12,,,,,,,,5.7,4.9,3.0*36
$GPGSV,3,1,10,25,68,288,24,12,64,166,33,05,48,119,31,02,47,047,17*71
$GPGSV,3,2,10,29,44,304,20,10,24,051,16,31,14,309,19,21,13,236,26*74
$GPGSV,3,3,10,04,03,052,,48,44,197,37*7F
$GPRMC,193430.000,A,3748.7453,N,12217.7714,W,2.09,93.37,311012,,,D*4F
$GPVTG,93.37,T,,M,2.09,N,3.9,K,D*37
$GPGGA,193431.000,3748.7458,N,12217.7702,W,2,05,4.8,6.2,M,-25.1,M,1.8,0000*42
$GPGSA,A,3,25,29,31,05,12,,,,,,,,5.7,4.8,3.0*37
$GPRMC,193431.000,A,3748.7458,N,12217.7702,W,2.39,65.84,311012,,,D*40
$GPVTG,65.84,T,,M,2.39,N,4.4,K,D*3F
$GPGGA,193432.000,3748.7463,N,12217.7688,W,2,05,4.8,7.4,M,-25.1,M,1.8,0000*4D
$GPGSA,A,3,25,29,31,05,12,,,,,,,,5.7,4.8,3.0*37
$GPRMC,193432.000,A,3748.7463,N,12217.7688,W,3.12,66.27,311012,,,D*4A
$GPVTG,66.27,T,,M,3.12,N,5.8,K,D*30
$GPGGA,193433.000,3748.7467,N,12217.7674,W,2,05,4.8,9.4,M,-25.1,M,1.8,0000*45
$GPGSA,A,3,25,29,31,05,12,,,,,,,,5.7,4.8,3.0*37
$GPRMC,193433.000,A,3748.7467,N,12217.7674,W,2.49,74.17,311012,,,D*43
$GPVTG,74.17,T,,M,2.49,N,4.6,K,D*30
$GPGGA,193434.000,3748.7469,N,12217.7660,W,2,05,4.8,11.5,M,-25.1,M,2.8,0000*72
$GPGSA,A,3,25,29,31,05,12,,,,,,,,5.7,4.8,3.0*37
$GPRMC,193434.000,A,3748.7469,N,12217.7660,W,2.48,87.39,311012,,,D*4E
$GPVTG,87.39,T,,M,2.48,N,4.6,K,D*31
$GPGGA,193435.000,3748.7474,N,12217.7647,W,2,05,4.8,15.0,M,-25.1,M,3.8,0000*7A
$GPGSA,A,3,25,29,31,05,12,,,,,,,,5.7,4.8,3.0*37
$GPGSV,3,1,10,25,68,288,24,12,64,166,33,05,48,119,31,02,47,047,17*71
$GPGSV,3,2,10,29,44,304,20,10,24,051,17,31,14,309,19,21,13,236,26*75
$GPGSV,3,3,10,04,03,052,,48,44,197,38*70
$GPRMC,193435.000,A,3748.7474,N,12217.7647,W,2.19,100.46,311012,,,D*74
$GPGGA,193436.000,3748.7478,N,12217.7633,W,2,05,4.8,18.9,M,-25.1,M,4.8,0000*75
$GPGSA,A,3,25,29,31,05,12,,,,,,,,5.7,4.8,3.0*37
$GPRMC,193436.000,A,3748.7478,N,12217.7633,W,2.85,103.08,311012,,,D*74
$GPVTG,103.08,T,,M,2.85,N,5.3,K,D*0B
$GPGGA,193437.000,3748.7478,N,12217.7615,W,2,05,4.8,22.7,M,-25.1,M,1.8,0000*72
$GPGSA,A,3,25,29,31,05,12,,,,,,,,5.7,4.8,3.0*37
$GPRMC,193437.000,A,3748.7478,N,12217.7615,W,2.66,105.53,311012,,,D*74
$GPVTG,105.53,T,,M,2.66,N,4.9,K,D*05
$GPGGA,193438.000,3748.7478,N,12217.7605,W,2,05,4.8,23.6,M,-25.1,M,1.8,0000*7C
$GPGSA,A,3,25,29,31,05,12,,,,,,,,5.7,4.8,3.0*37
$GPRMC,193438.000,A,3748.7478,N,12217.7605,W,2.08,108.70,311012,,,D*7E
$GPVTG,108.70,T,,M,2.08,N,3.9,K,D*06
$GPGGA,193439.000,3748.7475,N,12217.7597,W,2,05,4.8,22.0,M,-25.1,M,1.8,0000*7F
$GPGSA,A,3,25,29,31,05,12,,,,,,,,5.7,4.8,3.0*37
$GPRMC,193439.000,A,3748.7475,N,12217.7597,W,2.04,106.94,311012,,,D*72
$GPVTG,106.94,T,,M,2.04,N,3.8,K,D*0F
$GPGGA,193440.000,3748.7472,N,12217.7587,W,2,05,4.8,22.6,M,-25.1,M,2.8,0000*72
$GPGSA,A,3,25,29,31,05,12,,,,,,,,5.7,4.8,3.0*37
$GPGSV,3,1,10,25,68,288,24,12,64,166,33,05,48,119,31,02,47,047,17*71
$GPGSV,3,2,10,29,44,304,21,10,24,051,18,31,14,309,19,21,13,236,25*78
$GPGSV,3,3,10,04,03,052,,48,44,197,35*7D
$GPRMC,193440.000,A,3748.7472,N,12217.7587,W,1.65,100.89,311012,,,D*74
$GPVTG,100.89,T,,M,1.65,N,3.1,K,D*08
$GPGGA,193441.000,3748.7468,N,12217.7576,W,2,05,4.8,23.0,M,-25.1,M,3.8,0000*70
$GPGSA,A,3,25,29,31,05,12,,,,,,,,5.7,4.8,3.0*37
$GPRMC,193441.000,A,3748.7468,N,12217.7576,W,1.94,111.73,311012,,,D*7B
$GPVTG,111.73,T,,M,1.94,N,3.6,K,D*04
$GPGGA,193442.000,3748.7467,N,12217.7563,W,2,05,4.8,25.6,M,-25.1,M,4.8,0000*7F
$GPGSA,A,3,25,29,31,05,12,,,,,,,,5.7,4.8,3.0*37
$GPRMC,193442.000,A,3748.7467,N,12217.7563,W,1.92,100.78,311012,,,D*7E
$GPVTG,100.78,T,,M,1.92,N,3.6,K,D*09
$GPGGA,193443.000,3748.7468,N,12217.7546,W,2,05,4.8,30.3,M,-25.1,M,1.8,0000*72
$GPGSA,A,3,25,29,31,05,12,,,,,,,,5.7,4.8,3.0*37
$GPRMC,193443.000,A,3748.7468,N,12217.7546,W,2.73,102.89,311012,,,D*77
$GPVTG,102.89,T,,M,2.73,N,5.1,K,D*08
$GPGGA,193444.000,3748.7468,N,12217.7533,W,2,05,4.8,32.6,M,-25.1,M,1.8,0000*70
$GPGSA,A,3,25,29,31,05,12,,,,,,,,5.7,4.8,3.0*37
$GPRMC,193444.000,A,3748.7468,N,12217.7533,W,2.30,106.23,311012,,,D*71
$GPVTG,106.23,T,,M,2.30,N,4.3,K,D*08
$GPGGA,193445.000,3748.7467,N,12217.7524,W,2,05,4.8,32.2,M,-25.1,M,2.8,0000*7F
$GPGSA,A,3,25,29,31,05,12,,,,,,,,5.7,4.8,3.0*37
$GPGSV,3,1,10,25,68,288,23,12,64,166,33,05,48,119,32,02,47,047,18*7A
$GPGSV,3,2,10,29,44,304,21,10,24,051,18,31,14,309,19,21,13,236,25*78
$GPGSV,3,3,10,04,03,052,,48,44,197,35*7D
$GPRMC,193445.000,A,3748.7467,N,12217.7524,W,2.28,85.76,311012,,,D*4A
$GPVTG,85.76,T,,M,2.28,N,4.2,K,D*3A
$GPGGA,193446.000,3748.7467,N,12217.7513,W,2,05,4.8,32.8,M,-25.1,M,3.8,0000*73
$GPGSA,A,3,25,29,31,05,12,,,,,,,,5.7,4.8,3.0*37
$GPRMC,193446.000,A,3748.7467,N,12217.7513,W,2.42,98.94,311012,,,D*41
$GPVTG,98.94,T,,M,2.42,N,4.5,K,D*31
$GPGGA,193447.000,3748.7452,N,12217.7512,W,2,06,1.8,29.4,M,-25.1,M,4.8,0000*72
$GPGSA,A,3,25,02,29,31,05,12,,,,,,,3.0,1.8,2.4*34
$GPRMC,193447.000,A,3748.7452,N,12217.7512,W,1.93,100.32,311012,,,D*74
$GPVTG,100.32,T,,M,1.93,N,3.6,K,D*06
$GPGGA,193448.000,3748.7426,N,12217.7520,W,2,06,1.8,24.7,M,-25.1,M,5.8,0000*70
$GPGSA,A,3,25,02,29,31,05,12,,,,,,,3.0,1.8,2.4*34
$GPRMC,193448.000,A,3748.7426,N,12217.7520,W,1.65,120.37,311012,,,D*77
$GPVTG,120.37,T,,M,1.65,N,3.1,K,D*0F
$GPGGA,193449.000,3748.7407,N,12217.7523,W,2,06,1.8,23.4,M,-25.1,M,1.8,0000*71
$GPGSA,A,3,25,02,29,31,05,12,,,,,,,3.0,1.8,2.4*34
$GPRMC,193449.000,A,3748.7407,N,12217.7523,W,1.79,111.31,311012,,,D*7F
$GPVTG,111.31,T,,M,1.79,N,3.3,K,D*04
$GPGGA,193450.000,3748.7397,N,12217.7522,W,2,06,1.8,22.5,M,-25.1,M,1.8,0000*76
$GPGSA,A,3,25,02,29,31,05,12,,,,,,,3.0,1.8,2.4*34
$GPGSV,3,1,10,25,68,288,23,12,64,166,33,05,48,118,32,02,47,047,23*73
$GPGSV,3,2,10,29,45,304,21,10,24,051,24,31,14,309,19,21,13,236,24*77
$GPGSV,3,3,10,04,02,053,,48,44,197,35*7D
$GPRMC,193450.000,A,3748.7397,N,12217.7522,W,1.85,95.93,311012,,,D*4E
$GPGGA,193451.000,3748.7394,N,12217.7513,W,2,06,1.8,22.0,M,-25.1,M,1.8,0000*73
$GPGSA,A,3,25,02,29,31,05,12,,,,,,,3.0,1.8,2.4*34
$GPRMC,193451.000,A,3748.7394,N,12217.7513,W,1.66,113.08,311012,,,D*7E
$GPVTG,113.08,T,,M,1.66,N,3.1,K,D*00
$GPGGA,193452.000,3748.7383,N,12217.7515,W,2,06,1.8,20.9,M,-25.1,M,2.8,0000*78
$GPGSA,A,3,25,02,29,31,05,12,,,,,,,3.0,1.8,2.4*34
$GPRMC,193452.000,A,3748.7383,N,12217.7515,W,1.89,119.59,311012,,,D*72
$GPVTG,119.59,T,,M,1.89,N,3.5,K,D*0B
$GPGGA,193453.000,3748.7389,N,12217.7505,W,2,06,1.8,22.8,M,-25.1,M,3.8,0000*70
$GPGSA,A,3,25,02,29,31,05,12,,,,,,,3.0,1.8,2.4*34
$GPRMC,193453.000,A,3748.7389,N,12217.7505,W,1.42,110.75,311012,,,D*78
$GPVTG,110.75,T,,M,1.42,N,2.6,K,D*09
$GPGGA,193454.000,3748.7399,N,12217.7493,W,2,06,1.8,24.1,M,-25.1,M,4.8,0000*70
$GPGSA,A,3,25,02,29,31,05,12,,,,,,,3.0,1.8,2.4*34
$GPRMC,193454.000,A,3748.7399,N,12217.7493,W,1.50,80.19,311012,,,D*41
$GPVTG,80.19,T,,M,1.50,N,2.8,K,D*36
$GPGGA,193455.000,3748.7403,N,12217.7481,W,2,06,1.8,22.6,M,-25.1,M,5.8,0000*76
$GPGSA,A,3,25,02,29,31,05,12,,,,,,,3.0,1.8,2.4*34
$GPGSV,3,1,10,25,68,288,23,12,64,166,31,05,48,118,23,02,47,047,24*76
$GPGSV,3,2,10,29,45,304,22,10,24,051,23,31,14,309,19,21,13,236,24*73
$GPGSV,3,3,10,04,02,053,,48,44,197,34*7C
$GPRMC,193455.000,A,3748.7403,N,12217.7481,W,0.71,68.69,311012,,,D*44
$GPVTG,68.69,T,,M,0.71,N,1.3,K,D*3D
$GPGGA,193456.000,3748.7406,N,12217.7472,W,2,06,1.8,21.8,M,-25.1,M,6.8,0000*72
$GPGSA,A,3,25,02,29,31,05,12,,,,,,,3.0,1.8,2.4*34
$GPRMC,193456.000,A,3748.7406,N,12217.7472,W,1.43,61.21,311012,,,D*4B
$GPVTG,61.21,T,,M,1.43,N,2.7,K,D*3F
$GPGGA,193457.000,3748.7403,N,12217.7460,W,2,06,1.8,20.4,M,-25.1,M,7.8,0000*79
$GPGSA,A,3,25,02,29,31,05,12,,,,,,,3.0,1.8,2.4*34
$GPRMC,193457.000,A,3748.7403,N,12217.7460,W,1.88,70.90,311012,,,D*41
$GPVTG,70.90,T,,M,1.88,N,3.5,K,D*31
$GPGGA,193458.000,3748.7398,N,12217.7452,W,2,06,1.8,19.0,M,-25.1,M,8.8,0000*73
$GPGSA,A,3,25,02,29,31,05,12,,,,,,,3.0,1.8,2.4*34
$GPRMC,193458.000,A,3748.7398,N,12217.7452,W,2.21,91.56,311012,,,D*4F
$GPVTG,91.56,T,,M,2.21,N,4.1,K,D*37
$GPGGA,193459.000,3748.7395,N,12217.7449,W,2,06,1.8,18.8,M,-25.1,M,1.8,0000*75
$GPGSA,A,3,25,02,29,31,05,12,,,,,,,3.0,1.8,2.4*34
$GPRMC,193459.000,A,3748.7395,N,12217.7449,W,2.08,118.78,311012,,,D*7E
$GPVTG,118.78,T,,M,2.08,N,3.9,K,D*0F
$GPGGA,193500.000,3748.7387,N,12217.7446,W,2,06,1.8,15.4,M,-25.1,M,1.8,0000*75
$GPGSA,A,3,25,02,29,31,05,12,,,,,,,3.0,1.8,2.4*34
$GPGSV,3,1,10,25,68,288,23,12,64,166,27,05,48,118,26,02,47,047,21*71
$GPGSV,3,2,10,29,45,304,21,10,24,051,22,31,14,309,20,21,13,236,24*7B
$GPGSV,3,3,10,04,02,053,,48,44,197,35*7D
$GPRMC,193500.000,A,3748.7387,N,12217.7446,W,2.09,128.87,311012,,,D*7D
$GPVTG,128.87,T,,M,2.09,N,3.9,K,D*0D
$GPGGA,193501.000,3748.7376,N,12217.7446,W,2,06,1.8,11.5,M,-25.1,M,2.8,0000*7C
$GPGSA,A,3,25,02,29,31,05,12,,,,,,,3.0,1.8,2.4*34
$GPRMC,193501.000,A,3748.7376,N,12217.7446,W,1.50,121.22,311012,,,D*7B
$GPVTG,121.22,T,,M,1.50,N,2.8,K,D*04
$GPGGA,193502.000,3748.7369,N,12217.7442,W,2,06,1.8,8.0,M,-25.1,M,3.8,0000*49
$GPGSA,A,3,25,02,29,31,05,12,,,,,,,3.0,1.8,2.4*34
$GPRMC,193502.000,A,3748.7369,N,12217.7442,W,1.06,128.19,311012,,,D*70
$GPVTG,128.19,T,,M,1.06,N,2.0,K,D*0E
$GPGGA,193503.000,3748.7363,N,12217.7439,W,2,06,1.8,5.6,M,-25.1,M,4.8,0000*42
$GPGSA,A,3,25,02,29,31,05,12,,,,,,,3.0,1.8,2.4*34
$GPRMC,193503.000,A,3748.7363,N,12217.7439,W,1.25,146.12,311012,,,D*75
$GPVTG,146.12,T,,M,1.25,N,2.3,K,D*0F
$GPGGA,193504.000,3748.7359,N,12217.7431,W,2,06,1.8,3.8,M,-25.1,M,5.8,0000*4D
$GPGSA,A,3,25,02,29,31,05,12,,,,,,,3.0,1.8,2.4*34
$GPRMC,193504.000,A,3748.7359,N,12217.7431,W,1.57,131.29,311012,,,D*7E
$GPVTG,131.29,T,,M,1.57,N,2.9,K,D*08
$GPGGA,193505.000,3748.7347,N,12217.7427,W,2,06,1.8,0.7,M,-25.1,M,6.8,0000*4B
$GPGSA,A,3,25,02,29,31,05,12,,,,,,,3.0,1.8,2.4*34
$GPGSV,3,1,10,25,68,288,22,12,64,166,30,05,48,118,29,02,47,047,24*7C
$GPGSV,3,2,10,29,45,304,21,10,24,051,22,31,14,309,20,21,13,236,17*7B
$GPGSV,3,3,10,04,02,053,,48,44,197,35*7D
$GPRMC,193505.000,A,3748.7347,N,12217.7427,W,2.53,144.57,311012,,,D*7B
$GPGGA,193506.000,3748.7336,N,12217.7417,W,2,06,1.8,-2.5,M,-25.1,M,7.8,0000*61
$GPGSA,A,3,25,02,29,31,05,12,,,,,,,3.0,1.8,2.4*34
$GPRMC,193506.000,A,3748.7336,N,12217.7417,W,1.83,140.74,311012,,,D*76
$GPVTG,140.74,T,,M,1.83,N,3.4,K,D*03
$GPGGA,193507.000,3748.7332,N,12217.7410,W,2,06,1.8,-4.9,M,-25.1,M,1.8,0000*6F
$GPGSA,A,3,25,02,29,31,05,12,,,,,,,3.0,1.8,2.4*34
$GPRMC,193507.000,A,3748.7332,N,12217.7410,W,1.69,148.26,311012,,,D*7F
$GPVTG,148.26,T,,M,1.69,N,3.1,K,D*0D
$GPGGA,193508.000,3748.7335,N,12217.7392,W,2,06,1.8,-5.6,M,-25.1,M,1.8,0000*64
$GPGSA,A,3,25,02,29,31,05,12,,,,,,,3.0,1.8,2.4*34
$GPRMC,193508.000,A,3748.7335,N,12217.7392,W,2.19,123.62,311012,,,D*73
$GPVTG,123.62,T,,M,2.19,N,4.1,K,D*03
$GPGGA,193509.000,3748.7331,N,12217.7380,W,2,06,1.8,-5.7,M,-25.1,M,1.8,0000*63
$GPGSA,A,3,25,02,29,31,05,12,,,,,,,3.0,1.8,2.4*34
$GPRMC,193509.000,A,3748.7331,N,12217.7380,W,2.45,125.07,311012,,,D*79
$GPVTG,125.07,T,,M,2.45,N,4.5,K,D*0B
$GPGGA,193510.000,3748.7324,N,12217.7375,W,2,06,1.8,-6.4,M,-25.1,M,2.8,0000*66
$GPGSA,A,3,25,02,29,31,05,12,,,,,,,3.0,1.8,2.4*34
$GPGSV,3,1,10,25,68,288,23,12,64,166,29,05,48,118,26,02,47,047,24*7A
$GPGSV,3,2,10,29,45,304,21,10,24,051,22,31,14,309,20,21,13,236,16*7A
$GPGSV,3,3,10,04,02,053,,48,44,197,29*70
$GPRMC,193510.000,A,3748.7324,N,12217.7375,W,2.30,130.36,311012,,,D*7B
$GPVTG,130.36,T,,M,2.30,N,4.3,K,D*09
$GPGGA,193511.000,3748.7320,N,12217.7367,W,2,06,1.8,-7.9,M,-25.1,M,3.8,0000*6D
$GPGSA,A,3,25,02,29,31,05,12,,,,,,,3.0,1.8,2.4*34
$GPRMC,193511.000,A,3748.7320,N,12217.7367,W,2.29,144.61,311012,,,D*74
$GPVTG,144.61,T,,M,2.29,N,4.2,K,D*01
$GPGGA,193512.000,3748.7318,N,12217.7357,W,2,06,1.8,-9.1,M,-25.1,M,4.8,0000*67
$GPGSA,A,3,25,02,29,31,05,12,,,,,,,3.0,1.8,2.4*34
$GPRMC,193512.000,A,3748.7318,N,12217.7357,W,1.44,125.75,311012,,,D*75
$GPVTG,125.75,T,,M,1.44,N,2.7,K,D*08
$GPGGA,193513.000,3748.7312,N,12217.7354,W,2,06,1.8,-13.6,M,-25.1,M,5.8,0000*52
$GPGSA,A,3,25,02,29,31,05,12,,,,,,,3.0,1.8,2.4*34
$GPRMC,193513.000,A,3748.7312,N,12217.7354,W,0.91,151.11,311012,,,D*75
$GPVTG,151.11,T,,M,0.91,N,1.7,K,D*03
$GPGGA,193514.000,3748.7315,N,12217.7342,W,2,06,1.8,-15.2,M,-25.1,M,1.8,0000*53
$GPGSA,A,3,25,02,29,31,05,12,,,,,,,3.0,1.8,2.4*34
$GPRMC,193514.000,A,3748.7315,N,12217.7342,W,2.16,113.57,311012,,,D*7B
$GPVTG,113.57,T,,M,2.16,N,4.0,K,D*08
$GPGGA,193515.000,3748.7307,N,12217.7332,W,2,06,1.8,-15.5,M,-25.1,M,1.8,0000*51
$GPGSA,A,3,25,02,29,31,05,12,,,,,,,3.0,1.8,2.4*34
$GPGSV,3,1,10,25,68,288,22,12,64,166,28,05,48,118,32,02,47,047,24*7F
$GPGSV,3,2,10,29,45,304,21,10,24,051,21,31,14,309,20,21,13,236,25*79
$GPGSV,3,3,10,04,02,053,,48,44,197,37*7F
$GPRMC,193515.000,A,3748.7307,N,12217.7332,W,2.33,141.94,311012,,,D*71
$GPVTG,141.94,T,,M,2.33,N,4.3,K,D*04
$GPGGA,193516.000,3748.7300,N,12217.7318,W,2,06,1.8,-17.4,M,-25.1,M,2.8,0000*5D
$GPGSA,A,3,25,02,29,31,05,12,,,,,,,3.0,1.8,2.4*34
$GPRMC,193516.000,A,3748.7300,N,12217.7318,W,2.22,115.77,311012,,,D*71
$GPVTG,115.77,T,,M,2.22,N,4.1,K,D*0A
$GPGGA,193517.000,3748.7298,N,12217.7308,W,2,06,1.8,-17.0,M,-25.1,M,3.8,0000*58
$GPGSA,A,3,25,02,29,31,05,12,,,,,,,3.0,1.8,2.4*34
$GPRMC,193517.000,A,3748.7298,N,12217.7308,W,2.17,112.70,311012,,,D*77
$GPVTG,112.70,T,,M,2.17,N,4.0,K,D*0D
$GPGGA,193518.000,3748.7291,N,12217.7302,W,2,06,1.8,-15.0,M,-25.1,M,4.8,0000*51
$GPGSA,A,3,25,02,29,31,05,12,,,,,,,3.0,1.8,2.4*34
