$ADVER,3080,2.3
$GPRMC,210357.788,A,3749.9191,N,12215.3026,W,0.41,187.25,031110,,,A*7C
$GPGGA,210358.788,3749.9193,N,12215.3025,W,1,03,8.6,25.0,M,-25.0,M,,0000*5E
$GPGSA,A,2,02,25,29,,,,,,,,,,8.7,8.6,1.0*3D
$GPGSV,3,1,11,25,64,299,39,02,48,047,36,29,36,295,38,12,70,164,33*72
$GPGSV,3,2,11,05,42,131,,10,34,070,,30,34,312,37,04,13,050,*7A
$GPGSV,3,3,11,31,09,319,33,21,07,231,,09,05,195,*4C
$GPRMC,210358.788,A,3749.9193,N,12215.3025,W,1.17,174.17,031110,,,A*7D
$GPVTG,174.17,T,,M,1.17,N,2.2,K,N*01
$GPGGA,210428.791,3749.9183,N,12215.2942,W,2,04,2.8,76.7,M,-25.0,M,1.6,0000*76
$GPGSA,A,3,02,25,29,12,,,,,,,,,6.5,2.8,5.9*3A
$GPGSV,3,1,12,25,64,299,30,02,48,047,27,29,36,295,25,12,70,165,35*73
$GPGSV,3,2,12,05,42,131,22,10,34,070,15,30,34,312,21,04,12,050,*7B
$GPRMC,210428.791,A,3749.9183,N,12215.2942,W,0.27,86.50,031110,,,D*45
$GPVTG,86.50,T,,M,0.27,N,0.5,K,D*33
$GPGGA,210429.791,3749.9163,N,12215.2953,W,2,04,2.8,64.7,M,-25.0,M,1.6,0000*7A
$GPGSA,A,3,02,25,29,12,,,,,,,,,6.5,2.8,5.9*3A
$GPRMC,210429.791,A,3749.9163,N,12215.2953,W,0.23,75.98,031110,,,D*46
$GPVTG,75.98,T,,M,0.23,N,0.4,K,D*3E
$GPGGA,210430.791,3749.9158,N,12215.2960,W,2,04,2.8,61.2,M,-25.0,M,1.6,0000*7A
$GPGSA,A,3,02,25,29,12,,,,,,,,,6.5,2.8,5.9*3A
$GPRMC,210430.791,A,3749.9158,N,12215.2960,W,0.18,141.70,031110,,,D*7E
$GPVTG,141.70,T,,M,0.18,N,0.3,K,D*01
$GPGGA,210431.000,3749.9157,N,12215.2962,W,2,04,2.8,60.5,M,-25.0,M,1.8,0000*71
$GPGSA,A,3,02,25,29,12,,,,,,,,,6.5,2.8,5.9*3A
$GPRMC,210431.000,A,3749.9157,N,12215.2962,W,0.19,21.53,031110,,,D*4A
$GPVTG,21.53,T,,M,0.19,N,0.3,K,D*36
$GPGGA,210432.000,3749.9147,N,12215.2974,W,2,04,2.8,58.3,M,-25.0,M,1.8,0000*79
$GPGSA,A,3,02,25,29,12,,,,,,,,,6.5,2.8,5.9*3A
$GPRMC,210432.000,A,3749.9147,N,12215.2974,W,0.55,52.57,031110,,,D*47
$GPVTG,52.57,T,,M,0.55,N,1.0,K,D*3C
$GPGGA,210433.000,3749.9144,N,12215.2978,W,2,04,2.8,55.3,M,-25.0,M,1.8,0000*7A
$GPGSA,A,3,02,25,29,12,,,,,,,,,6.5,2.8,5.9*3A
$GPGSV,3,1,12,12,70,165,35,25,64,299,30,02,48,047,25,29,36,295,29*7D
$GPGSV,3,2,12,05,42,130,23,10,34,070,15,30,34,312,25,04,12,050,*7F
$GPGSV,3,3,12,31,10,319,29,21,07,231,,09,05,195,,48,44,197,38*74
$GPRMC,210433.000,A,3749.9144,N,12215.2978,W,1.12,46.73,031110,,,D*48
$GPVTG,46.73,T,,M,1.12,N,2.1,K,D*3F
$GPGGA,210434.000,3749.9138,N,12215.2984,W,2,04,2.8,49.3,M,-25.0,M,2.8,0000*7B
$GPGSA,A,3,02,25,29,12,,,,,,,,,6.5,2.8,5.9*3A
$GPRMC,210434.000,A,3749.9138,N,12215.2984,W,0.36,21.26,031110,,,D*41
$GPVTG,21.26,T,,M,0.36,N,0.7,K,D*3D
$GPGGA,210435.000,3749.9143,N,12215.2978,W,2,04,2.8,47.3,M,-25.0,M,3.8,0000*7A
$GPGSA,A,3,02,25,29,12,,,,,,,,,6.5,2.8,5.9*3A
$GPRMC,210435.000,A,3749.9143,N,12215.2978,W,1.26,39.78,031110,,,D*4D
$GPVTG,39.78,T,,M,1.26,N,2.3,K,D*39
$GPGGA,210436.000,3749.9143,N,12215.2978,W,2,04,2.8,45.6,M,-25.0,M,1.8,0000*7C
$GPGSA,A,3,02,25,29,12,,,,,,,,,6.5,2.8,5.9*3A
$GPRMC,210436.000,A,3749.9143,N,12215.2978,W,1.39,49.33,031110,,,D*48
$GPVTG,49.33,T,,M,1.39,N,2.6,K,D*3A
$GPGGA,210437.000,3749.9145,N,12215.2976,W,2,04,2.8,44.3,M,-25.0,M,1.8,0000*71
$GPGSA,A,3,02,25,29,12,,,,,,,,,6.5,2.8,5.9*3A
$GPRMC,210437.000,A,3749.9145,N,12215.2976,W,0.63,45.59,031110,,,D*4F
$GPVTG,45.59,T,,M,0.63,N,1.2,K,D*33
$GPGGA,210438.000,3749.9146,N,12215.2974,W,2,04,2.8,43.3,M,-25.0,M,1.8,0000*78
$GPGSA,A,3,02,25,29,12,,,,,,,,,6.5,2.8,5.9*3A
$GPGSV,3,1,12,12,70,165,36,25,64,299,31,02,48,047,22,29,36,295,32*72
$GPGSV,3,2,12,05,42,130,22,10,34,070,15,30,34,312,26,04,12,050,*7D
$GPGSV,3,3,12,31,10,319,29,21,07,231,,09,05,195,,48,44,197,39*75
$GPRMC,210438.000,A,3749.9146,N,12215.2974,W,0.70,55.72,031110,,,D*4B
$GPVTG,55.72,T,,M,0.70,N,1.3,K,D*38
$GPGGA,210439.000,3749.9142,N,12215.2979,W,2,04,2.8,43.1,M,-25.0,M,1.8,0000*72
$GPGSA,A,3,02,25,29,12,,,,,,,,,6.5,2.8,5.9*3A
$GPRMC,210439.000,A,3749.9142,N,12215.2979,W,0.40,79.29,031110,,,D*40
$GPVTG,79.29,T,,M,0.40,N,0.7,K,D*3E
$GPGGA,210440.000,3749.9138,N,12215.2985,W,2,04,2.8,43.0,M,-25.0,M,2.8,0000*70
$GPGSA,A,3,02,25,29,12,,,,,,,,,6.5,2.8,5.9*3A
$GPRMC,210440.000,A,3749.9138,N,12215.2985,W,0.29,168.52,031110,,,D*72
$GPVTG,168.52,T,,M,0.29,N,0.5,K,D*0E
$GPGGA,210441.000,3749.9134,N,12215.2990,W,2,04,2.8,43.1,M,-25.0,M,3.8,0000*79
$GPGSA,A,3,02,25,29,12,,,,,,,,,6.5,2.8,5.9*3A
$GPRMC,210441.000,A,3749.9134,N,12215.2990,W,0.43,191.16,031110,,,D*71
$GPVTG,191.16,T,,M,0.43,N,0.8,K,D*09
$GPGGA,210442.000,3749.9133,N,12215.2991,W,2,04,2.8,43.3,M,-25.0,M,4.8,0000*79
$GPGSA,A,3,02,25,29,12,,,,,,,,,6.5,2.8,5.9*3A
$GPRMC,210442.000,A,3749.9133,N,12215.2991,W,0.46,185.10,031110,,,D*72
$GPVTG,185.10,T,,M,0.46,N,0.8,K,D*0F
$GPGGA,210443.000,3749.9136,N,12215.2988,W,2,04,2.8,46.5,M,-25.0,M,5.8,0000*77
$GPGSA,A,3,02,25,29,12,,,,,,,,,6.5,2.8,5.9*3A
$GPGSV,3,1,12,12,70,165,34,25,64,299,37,02,48,047,26,29,36,295,25*74
$GPGSV,3,2,12,05,42,130,22,10,34,070,15,30,34,312,34,04,12,050,*7E
$GPGSV,3,3,12,31,10,319,26,21,07,231,,09,05,195,,48,44,197,36*75
$GPVTG,164.18,T,,M,0.22,N,0.4,K,D*06
$GPGGA,210444.000,3749.9138,N,12215.2985,W,2,04,2.8,50.2,M,-25.0,M,1.8,0000*77
$GPGSA,A,3,02,25,29,12,,,,,,,,,6.5,2.8,5.9*3A
$GPRMC,210444.000,A,3749.9138,N,12215.2985,W,0.06,193.21,031110,,,D*7B
$GPVTG,193.21,T,,M,0.06,N,0.1,K,D*07
$GPGGA,210445.000,3749.9138,N,12215.2987,W,2,04,2.8,52.1,M,-25.0,M,1.8,0000*75
$GPGSA,A,3,02,25,29,12,,,,,,,,,6.5,2.8,5.9*3A
$GPRMC,210445.000,A,3749.9138,N,12215.2987,W,0.22,127.46,031110,,,D*70
$GPVTG,127.46,T,,M,0.22,N,0.4,K,D*0A
$GPGGA,210446.000,3749.9139,N,12215.2987,W,2,04,2.8,55.1,M,-25.0,M,1.8,0000*70
$GPGSA,A,3,02,25,29,12,,,,,,,,,6.5,2.8,5.9*3A
$GPRMC,210446.000,A,3749.9139,N,12215.2987,W,0.20,85.64,031110,,,D*49
$GPVTG,85.64,T,,M,0.20,N,0.4,K,D*31
$GPGGA,210447.000,3749.9141,N,12215.2984,W,2,04,2.8,58.7,M,-25.0,M,2.8,0000*75
$GPGSA,A,3,02,25,29,12,,,,,,,,,6.5,2.8,5.9*3A
$GPRMC,210447.000,A,3749.9141,N,12215.2984,W,0.13,41.78,031110,,,D*41
$GPVTG,41.78,T,,M,0.13,N,0.2,K,D*32
$GPGGA,210448.000,3749.9138,N,12215.2991,W,2,04,2.8,60.2,M,-25.0,M,3.8,0000*7F
$GPGSA,A,3,02,25,29,12,,,,,,,,,6.5,2.8,5.9*3A
$GPGSV,3,1,12,12,70,165,34,25,64,299,36,02,48,047,26,05,42,130,23*72
$GPGSV,3,2,12,29,36,296,29,10,34,070,17,30,34,312,33,04,12,050,*72
$GPGSV,3,3,12,31,10,319,28,21,07,232,,09,05,195,,48,44,197,36*78
$GPRMC,210448.000,A,3749.9138,N,12215.2991,W,0.28,261.88,031110,,,D*73
$GPVTG,261.88,T,,M,0.28,N,0.5,K,D*02
$GPGGA,210449.000,3749.9133,N,12215.3000,W,2,04,2.8,62.0,M,-25.0,M,1.8,0000*77
$GPGSA,A,3,02,25,29,12,,,,,,,,,6.5,2.8,5.9*3A
$GPRMC,210449.000,A,3749.9133,N,12215.3000,W,0.22,260.07,031110,,,D*75
$GPVTG,260.07,T,,M,0.22,N,0.4,K,D*0F
$GPGGA,210450.000,3749.9130,N,12215.3006,W,2,04,2.8,58.8,M,-25.0,M,1.8,0000*7B
$GPGSA,A,3,02,25,29,12,,,,,,,,,6.5,2.8,5.9*3A
$GPRMC,210450.000,A,3749.9130,N,12215.3006,W,0.12,308.71,031110,,,D*75
$GPVTG,308.71,T,,M,0.12,N,0.2,K,D*04
$GPGGA,210451.000,3749.9130,N,12215.3007,W,2,04,2.8,56.2,M,-25.0,M,1.8,0000*7F
$GPGSA,A,3,02,25,29,12,,,,,,,,,6.5,2.8,5.9*3A
$GPRMC,210451.000,A,3749.9130,N,12215.3007,W,0.38,41.20,031110,,,D*47
$GPVTG,41.20,T,,M,0.38,N,0.7,K,D*33
$GPGGA,210452.000,3749.9129,N,12215.3010,W,2,04,2.8,53.9,M,-25.0,M,2.8,0000*7F
$GPGSA,A,3,02,25,29,12,,,,,,,,,6.5,2.8,5.9*3A
$GPRMC,210452.000,A,3749.9129,N,12215.3010,W,0.16,27.14,031110,,,D*41
$GPVTG,27.14,T,,M,0.16,N,0.3,K,D*3C
$GPGGA,210453.000,3749.9125,N,12215.3016,W,2,04,2.8,51.9,M,-25.0,M,3.8,0000*77
$GPGSA,A,3,02,25,29,12,,,,,,,,,6.5,2.8,5.9*3A
$GPGSV,3,1,12,12,70,165,33,25,64,299,35,02,48,047,23,05,42,130,23*73
$GPGSV,3,2,12,29,36,296,30,10,34,070,16,30,34,312,33,04,12,050,*7B
$GPGSV,3,3,12,31,10,319,27,21,07,232,,09,05,195,,48,44,197,36*77
$GPRMC,210453.000,A,3749.9125,N,12215.3016,W,0.60,235.24,031110,,,D*79
$GPVTG,235.24,T,,M,0.60,N,1.1,K,D*0C
$GPGGA,210454.000,3749.9119,N,12215.3023,W,2,04,2.8,50.0,M,-25.0,M,4.8,0000*76
$GPGSA,A,3,02,25,29,12,,,,,,,,,6.5,2.8,5.9*3A
$GPRMC,210454.000,A,3749.9119,N,12215.3023,W,0.55,194.52,031110,,,D*78
$GPVTG,194.52,T,,M,0.55,N,1.0,K,D*02
$GPGGA,210455.000,3749.9112,N,12215.3031,W,2,04,2.8,48.4,M,-25.0,M,1.8,0000*77
$GPGSA,A,3,02,25,29,12,,,,,,,,,6.5,2.8,5.9*3A
$GPRMC,210455.000,A,3749.9112,N,12215.3031,W,0.88,206.36,031110,,,D*7B
$GPVTG,206.36,T,,M,0.88,N,1.6,K,D*0E
$GPGGA,210456.000,3749.9112,N,12215.3031,W,2,04,2.8,46.8,M,-25.0,M,1.8,0000*76
$GPGSA,A,3,02,25,29,12,,,,,,,,,6.5,2.8,5.9*3A
$GPRMC,210456.000,A,3749.9112,N,12215.3031,W,0.20,132.46,031110,,,D*79
$GPVTG,132.46,T,,M,0.20,N,0.4,K,D*0C
$GPGGA,210457.000,3749.9113,N,12215.3030,W,2,04,2.8,45.3,M,-25.0,M,1.8,0000*7F
$GPGSA,A,3,02,25,29,12,,,,,,,,,6.5,2.8,5.9*3A
$GPRMC,210457.000,A,3749.9113,N,12215.3030,W,0.21,171.04,031110,,,D*78
$GPVTG,171.04,T,,M,0.21,N,0.4,K,D*0C
$GPGGA,210458.000,3749.9115,N,12215.3028,W,2,04,2.8,43.8,M,-25.0,M,1.8,0000*72
$GPGSA,A,3,02,25,29,12,,,,,,,,,6.5,2.8,5.9*3A
$GPGSV,3,1,12,12,70,165,33,25,64,299,35,02,48,047,27,05,42,130,25*71
$GPGSV,3,2,12,29,36,296,32,10,34,070,,30,34,312,33,04,12,050,*7E
$GPGSV,3,3,12,31,10,319,31,21,07,232,,09,05,195,,48,44,197,39*7F
$GPVTG,103.88,T,,M,0.21,N,0.4,K,D*0D
$GPGGA,210459.000,3749.9120,N,12215.3021,W,2,04,2.8,42.4,M,-25.0,M,1.8,0000*71
$GPGSA,A,3,02,25,29,12,,,,,,,,,6.5,2.8,5.9*3A
$GPRMC,210459.000,A,3749.9120,N,12215.3021,W,0.26,99.49,031110,,,D*4F
$GPVTG,99.49,T,,M,0.26,N,0.5,K,D*34
$GPGGA,210500.000,3749.9124,N,12215.3016,W,2,04,2.8,41.1,M,-25.0,M,1.8,0000*7A
$GPGSA,A,3,02,25,29,12,,,,,,,,,6.5,2.8,5.9*3A
$GPRMC,210500.000,A,3749.9124,N,12215.3016,W,0.31,97.07,031110,,,D*40
$GPVTG,97.07,T,,M,0.31,N,0.6,K,D*35
$GPGGA,210501.000,3749.9126,N,12215.3013,W,2,04,2.8,39.8,M,-25.0,M,1.8,0000*7A
$GPGSA,A,3,02,25,29,12,,,,,,,,,6.5,2.8,5.9*3A
$GPRMC,210501.000,A,3749.9126,N,12215.3013,W,0.19,97.08,031110,,,D*43
$GPVTG,97.08,T,,M,0.19,N,0.4,K,D*32
$GPGGA,210502.000,3749.9121,N,12215.3018,W,2,04,2.8,39.0,M,-25.0,M,1.8,0000*7D
$GPGSA,A,3,02,25,29,12,,,,,,,,,6.5,2.8,5.9*3A
$GPRMC,210502.000,A,3749.9121,N,12215.3018,W,0.31,138.14,031110,,,D*7F
$GPVTG,138.14,T,,M,0.31,N,0.6,K,D*03
$GPGGA,210503.000,3749.9117,N,12215.3022,W,2,04,2.8,38.1,M,-25.0,M,1.8,0000*70
$GPGSA,A,3,02,25,29,12,,,,,,,,,6.5,2.8,5.9*3A
$GPGSV,3,1,12,12,70,165,34,25,64,299,35,02,48,047,26,05,42,130,29*7B
$GPGSV,3,2,12,29,36,296,33,10,34,070,,30,34,312,33,04,12,050,*7F
$GPGSV,3,3,12,31,10,319,24,21,07,232,,09,05,195,,48,44,197,39*7B
$GPRMC,210503.000,A,3749.9117,N,12215.3022,W,0.45,180.37,031110,,,D*73
$GPVTG,180.37,T,,M,0.45,N,0.8,K,D*0C
$GPGGA,210504.000,3749.9111,N,12215.3027,W,2,04,2.8,37.4,M,-25.0,M,2.8,0000*7D
$GPGSA,A,3,02,25,29,12,,,,,,,,,6.5,2.8,5.9*3A
$GPRMC,210504.000,A,3749.9111,N,12215.3027,W,0.68,179.19,031110,,,D*72
$GPVTG,179.19,T,,M,0.68,N,1.3,K,D*03
$GPGGA,210505.000,3749.9108,N,12215.3029,W,2,04,2.8,36.6,M,-25.0,M,3.8,0000*78
$GPGSA,A,3,02,25,29,12,,,,,,,,,6.5,2.8,5.9*3A
$GPRMC,210505.000,A,3749.9108,N,12215.3029,W,0.69,124.64,031110,,,D*76
$GPVTG,124.64,T,,M,0.69,N,1.3,K,D*00
$GPGGA,210506.000,3749.9106,N,12215.3030,W,2,04,2.8,35.8,M,-25.0,M,4.8,0000*77
$GPGSA,A,3,02,25,29,12,,,,,,,,,6.5,2.8,5.9*3A
$GPRMC,210506.000,A,3749.9106,N,12215.3030,W,0.72,190.74,031110,,,D*77
$GPVTG,190.74,T,,M,0.72,N,1.3,K,D*04
$GPGGA,210507.000,3749.9105,N,12215.3030,W,2,04,2.8,35.2,M,-25.0,M,1.8,0000*7A
$GPGSA,A,3,02,25,29,12,,,,,,,,,6.5,2.8,5.9*3A
$GPRMC,210507.000,A,3749.9105,N,12215.3030,W,1.12,201.07,031110,,,D*7D
$GPVTG,201.07,T,,M,1.12,N,2.1,K,D*0D
$GPGGA,210508.000,3749.9111,N,12215.3022,W,2,04,2.8,34.3,M,-25.0,M,1.8,0000*73
$GPGSA,A,3,02,25,29,12,,,,,,,,,6.6,2.8,5.9*39
$GPGSV,3,1,12,12,70,165,35,25,64,299,32,02,48,047,23,05,42,130,30*70
$GPGSV,3,2,12,29,36,296,32,10,34,070,,30,34,312,30,04,12,050,*7D
$GPGSV,3,3,12,31,10,319,19,21,07,232,,09,05,195,,48,44,197,39*75
$GPRMC,210508.000,A,3749.9111,N,12215.3022,W,1.06,68.43,031110,,,D*4C
$GPVTG,68.43,T,,M,1.06,N,2.0,K,D*34
$GPGGA,210509.000,3749.9113,N,12215.3018,W,2,04,2.8,33.4,M,-25.0,M,1.8,0000*79
$GPGSA,A,3,02,25,29,12,,,,,,,,,6.6,2.8,5.9*39
$GPRMC,210509.000,A,3749.9113,N,12215.3018,W,1.02,64.55,031110,,,D*49
$GPVTG,64.55,T,,M,1.02,N,1.9,K,D*31
$GPGGA,210510.000,3749.9118,N,12215.3012,W,2,04,2.8,32.5,M,-25.0,M,2.8,0000*73
$GPGSA,A,3,02,25,29,12,,,,,,,,,6.6,2.8,5.9*39
$GPRMC,210510.000,A,3749.9118,N,12215.3012,W,0.60,76.65,031110,,,D*45
$GPVTG,76.65,T,,M,0.60,N,1.1,K,D*3C
$GPGGA,210511.000,3749.9121,N,12215.3007,W,2,04,2.8,31.7,M,-25.0,M,3.8,0000*7C
$GPGSA,A,3,02,25,29,12,,,,,,,,,6.6,2.8,5.9*39
$GPRMC,210511.000,A,3749.9121,N,12215.3007,W,0.31,115.56,031110,,,D*7A
$GPVTG,115.56,T,,M,0.31,N,0.6,K,D*0A
$GPGGA,210512.000,3749.9120,N,12215.3007,W,2,04,2.8,31.8,M,-25.0,M,4.8,0000*76
$GPGSA,A,3,02,25,29,12,,,,,,,,,6.6,2.8,5.9*39
$GPRMC,210512.000,A,3749.9120,N,12215.3007,W,0.53,170.78,031110,,,D*73
$GPVTG,170.78,T,,M,0.53,N,1.0,K,D*06
$GPGGA,210513.000,3749.9124,N,12215.3001,W,2,04,2.8,31.1,M,-25.0,M,1.8,0000*79
$GPGSA,A,3,02,25,29,12,,,,,,,,,6.6,2.8,5.9*39
$GPGSV,3,1,12,12,70,165,36,25,64,299,32,02,48,047,25,05,42,130,31*74
$GPGSV,3,2,12,29,36,296,27,10,34,070,,30,34,312,32,04,12,050,*7B
$GPGSV,3,3,12,31,10,319,22,21,07,232,,09,05,195,,48,44,197,41*72
$GPVTG,73.27,T,,M,0.70,N,1.3,K,D*3C
$GPGGA,210514.000,3749.9122,N,12215.3005,W,2,04,2.8,28.7,M,-25.0,M,0.8,0000*73
$GPGSA,A,3,02,25,29,12,,,,,,,,,6.6,2.8,5.9*39
$GPRMC,210514.000,A,3749.9122,N,12215.3005,W,0.36,151.18,031110,,,D*73
$GPVTG,151.18,T,,M,0.36,N,0.7,K,D*06
$GPGGA,210515.000,3749.9118,N,12215.3009,W,2,04,2.8,26.2,M,-25.0,M,1.8,0000*7D
$GPGSA,A,3,02,25,29,12,,,,,,,,,6.6,2.8,5.9*39
$GPRMC,210515.000,A,3749.9118,N,12215.3009,W,0.52,170.48,031110,,,D*73
$GPVTG,170.48,T,,M,0.52,N,1.0,K,D*04
$GPGGA,210516.000,3749.9114,N,12215.3014,W,2,04,2.8,24.0,M,-25.0,M,2.8,0000*7D
$GPGSA,A,3,02,25,29,12,,,,,,,,,6.6,2.8,5.9*39
$GPRMC,210516.000,A,3749.9114,N,12215.3014,W,0.60,181.66,031110,,,D*73
$GPVTG,181.66,T,,M,0.60,N,1.1,K,D*06
$GPGGA,210517.000,3749.9111,N,12215.3017,W,2,04,2.8,22.0,M,-25.0,M,3.8,0000*7D
$GPGSA,A,3,02,25,29,12,,,,,,,,,6.6,2.8,5.9*39
$GPRMC,210517.000,A,3749.9111,N,12215.3017,W,0.60,180.63,031110,,,D*70
$GPVTG,180.63,T,,M,0.60,N,1.1,K,D*02
$GPGGA,210518.000,3749.9108,N,12215.3020,W,2,04,2.8,20.3,M,-25.0,M,4.8,0000*78
$GPGSA,A,3,02,25,29,12,,,,,,,,,6.6,2.8,5.9*39
$GPGSV,3,1,12,12,70,165,36,25,64,298,34,02,48,047,31,05,42,130,31*76
$GPGSV,3,2,12,29,36,296,33,30,34,312,33,10,34,069,,04,12,050,*77
$GPGSV,3,3,12,31,10,318,24,21,07,232,,09,05,195,,48,44,197,40*74
$GPRMC,210518.000,A,3749.9108,N,12215.3020,W,0.52,170.02,031110,,,D*7A
$GPVTG,170.02,T,,M,0.52,N,1.0,K,D*0A
$GPGGA,210519.000,3749.9105,N,12215.3021,W,2,04,2.8,19.1,M,-25.0,M,1.8,0000*78
$GPGSA,A,3,02,25,29,12,,,,,,,,,6.6,2.8,5.9*39
$GPRMC,210519.000,A,3749.9105,N,12215.3021,W,1.00,148.02,031110,,,D*7A
$GPVTG,148.02,T,,M,1.00,N,1.9,K,D*0E
$GPGGA,210520.000,3749.9104,N,12215.3021,W,2,04,2.8,17.9,M,-25.0,M,1.8,0000*75
$GPGSA,A,3,02,25,29,12,,,,,,,,,6.6,2.8,5.9*39
$GPRMC,210520.000,A,3749.9104,N,12215.3021,W,0.49,152.77,031110,,,D*74
$GPVTG,152.77,T,,M,0.49,N,0.9,K,D*0A
$GPGGA,210521.000,3749.9102,N,12215.3021,W,2,04,2.8,17.0,M,-25.0,M,1.8,0000*7B
$GPGSA,A,3,02,25,29,12,,,,,,,,,6.6,2.8,5.9*39
$GPRMC,210521.000,A,3749.9102,N,12215.3021,W,0.51,152.43,031110,,,D*7D
$GPVTG,152.43,T,,M,0.51,N,0.9,K,D*04
$GPGGA,210522.000,3749.9102,N,12215.3021,W,2,04,2.8,16.1,M,-25.0,M,2.8,0000*7B
$GPGSA,A,3,02,25,29,12,,,,,,,,,6.6,2.8,5.9*39
$GPRMC,210522.000,A,3749.9102,N,12215.3021,W,0.52,148.48,031110,,,D*7D
$GPVTG,148.48,T,,M,0.52,N,1.0,K,D*0F
$GPGGA,210523.000,3749.9101,N,12215.3020,W,2,04,2.8,15.4,M,-25.0,M,1.8,0000*7D
$GPGSA,A,3,02,25,29,12,,,,,,,,,6.6,2.8,5.9*39
$GPGSV,3,1,12,12,70,165,36,25,64,298,34,02,48,047,30,05,42,130,32*74
$GPGSV,3,2,12,29,36,296,32,30,34,312,33,10,34,069,,04,12,050,*76
$GPGSV,3,3,12,31,10,318,19,21,07,232,,09,05,195,,48,44,197,39*74
$GPRMC,210523.000,A,3749.9101,N,12215.3020,W,0.51,148.13,031110,,,D*73
$GPVTG,148.13,T,,M,0.51,N,0.9,K,D*0A
$GPGGA,210524.000,3749.9101,N,12215.3017,W,2,04,2.8,15.3,M,-25.0,M,2.8,0000*7A
$GPGSA,A,3,02,25,29,12,,,,,,,,,6.6,2.8,5.9*39
$GPRMC,210524.000,A,3749.9101,N,12215.3017,W,0.49,138.86,031110,,,D*72
$GPVTG,138.86,T,,M,0.49,N,0.9,K,D*08
$GPGGA,210525.000,3749.9102,N,12215.3012,W,2,04,2.8,17.7,M,-25.0,M,1.8,0000*78
$GPGSA,A,3,02,25,29,12,,,,,,,,,6.6,2.8,5.9*39
$GPRMC,210525.000,A,3749.9102,N,12215.3012,W,0.61,132.37,031110,,,D*7F
$GPVTG,132.37,T,,M,0.61,N,1.1,K,D*0B
$GPGGA,210526.000,3749.9102,N,12215.3009,W,2,04,2.8,19.9,M,-25.0,M,1.8,0000*71
$GPGSA,A,3,02,25,29,12,,,,,,,,,6.6,2.8,5.9*39
$GPRMC,210526.000,A,3749.9102,N,12215.3009,W,0.65,157.67,031110,,,D*74
$GPVTG,157.67,T,,M,0.65,N,1.2,K,D*0A
$GPGGA,210527.000,3749.9103,N,12215.3006,W,2,04,2.8,22.3,M,-25.0,M,1.8,0000*7C
$GPGSA,A,3,02,25,29,12,,,,,,,,,6.6,2.8,5.9*39
$GPRMC,210527.000,A,3749.9103,N,12215.3006,W,0.38,145.93,031110,,,D*7B
$GPVTG,145.93,T,,M,0.38,N,0.7,K,D*0E
$GPGGA,210528.000,3749.9108,N,12215.2998,W,2,04,2.8,24.0,M,-25.0,M,2.8,0000*71
$GPGSA,A,3,02,25,29,12,,,,,,,,,6.6,2.8,5.9*39
$GPGSV,3,1,12,12,70,165,36,25,64,298,32,02,48,047,26,05,42,130,32*75
$GPGSV,3,2,12,29,36,296,35,30,34,312,33,10,34,069,,04,12,050,*71
$GPGSV,3,3,12,31,10,318,26,21,07,232,,09,05,195,,48,44,197,39*78
$GPVTG,81.15,T,,M,0.56,N,1.0,K,D*37
$GPGGA,210529.000,3749.9116,N,12215.2987,W,2,04,2.8,25.3,M,-25.0,M,3.8,0000*72
$GPGSA,A,3,02,25,29,12,,,,,,,,,6.6,2.8,5.9*39
$GPRMC,210529.000,A,3749.9116,N,12215.2987,W,1.34,51.84,031110,,,D*4F
$GPVTG,51.84,T,,M,1.34,N,2.5,K,D*31
$GPGGA,210530.000,3749.9121,N,12215.2980,W,2,04,2.8,26.4,M,-25.0,M,1.8,0000*7F
$GPGSA,A,3,02,25,29,12,,,,,,,,,6.6,2.8,5.9*39
$GPRMC,210530.000,A,3749.9121,N,12215.2980,W,0.90,64.33,031110,,,D*41
$GPVTG,64.33,T,,M,0.90,N,1.7,K,D*35
$GPGGA,210531.000,3749.9127,N,12215.2982,W,2,04,2.8,30.8,M,-25.0,M,1.8,0000*71
$GPGSA,A,3,02,25,29,12,,,,,,,,,6.6,2.8,5.9*39
$GPRMC,210531.000,A,3749.9127,N,12215.2982,W,0.18,76.07,031110,,,D*40
$GPVTG,76.07,T,,M,0.18,N,0.3,K,D*34
$GPGGA,210532.000,3749.9129,N,12215.2982,W,2,04,2.8,32.9,M,-25.0,M,1.8,0000*7F
$GPGSA,A,3,02,25,29,12,,,,,,,,,6.6,2.8,5.9*39
$GPRMC,210532.000,A,3749.9129,N,12215.2982,W,0.21,20.95,031110,,,D*4F
$GPVTG,20.95,T,,M,0.21,N,0.4,K,D*31
$GPGGA,210533.000,3749.9130,N,12215.2983,W,2,04,2.8,34.5,M,-25.0,M,1.8,0000*7D
$GPGSA,A,3,02,25,29,12,,,,,,,,,6.6,2.8,5.9*39
$GPGSV,3,1,12,12,70,165,36,25,64,298,30,02,48,047,29,05,42,130,33*79
$GPGSV,3,2,12,29,36,296,29,30,34,312,31,10,34,069,,04,12,050,*7E
$GPGSV,3,3,12,31,10,318,23,21,07,232,,09,05,195,,48,44,197,39*7D
$GPRMC,210533.000,A,3749.9130,N,12215.2983,W,0.49,21.72,031110,,,D*41
$GPVTG,21.72,T,,M,0.49,N,0.9,K,D*3A
$GPGGA,210534.000,3749.9123,N,12215.2977,W,2,06,1.7,34.1,M,-25.0,M,1.8,0000*79
$GPGSA,A,3,02,25,29,30,12,05,,,,,,,3.6,1.7,3.2*3B
$GPRMC,210534.000,A,3749.9123,N,12215.2977,W,0.18,116.64,031110,,,D*79
$GPVTG,116.64,T,,M,0.18,N,0.3,K,D*06
$GPGGA,210535.000,3749.9123,N,12215.2977,W,2,06,1.7,35.2,M,-25.0,M,2.8,0000*79
$GPGSA,A,3,02,25,29,30,12,05,,,,,,,3.6,1.7,3.2*3B
$GPRMC,210535.000,A,3749.9123,N,12215.2977,W,0.10,95.82,031110,,,D*42
$GPVTG,95.82,T,,M,0.10,N,0.2,K,D*3D
$GPGGA,210536.000,3749.9120,N,12215.2974,W,2,06,1.7,36.8,M,-25.0,M,3.8,0000*72
$GPGSA,A,3,02,25,29,30,12,05,,,,,,,3.6,1.7,3.2*3B
$GPRMC,210536.000,A,3749.9120,N,12215.2974,W,0.27,53.85,031110,,,D*48
$GPVTG,53.85,T,,M,0.27,N,0.5,K,D*33
$GPGGA,210537.000,3749.9121,N,12215.2975,W,2,06,1.7,40.5,M,-25.0,M,1.8,0000*7D
$GPGSA,A,3,02,25,29,30,12,05,,,,,,,3.6,1.7,3.2*3B
$GPRMC,210537.000,A,3749.9121,N,12215.2975,W,0.35,15.76,031110,,,D*44
$GPVTG,15.76,T,,M,0.35,N,0.6,K,D*3D
$GPGGA,210538.000,3749.9118,N,12215.2973,W,2,06,1.7,40.7,M,-25.0,M,1.8,0000*7C
$GPGSA,A,3,02,25,29,30,12,05,,,,,,,3.6,1.7,3.2*3B
$GPGSV,3,1,12,12,70,165,36,25,64,298,24,02,48,047,33,05,43,130,29*7D
$GPGSV,3,2,12,29,37,296,30,30,35,312,31,10,34,069,,04,12,050,*76
$GPGSV,3,3,12,31,10,318,24,21,08,232,20,09,05,195,,48,44,197,39*77
$GPRMC,210538.000,A,3749.9118,N,12215.2973,W,0.09,19.67,031110,,,D*44
$GPVTG,19.67,T,,M,0.09,N,0.2,K,D*3A
$GPGGA,210539.000,3749.9115,N,12215.2973,W,2,06,1.7,40.8,M,-25.0,M,1.8,0000*7F
$GPGSA,A,3,02,25,29,30,12,05,,,,,,,3.6,1.7,3.2*3B
$GPRMC,210539.000,A,3749.9115,N,12215.2973,W,0.22,227.14,031110,,,D*7A
$GPVTG,227.14,T,,M,0.22,N,0.4,K,D*0E
$GPGGA,210540.000,3749.9112,N,12215.2979,W,2,06,1.7,42.6,M,-25.0,M,2.8,0000*73
$GPGSA,A,3,02,25,29,30,12,05,,,,,,,3.6,1.7,3.2*3B
$GPRMC,210540.000,A,3749.9112,N,12215.2979,W,0.09,349.08,031110,,,D*74
$GPVTG,349.08,T,,M,0.09,N,0.2,K,D*05
$GPGGA,210541.000,3749.9116,N,12215.2976,W,2,06,1.7,45.0,M,-25.0,M,1.8,0000*7B
$GPGSA,A,3,02,25,29,30,12,05,,,,,,,3.6,1.7,3.2*3B
$GPRMC,210541.000,A,3749.9116,N,12215.2976,W,0.61,30.91,031110,,,D*4D
$GPVTG,30.91,T,,M,0.61,N,1.1,K,D*34
$GPGGA,210542.000,3749.9122,N,12215.2970,W,2,06,1.7,47.9,M,-25.0,M,2.8,0000*71
$GPGSA,A,3,02,25,29,30,12,05,,,,,,,3.6,1.7,3.2*3B
$GPRMC,210542.000,A,3749.9122,N,12215.2970,W,0.36,15.65,031110,,,D*41
$GPVTG,15.65,T,,M,0.36,N,0.7,K,D*3D
$GPGGA,210543.000,3749.9125,N,12215.2968,W,2,06,1.7,50.4,M,-25.0,M,1.8,0000*76
$GPGSA,A,3,02,25,29,30,12,05,,,,,,,3.6,1.7,3.2*3B
$GPGSV,3,1,12,12,70,165,36,25,64,298,29,02,48,047,22,05,43,130,33*7B
$GPGSV,3,2,12,29,37,296,30,30,35,312,33,10,34,069,,04,12,050,*74
$GPGSV,3,3,12,31,10,318,28,21,08,232,14,09,05,195,,48,44,197,38*7D
$GPVTG,36.23,T,,M,0.95,N,1.8,K,D*39
$GPGGA,210544.000,3749.9128,N,12215.2966,W,2,06,1.7,52.6,M,-25.0,M,1.8,0000*72
$GPGSA,A,3,02,25,29,30,12,05,,,,,,,3.6,1.7,3.2*3B
$GPRMC,210544.000,A,3749.9128,N,12215.2966,W,0.83,26.75,031110,,,D*45
$GPVTG,26.75,T,,M,0.83,N,1.5,K,D*31
$GPGGA,210545.000,3749.9127,N,12215.2967,W,2,06,1.7,54.0,M,-25.0,M,1.8,0000*7D
$GPGSA,A,3,02,25,29,30,12,05,,,,,,,3.6,1.7,3.2*3B
$GPRMC,210545.000,A,3749.9127,N,12215.2967,W,0.03,13.72,031110,,,D*43
$GPVTG,13.72,T,,M,0.03,N,0.1,K,D*3D
$GPGGA,210546.000,3749.9127,N,12215.2967,W,2,06,1.7,55.3,M,-25.0,M,2.8,0000*7F
$GPGSA,A,3,02,25,29,30,12,05,,,,,,,3.6,1.7,3.2*3B
$GPRMC,210546.000,A,3749.9127,N,12215.2967,W,0.70,27.47,031110,,,D*45
$GPVTG,27.47,T,,M,0.70,N,1.3,K,D*3B
$GPGGA,210547.000,3749.9125,N,12215.2969,W,2,06,1.7,56.2,M,-25.0,M,3.8,0000*71
$GPGSA,A,3,02,25,29,30,12,05,,,,,,,3.6,1.7,3.2*3B
$GPRMC,210547.000,A,3749.9125,N,12215.2969,W,0.29,18.67,031110,,,D*4A
$GPVTG,18.67,T,,M,0.29,N,0.5,K,D*3E
$GPGGA,210548.000,3749.9122,N,12215.2971,W,2,06,1.7,57.1,M,-25.0,M,4.8,0000*75
$GPGSA,A,3,02,25,29,30,12,05,,,,,,,3.6,1.7,3.2*3B
$GPGSV,3,1,12,12,69,165,36,25,64,298,34,02,48,047,27,05,43,130,33*7A
$GPGSV,3,2,12,29,37,296,32,30,35,312,29,10,34,069,,04,12,050,*7D
$GPGSV,3,3,12,31,10,318,27,21,08,232,17,09,05,195,,48,44,197,39*70
$GPRMC,210548.000,A,3749.9122,N,12215.2971,W,0.04,53.78,031110,,,D*45
$GPVTG,53.78,T,,M,0.04,N,0.1,K,D*34
$GPGGA,210549.000,3749.9120,N,12215.2974,W,2,06,1.7,57.7,M,-25.0,M,1.8,0000*70
$GPGSA,A,3,02,25,29,30,12,05,,,,,,,3.6,1.7,3.2*3B
$GPRMC,210549.000,A,3749.9120,N,12215.2974,W,0.41,3.79,031110,,,D*76
$GPVTG,3.79,T,,M,0.41,N,0.8,K,D*08
$GPGGA,210550.000,3749.9123,N,12215.2979,W,2,06,1.7,59.6,M,-25.0,M,1.8,0000*79
$GPGSA,A,3,02,25,29,30,12,05,,,,,,,3.6,1.7,3.2*3B
$GPRMC,210550.000,A,3749.9123,N,12215.2979,W,0.37,317.74,031110,,,D*7A
$GPVTG,317.74,T,,M,0.37,N,0.7,K,D*0D
$GPGGA,210551.000,3749.9122,N,12215.2981,W,2,06,1.7,59.9,M,-25.0,M,1.8,0000*71
$GPGSA,A,3,02,25,29,30,12,05,,,,,,,3.6,1.7,3.2*3B
$GPRMC,210551.000,A,3749.9122,N,12215.2981,W,0.25,76.03,031110,,,D*4A
$GPVTG,76.03,T,,M,0.25,N,0.5,K,D*38
$GPGGA,210552.000,3749.9120,N,12215.2982,W,2,06,1.7,59.5,M,-25.0,M,2.8,0000*7C
$GPGSA,A,3,02,25,29,30,12,05,,,,,,,3.6,1.7,3.2*3B
$GPRMC,210552.000,A,3749.9120,N,12215.2982,W,0.05,59.55,031110,,,D*44
$GPVTG,59.55,T,,M,0.05,N,0.1,K,D*30
$GPGGA,210553.000,3749.9128,N,12215.2978,W,2,06,1.7,60.4,M,-25.0,M,1.8,0000*78
$GPGSA,A,3,02,25,29,30,12,05,,,,,,,3.6,1.7,3.2*3B
$GPGSV,3,1,12,12,69,165,36,25,64,298,35,02,48,047,27,05,43,130,26*7F
$GPGSV,3,2,12,29,37,296,34,30,35,312,35,10,34,069,,04,12,050,*76
$GPGSV,3,3,12,31,10,318,33,21,08,232,18,09,05,195,,48,44,197,37*74
$GPRMC,210553.000,A,3749.9128,N,12215.2978,W,0.51,37.08,031110,,,D*49
$GPVTG,37.08,T,,M,0.51,N,1.0,K,D*31
$GPGGA,210554.000,3749.9130,N,12215.2978,W,2,06,1.7,60.4,M,-25.0,M,2.8,0000*75
$GPGSA,A,3,02,25,29,30,12,05,,,,,,,3.6,1.7,3.2*3B
$GPRMC,210554.000,A,3749.9130,N,12215.2978,W,0.35,7.96,031110,,,D*71
$GPVTG,7.96,T,,M,0.35,N,0.7,K,D*01
$GPGGA,210555.000,3749.9135,N,12215.2974,W,2,06,1.7,60.5,M,-25.0,M,1.8,0000*7F
$GPGSA,A,3,02,25,29,30,12,05,,,,,,,3.6,1.7,3.2*3B
$GPRMC,210555.000,A,3749.9135,N,12215.2974,W,0.38,27.28,031110,,,D*43
$GPVTG,27.28,T,,M,0.38,N,0.7,K,D*3B
$GPGGA,210556.000,3749.9133,N,12215.2976,W,2,06,1.7,60.2,M,-25.0,M,1.8,0000*7F
$GPGSA,A,3,02,25,29,30,12,05,,,,,,,3.6,1.7,3.2*3B
$GPRMC,210556.000,A,3749.9133,N,12215.2976,W,0.47,40.17,031110,,,D*41
$GPVTG,40.17,T,,M,0.47,N,0.9,K,D*30
$GPGGA,210557.000,3749.9134,N,12215.2977,W,2,06,1.7,59.7,M,-25.0,M,1.8,0000*77
$GPGSA,A,3,02,25,29,30,12,05,,,,,,,3.6,1.7,3.2*3B
$GPRMC,210557.000,A,3749.9134,N,12215.2977,W,0.12,265.68,031110,,,D*7B
$GPVTG,265.68,T,,M,0.12,N,0.2,K,D*06
$GPGGA,210558.000,3749.9140,N,12215.2971,W,2,06,1.7,59.4,M,-25.0,M,2.8,0000*7D
$GPGSA,A,3,02,25,29,30,12,05,,,,,,,3.6,1.7,3.2*3B
$GPGSV,3,1,12,12,69,165,36,25,64,298,32,02,48,047,21,05,43,130,26*7E
$GPGSV,3,2,12,29,37,296,34,30,35,312,25,10,34,069,,04,12,050,*77
$GPGSV,3,3,12,31,10,318,24,21,08,232,16,09,05,195,,48,44,197,40*7C
$GPVTG,37.11,T,,M,0.64,N,1.2,K,D*3D
$GPGGA,210559.000,3749.9139,N,12215.2971,W,2,06,1.7,58.6,M,-25.0,M,3.8,0000*70
$GPGSA,A,3,02,25,29,30,12,05,,,,,,,3.6,1.7,3.2*3B
$GPRMC,210559.000,A,3749.9139,N,12215.2971,W,0.19,36.23,031110,,,D*4E
$GPVTG,36.23,T,,M,0.19,N,0.3,K,D*37
$GPGGA,210600.000,3749.9137,N,12215.2973,W,2,06,1.7,57.9,M,-25.0,M,4.8,0000*74
$GPGSA,A,3,02,25,29,30,12,05,,,,,,,3.6,1.7,3.2*3B
$GPRMC,210600.000,A,3749.9137,N,12215.2973,W,0.10,227.70,031110,,,D*70
$GPVTG,227.70,T,,M,0.10,N,0.2,K,D*0B
$GPGGA,210601.000,3749.9137,N,12215.2970,W,2,06,1.7,56.2,M,-25.0,M,1.8,0000*79
$GPGSA,A,3,02,25,29,30,12,05,,,,,,,3.6,1.7,3.2*3B
$GPRMC,210601.000,A,3749.9137,N,12215.2970,W,0.67,43.83,031110,,,D*4E
$GPVTG,43.83,T,,M,0.67,N,1.2,K,D*36
$GPGGA,210602.000,3749.9134,N,12215.2970,W,2,06,1.7,54.9,M,-25.0,M,1.8,0000*70
$GPGSA,A,3,02,25,29,30,12,05,,,,,,,3.6,1.7,3.2*3B
$GPRMC,210602.000,A,3749.9134,N,12215.2970,W,0.46,189.38,031110,,,D*7A
$GPVTG,189.38,T,,M,0.46,N,0.9,K,D*08
$GPGGA,210603.000,3749.9125,N,12215.2970,W,2,06,1.7,51.7,M,-25.0,M,1.8,0000*7A
$GPGSA,A,3,02,25,29,30,12,05,,,,,,,3.6,1.7,3.2*3B
$GPGSV,3,1,12,12,69,165,36,25,64,298,32,02,48,047,22,05,43,130,23*78
$GPGSV,3,2,12,29,37,296,35,30,35,312,28,10,34,069,,04,12,050,*7B
$GPGSV,3,3,12,31,10,318,11,21,08,232,,09,05,195,,48,44,197,39*73
$GPRMC,210603.000,A,3749.9125,N,12215.2970,W,1.23,203.17,031110,,,D*75
$GPVTG,203.17,T,,M,1.23,N,2.3,K,D*0E
$GPGGA,210604.000,3749.9118,N,12215.2978,W,2,06,1.7,50.7,M,-25.0,M,1.8,0000*7A
$GPGSA,A,3,02,25,29,30,12,05,,,,,,,3.6,1.7,3.2*3B
$GPRMC,210604.000,A,3749.9118,N,12215.2978,W,1.01,219.65,031110,,,D*7A
$GPVTG,219.65,T,,M,1.01,N,1.9,K,D*09
$GPGGA,210605.000,3749.9111,N,12215.2982,W,2,06,1.7,49.3,M,-25.0,M,1.8,0000*7B
$GPGSA,A,3,02,25,29,30,12,05,,,,,,,3.6,1.7,3.2*3B
$GPRMC,210605.000,A,3749.9111,N,12215.2982,W,0.58,222.84,031110,,,D*7D
$GPVTG,222.84,T,,M,0.58,N,1.1,K,D*0B
$GPGGA,210606.000,3749.9110,N,12215.2982,W,2,06,1.7,47.8,M,-25.0,M,1.8,0000*7C
$GPGSA,A,3,02,25,29,30,12,05,,,,,,,3.6,1.7,3.2*3B
$GPRMC,210606.000,A,3749.9110,N,12215.2982,W,0.33,122.46,031110,,,D*7F
$GPVTG,122.46,T,,M,0.33,N,0.6,K,D*0D
$GPGGA,210607.000,3749.9102,N,12215.2988,W,2,06,1.7,46.6,M,-25.0,M,1.8,0000*7B
$GPGSA,A,3,02,25,29,30,12,05,,,,,,,3.6,1.7,3.2*3B
$GPRMC,210607.000,A,3749.9102,N,12215.2988,W,0.52,203.08,031110,,,D*7A
$GPVTG,203.08,T,,M,0.52,N,1.0,K,D*07
$GPGGA,210608.000,3749.9101,N,12215.2989,W,2,06,1.7,45.4,M,-25.0,M,1.8,0000*77
$GPGSA,A,3,02,25,29,30,12,05,,,,,,,3.6,1.7,3.2*3B
$GPGSV,3,1,12,12,69,165,35,25,64,298,34,02,48,047,26,05,43,130,28*72
$GPGSV,3,2,12,29,37,296,34,30,35,312,32,10,34,069,,04,12,050,*71
$GPGSV,3,3,12,31,10,318,28,21,08,232,,09,05,195,,48,44,197,38*78
$GPRMC,210608.000,A,3749.9101,N,12215.2989,W,0.28,232.58,031110,,,D*7D
$GPVTG,232.58,T,,M,0.28,N,0.5,K,D*09
$GPGGA,210609.000,3749.9100,N,12215.2988,W,2,06,1.7,44.9,M,-25.0,M,1.8,0000*7A
$GPGSA,A,3,02,25,29,30,12,05,,,,,,,3.6,1.7,3.2*3B
$GPRMC,210609.000,A,3749.9100,N,12215.2988,W,0.36,157.36,031110,,,D*7B
$GPVTG,157.36,T,,M,0.36,N,0.7,K,D*0C
$GPGGA,210610.000,3749.9099,N,12215.2988,W,2,06,1.7,43.7,M,-25.0,M,2.8,0000*79
$GPGSA,A,3,02,25,29,30,12,05,,,,,,,3.6,1.7,3.2*3B
$GPRMC,210610.000,A,3749.9099,N,12215.2988,W,0.98,191.98,031110,,,D*78
$GPVTG,191.98,T,,M,0.98,N,1.8,K,D*08
$GPGGA,210611.000,3749.9096,N,12215.2987,W,2,06,1.7,42.9,M,-25.0,M,1.8,0000*74
$GPGSA,A,3,02,25,29,30,12,05,,,,,,,3.6,1.7,3.2*3B
$GPRMC,210611.000,A,3749.9096,N,12215.2987,W,1.55,179.01,031110,,,D*7F
$GPVTG,179.01,T,,M,1.55,N,2.9,K,D*0C
$GPGGA,210612.000,3749.9095,N,12215.2987,W,2,06,1.7,42.5,M,-25.0,M,2.8,0000*7B
$GPGSA,A,3,02,25,29,30,12,05,,,,,,,3.6,1.7,3.2*3B
$GPRMC,210612.000,A,3749.9095,N,12215.2987,W,1.57,169.19,031110,,,D*75
$GPVTG,169.19,T,,M,1.57,N,2.9,K,D*06
$GPGGA,210613.000,3749.9093,N,12215.2987,W,2,06,1.7,41.3,M,-25.0,M,1.8,0000*7A
$GPGSA,A,3,02,25,29,30,12,05,,,,,,,3.6,1.7,3.2*3B
$GPGSV,3,1,12,12,69,165,32,25,64,298,34,02,48,047,38,05,43,130,21*73
$GPGSV,3,2,12,29,37,296,30,30,35,312,33,10,34,069,,04,12,050,*74
$GPGSV,3,3,12,31,10,318,37,21,08,232,,09,05,195,,48,44,197,31*7F
$GPRMC,210613.000,A,3749.9093,N,12215.2987,W,1.47,167.74,031110,,,D*76
$GPVTG,167.74,T,,M,1.47,N,2.7,K,D*0C
$GPGGA,210614.000,3749.9090,N,12215.2988,W,2,06,1.7,40.1,M,-25.0,M,2.8,0000*71
$GPGSA,A,3,02,25,29,30,12,05,,,,,,,3.6,1.7,3.2*3B
$GPRMC,210614.000,A,3749.9090,N,12215.2988,W,1.39,167.06,031110,,,D*71
$GPVTG,167.06,T,,M,1.39,N,2.6,K,D*01
$GPGGA,210615.000,3749.9089,N,12215.2989,W,2,06,1.7,39.5,M,-25.0,M,3.8,0000*72
$GPGSA,A,3,02,25,29,30,12,05,,,,,,,3.6,1.7,3.2*3B
$GPRMC,210615.000,A,3749.9089,N,12215.2989,W,1.40,171.50,031110,,,D*73
$GPVTG,171.50,T,,M,1.40,N,2.6,K,D*0B
$GPGGA,210616.000,3749.9091,N,12215.2991,W,2,06,1.7,39.8,M,-25.0,M,4.8,0000*7B
$GPGSA,A,3,02,25,29,30,12,05,,,,,,,3.6,1.7,3.2*3B
$GPRMC,210616.000,A,3749.9091,N,12215.2991,W,1.08,146.51,031110,,,D*79
$GPVTG,146.51,T,,M,1.08,N,2.0,K,D*04
$GPGGA,210617.000,3749.9093,N,12215.2991,W,2,06,1.7,39.8,M,-25.0,M,5.8,0000*79
$GPGSA,A,3,02,25,29,30,12,05,,,,,,,3.6,1.7,3.2*3B
$GPRMC,210617.000,A,3749.9093,N,12215.2991,W,1.01,118.46,031110,,,D*7E
$GPVTG,118.46,T,,M,1.01,N,1.9,K,D*0A
$GPGGA,210618.000,3749.9093,N,12215.2989,W,2,06,1.7,39.8,M,-25.0,M,6.8,0000*7C
$GPGSA,A,3,02,25,29,30,12,05,,,,,,,3.7,1.7,3.2*3A
$GPGSV,3,1,12,12,69,165,30,25,64,297,35,02,47,047,38,05,43,130,19*7B
$GPGSV,3,2,12,29,37,296,37,30,35,312,41,10,34,069,,04,12,050,*76
$GPGSV,3,3,12,31,10,318,42,21,08,232,18,09,04,194,,48,44,197,28*7C
$GPRMC,210618.000,A,3749.9093,N,12215.2989,W,1.49,119.21,031110,,,D*74
$GPGGA,210619.000,3749.9087,N,12215.2985,W,2,06,1.7,37.7,M,-25.0,M,7.8,0000*74
$GPGSA,A,3,02,25,29,30,12,05,,,,,,,3.7,1.7,3.2*3A
$GPRMC,210619.000,A,3749.9087,N,12215.2985,W,1.38,152.82,031110,,,D*7C
$GPVTG,152.82,T,,M,1.38,N,2.6,K,D*0A
$GPGGA,210620.000,3749.9082,N,12215.2983,W,2,06,1.7,37.1,M,-25.0,M,1.8,0000*7D
$GPGSA,A,3,02,25,29,30,12,05,,,,,,,3.7,1.7,3.3*3B
$GPRMC,210620.000,A,3749.9082,N,12215.2983,W,1.42,171.80,031110,,,D*7B
$GPVTG,171.80,T,,M,1.42,N,2.6,K,D*04
$GPGGA,210621.000,3749.9079,N,12215.2982,W,2,06,1.7,36.7,M,-25.0,M,1.8,0000*7E
$GPGSA,A,3,02,25,29,30,12,05,,,,,,,3.7,1.7,3.3*3B
$GPRMC,210621.000,A,3749.9079,N,12215.2982,W,1.10,164.97,031110,,,D*7A
$GPVTG,164.97,T,,M,1.10,N,2.0,K,D*07
$GPGGA,210622.000,3749.9074,N,12215.2981,W,2,06,1.7,36.2,M,-25.0,M,2.8,0000*75
$GPGSA,A,3,02,25,29,30,12,05,,,,,,,3.7,1.7,3.3*3B
$GPRMC,210622.000,A,3749.9074,N,12215.2981,W,1.53,171.10,031110,,,D*7B
$GPVTG,171.10,T,,M,1.53,N,2.8,K,D*03
$GPGGA,210623.000,3749.9069,N,12215.2979,W,2,06,1.7,35.6,M,-25.0,M,3.8,0000*79
$GPGSA,A,3,02,25,29,30,12,05,,,,,,,3.7,1.7,3.3*3B
$GPGSV,3,1,12,12,69,165,34,25,64,297,32,02,47,047,39,05,43,130,32*70
$GPGSV,3,2,12,29,37,296,31,30,35,312,32,10,34,069,,04,12,050,*74
$GPGSV,3,3,12,31,10,318,29,21,08,232,26,09,04,194,,48,44,197,28*7C
$GPRMC,210623.000,A,3749.9069,N,12215.2979,W,1.91,169.93,031110,,,D*7D
$GPVTG,169.93,T,,M,1.91,N,3.5,K,D*03
$GPGGA,210624.000,3749.9062,N,12215.2978,W,2,06,1.7,35.5,M,-25.0,M,4.8,0000*70
$GPGSA,A,3,02,25,29,30,12,05,,,,,,,3.7,1.7,3.3*3B
$GPRMC,210624.000,A,3749.9062,N,12215.2978,W,2.02,167.72,031110,,,D*78
$GPVTG,167.72,T,,M,2.02,N,3.7,K,D*09
$GPGGA,210625.000,3749.9054,N,12215.2978,W,2,06,1.7,35.1,M,-25.0,M,5.8,0000*71
$GPGSA,A,3,02,25,29,30,12,05,,,,,,,3.7,1.7,3.3*3B
$GPRMC,210625.000,A,3749.9054,N,12215.2978,W,1.83,159.81,031110,,,D*77
$GPVTG,159.81,T,,M,1.83,N,3.4,K,D*01
$GPGGA,210626.000,3749.9043,N,12215.2973,W,2,06,1.7,32.8,M,-25.0,M,6.8,0000*72
$GPGSA,A,3,02,25,29,30,12,05,,,,,,,3.7,1.7,3.3*3B
$GPRMC,210626.000,A,3749.9043,N,12215.2973,W,2.29,140.33,031110,,,D*7B
$GPVTG,140.33,T,,M,2.29,N,4.2,K,D*02
$GPGGA,210627.000,3749.9035,N,12215.2968,W,2,06,1.7,31.4,M,-25.0,M,7.8,0000*76
$GPGSA,A,3,02,25,29,30,12,05,,,,,,,3.7,1.7,3.3*3B
$GPRMC,210627.000,A,3749.9035,N,12215.2968,W,2.45,146.58,031110,,,D*70
$GPVTG,146.58,T,,M,2.45,N,4.5,K,D*04
$GPGGA,210628.000,3749.9029,N,12215.2963,W,2,06,1.7,30.7,M,-25.0,M,8.8,0000*72
$GPGSA,A,3,02,25,29,30,12,05,,,,,,,3.7,1.7,3.3*3B
$GPGSV,3,1,11,12,69,165,28,25,64,297,34,02,47,047,17,05,43,130,28*7F
$GPGSV,3,2,11,29,37,296,34,30,35,312,35,10,34,069,,04,12,050,*75
$GPGSV,3,3,11,31,10,318,33,21,08,232,22,09,04,194,*49
$GPRMC,210628.000,A,3749.9029,N,12215.2963,W,2.23,140.17,031110,,,D*74
$GPVTG,140.17,T,,M,2.23,N,4.1,K,D*0D
$GPGGA,210629.000,3749.9024,N,12215.2960,W,2,06,1.7,30.3,M,-25.0,M,9.8,0000*78
$GPGSA,A,3,02,25,29,30,12,05,,,,,,,3.7,1.7,3.3*3B
$GPRMC,210629.000,A,3749.9024,N,12215.2960,W,2.02,130.61,031110,,,D*7E
$GPVTG,130.61,T,,M,2.02,N,3.7,K,D*09
$GPGGA,210630.000,3749.9016,N,12215.2964,W,2,06,1.7,30.6,M,-25.0,M,10.8,0000*48
$GPGSA,A,3,02,25,29,30,12,05,,,,,,,3.7,1.7,3.3*3B
$GPRMC,210630.000,A,3749.9016,N,12215.2964,W,2.66,173.09,031110,,,D*78
$GPVTG,173.09,T,,M,2.66,N,4.9,K,D*0B
$GPGGA,210631.000,3749.9002,N,12215.2968,W,2,06,1.7,30.2,M,-25.0,M,11.8,0000*45
$GPGSA,A,3,02,25,29,30,12,05,,,,,,,3.7,1.7,3.3*3B
$GPRMC,210631.000,A,3749.9002,N,12215.2968,W,2.73,166.20,031110,,,D*7B
$GPVTG,166.20,T,,M,2.73,N,5.1,K,D*09
$GPGGA,210632.000,3749.8998,N,12215.2967,W,2,06,1.7,31.0,M,-25.0,M,12.8,0000*42
$GPGSA,A,3,02,25,29,30,12,05,,,,,,,3.7,1.7,3.3*3B
$GPRMC,210632.000,A,3749.8998,N,12215.2967,W,2.43,150.07,031110,,,D*7F
$GPVTG,150.07,T,,M,2.43,N,4.5,K,D*0F
$GPGGA,210633.000,3749.8996,N,12215.2958,W,2,05,2.8,30.4,M,-25.0,M,13.8,0000*4A
$GPGSA,A,3,02,25,29,30,12,,,,,,,,6.4,2.8,5.7*36
$GPGSV,3,1,11,12,69,165,29,25,64,297,34,02,47,047,20,05,43,130,18*79
$GPGSV,3,2,11,29,37,296,35,30,35,312,35,10,34,069,,04,12,050,*74
$GPGSV,3,3,11,31,10,318,35,21,08,232,13,09,04,194,*4D
$GPVTG,141.72,T,,M,2.92,N,5.4,K,D*01
$GPGGA,210634.000,3749.8987,N,12215.2954,W,2,05,2.8,29.6,M,-25.0,M,14.8,0000*4C
$GPGSA,A,3,02,25,29,30,12,,,,,,,,6.4,2.8,5.7*36
$GPRMC,210634.000,A,3749.8987,N,12215.2954,W,3.11,156.69,031110,,,D*7F
$GPVTG,156.69,T,,M,3.11,N,5.8,K,D*0B
$GPGGA,210635.000,3749.8979,N,12215.2954,W,2,06,1.7,29.4,M,-25.0,M,15.8,0000*40
$GPGSA,A,3,02,25,29,30,12,05,,,,,,,3.7,1.7,3.3*3B
$GPRMC,210635.000,A,3749.8979,N,12215.2954,W,3.04,158.45,031110,,,D*7B
$GPVTG,158.45,T,,M,3.04,N,5.6,K,D*01
$GPGGA,210636.000,3749.8973,N,12215.2955,W,2,06,1.7,30.3,M,-25.0,M,16.8,0000*44
$GPGSA,A,3,02,25,29,30,12,05,,,,,,,3.7,1.7,3.3*3B
$GPRMC,210636.000,A,3749.8973,N,12215.2955,W,2.76,144.17,031110,,,D*7D
$GPVTG,144.17,T,,M,2.76,N,5.1,K,D*08
$GPGGA,210637.000,3749.8963,N,12215.2957,W,2,06,1.7,29.8,M,-25.0,M,17.8,0000*44
$GPGSA,A,3,02,25,29,30,12,05,,,,,,,3.7,1.7,3.3*3B
$GPRMC,210637.000,A,3749.8963,N,12215.2957,W,2.87,170.58,031110,,,D*7D
$GPVTG,170.58,T,,M,2.87,N,5.3,K,D*08
$GPGGA,210638.000,3749.8952,N,12215.2953,W,1,06,1.7,27.9,M,-25.0,M,,0000*51
$GPGSA,A,3,02,25,29,30,12,05,,,,,,,3.7,1.7,3.3*3B
$GPGSV,3,1,11,12,69,165,28,25,64,297,27,02,47,047,20,05,43,130,19*7B
$GPGSV,3,2,11,29,37,296,29,30,35,312,32,10,34,069,,04,12,050,*7E
$GPGSV,3,3,11,31,10,318,33,21,08,232,15,09,04,194,*4D
$GPRMC,210638.000,A,3749.8952,N,12215.2953,W,2.48,159.14,031110,,,A*71
$GPVTG,159.14,T,,M,2.48,N,4.6,K,A*09
$GPGGA,210639.000,3749.8939,N,12215.2955,W,1,06,1.7,26.7,M,-25.0,M,,0000*54
$GPGSA,A,3,02,25,29,30,12,05,,,,,,,3.7,1.7,3.3*3B
$GPRMC,210639.000,A,3749.8939,N,12215.2955,W,2.67,158.98,031110,,,A*73
$GPVTG,158.98,T,,M,2.67,N,4.9,K,A*0E
$GPGGA,210640.000,3749.8928,N,12215.2957,W,1,06,1.7,25.6,M,-25.0,M,,0000*5A
$GPGSA,A,3,02,25,29,30,12,05,,,,,,,3.7,1.7,3.3*3B
$GPRMC,210640.000,A,3749.8928,N,12215.2957,W,2.51,158.11,031110,,,A*7B
$GPVTG,158.11,T,,M,2.51,N,4.7,K,A*04
$GPGGA,210641.000,3749.8924,N,12215.2947,W,1,06,1.7,25.3,M,-25.0,M,,0000*53
$GPGSA,A,3,02,25,29,30,12,05,,,,,,,3.7,1.7,3.3*3B
$GPRMC,210641.000,A,3749.8924,N,12215.2947,W,2.44,139.85,031110,,,A*79
$GPVTG,139.85,T,,M,2.44,N,4.5,K,A*08
$GPGGA,210642.000,3749.8921,N,12215.2941,W,1,06,1.7,25.2,M,-25.0,M,,0000*52
$GPGSA,A,3,02,25,29,30,12,05,,,,,,,3.7,1.7,3.3*3B
$GPRMC,210642.000,A,3749.8921,N,12215.2941,W,1.75,146.28,031110,,,A*77
$GPVTG,146.28,T,,M,1.75,N,3.2,K,A*06
$GPGGA,210643.000,3749.8916,N,12215.2937,W,1,06,1.7,26.6,M,-25.0,M,,0000*51
$GPGSA,A,3,02,25,29,30,12,05,,,,,,,3.7,1.7,3.3*3B
$GPGSV,3,1,11,12,69,165,30,25,64,297,31,02,47,047,22,05,43,130,27*7A
$GPGSV,3,2,11,29,37,296,27,30,35,312,22,10,34,069,,04,12,050,*71
$GPGSV,3,3,11,31,10,318,23,21,08,232,15,09,04,194,*4C
$GPRMC,210643.000,A,3749.8916,N,12215.2937,W,2.10,167.29,031110,,,A*71
$GPVTG,167.29,T,,M,2.10,N,3.9,K,A*0F
$GPGGA,210644.000,3749.8916,N,12215.2930,W,1,06,1.7,26.9,M,-25.0,M,,0000*5E
$GPGSA,A,3,02,25,29,30,12,05,,,,,,,3.7,1.7,3.3*3B
$GPRMC,210644.000,A,3749.8916,N,12215.2930,W,1.71,182.67,031110,,,A*74
$GPVTG,182.67,T,,M,1.71,N,3.2,K,A*01
$GPGGA,210645.000,3749.8912,N,12215.2925,W,1,06,1.7,27.1,M,-25.0,M,,0000*56
$GPGSA,A,3,02,25,29,30,12,05,,,,,,,3.7,1.7,3.3*3B
$GPRMC,210645.000,A,3749.8912,N,12215.2925,W,2.10,183.15,031110,,,A*75
$GPVTG,183.15,T,,M,2.10,N,3.9,K,A*0A
$GPGGA,210646.000,3749.8907,N,12215.2927,W,1,06,1.7,27.3,M,-25.0,M,,0000*51
$GPGSA,A,3,02,25,29,30,12,05,,,,,,,3.7,1.7,3.3*3B
$GPRMC,210646.000,A,3749.8907,N,12215.2927,W,2.37,186.60,031110,,,A*72
$GPVTG,186.60,T,,M,2.37,N,4.4,K,A*02
$GPGGA,210647.000,3749.8901,N,12215.2925,W,1,06,1.7,28.1,M,-25.0,M,,0000*59
$GPGSA,A,3,02,25,29,30,12,05,,,,,,,3.7,1.7,3.3*3B
$GPRMC,210647.000,A,3749.8901,N,12215.2925,W,2.45,186.91,031110,,,A*7C
$GPVTG,186.91,T,,M,2.45,N,4.5,K,A*08
$GPGGA,210648.000,3749.8895,N,12215.2923,W,1,06,1.7,29.5,M,-25.0,M,,0000*59
$GPGSA,A,3,02,25,29,30,12,05,,,,,,,3.7,1.7,3.3*3B
$GPGSV,3,1,11,12,69,165,31,25,64,297,30,02,47,047,40,05,43,130,30*78
$GPGSV,3,2,11,29,37,296,27,30,35,312,27,10,34,069,,04,12,050,*74
$GPGSV,3,3,11,31,10,318,23,21,08,232,16,09,04,194,*4F
$GPVTG,184.92,T,,M,2.49,N,4.6,K,A*06
$GPGGA,210649.000,3749.8891,N,12215.2925,W,1,06,1.7,30.3,M,-25.0,M,,0000*54
$GPGSA,A,3,02,25,29,30,12,05,,,,,,,3.7,1.7,3.3*3B
$GPRMC,210649.000,A,3749.8891,N,12215.2925,W,2.03,193.75,031110,,,A*76
$GPVTG,193.75,T,,M,2.03,N,3.8,K,A*0E
$GPGGA,210650.000,3749.8892,N,12215.2928,W,1,06,1.7,29.7,M,-25.0,M,,0000*5E
$GPGSA,A,3,02,25,29,30,12,05,,,,,,,3.7,1.7,3.3*3B
$GPRMC,210650.000,A,3749.8892,N,12215.2928,W,1.54,205.71,031110,,,A*79
$GPVTG,205.71,T,,M,1.54,N,2.9,K,A*07
$GPGGA,210651.000,3749.8889,N,12215.2932,W,1,06,1.7,30.4,M,-25.0,M,,0000*55
$GPGSA,A,3,02,25,29,30,12,05,,,,,,,3.7,1.7,3.3*3B
$GPRMC,210651.000,A,3749.8889,N,12215.2932,W,1.47,219.92,031110,,,A*7B
$GPVTG,219.92,T,,M,1.47,N,2.7,K,A*0B
$GPGGA,210652.000,3749.8891,N,12215.2935,W,1,06,1.7,33.8,M,-25.0,M,,0000*57
$GPGSA,A,3,02,25,29,30,12,05,,,,,,,3.7,1.7,3.3*3B
$GPRMC,210652.000,A,3749.8891,N,12215.2935,W,1.43,228.99,031110,,,A*7B
$GPVTG,228.99,T,,M,1.43,N,2.6,K,A*07
$GPGGA,210653.000,3749.8894,N,12215.2939,W,1,06,1.7,36.7,M,-25.0,M,,0000*55
$GPGSA,A,3,02,25,29,30,12,05,,,,,,,3.7,1.7,3.3*3B
$GPGSV,3,1,11,12,69,165,30,25,64,297,30,02,47,047,40,05,43,130,21*79
$GPGSV,3,2,11,29,37,296,27,30,35,312,27,10,34,069,31,04,12,050,*76
$GPGSV,3,3,11,31,10,318,19,21,08,232,17,09,04,194,*47
$GPRMC,210653.000,A,3749.8894,N,12215.2939,W,0.91,231.14,031110,,,A*70
$GPVTG,231.14,T,,M,0.91,N,1.7,K,A*06
$GPGGA,210654.000,3749.8895,N,12215.2939,W,1,06,1.7,39.7,M,-25.0,M,,0000*5C
$GPGSA,A,3,02,25,29,30,12,05,,,,,,,3.7,1.7,3.3*3B
$GPRMC,210654.000,A,3749.8895,N,12215.2939,W,1.20,190.93,031110,,,A*7A
$GPVTG,190.93,T,,M,1.20,N,2.2,K,A*0C
$GPGGA,210655.000,3749.8891,N,12215.2938,W,1,06,1.7,41.6,M,-25.0,M,,0000*56
$GPGSA,A,3,02,25,29,30,12,05,,,,,,,3.7,1.7,3.3*3B
$GPRMC,210655.000,A,3749.8891,N,12215.2938,W,1.26,186.44,031110,,,A*75
$GPVTG,186.44,T,,M,1.26,N,2.3,K,A*06
$GPGGA,210656.000,3749.8887,N,12215.2936,W,1,06,1.7,42.9,M,-25.0,M,,0000*50
$GPGSA,A,3,02,25,29,30,12,05,,,,,,,3.7,1.7,3.3*3B
$GPRMC,210656.000,A,3749.8887,N,12215.2936,W,1.50,178.17,031110,,,A*79
$GPVTG,178.17,T,,M,1.50,N,2.8,K,A*0B
$GPGGA,210657.000,3749.8874,N,12215.2933,W,1,06,1.7,40.9,M,-25.0,M,,0000*5A
$GPGSA,A,3,02,25,29,30,12,05,,,,,,,3.7,1.7,3.3*3B
$GPRMC,210657.000,A,3749.8874,N,12215.2933,W,2.27,181.45,031110,,,A*73
$GPVTG,181.45,T,,M,2.27,N,4.2,K,A*05
$GPGGA,210658.000,3749.8863,N,12215.2933,W,1,06,1.7,39.6,M,-25.0,M,,0000*52
$GPGSA,A,3,02,25,29,30,12,05,,,,,,,3.7,1.7,3.3*3B
$GPGSV,3,1,12,12,69,165,30,25,64,297,31,02,47,047,30,05,43,130,30*7C
$GPGSV,3,2,12,29,37,296,27,30,35,312,30,10,34,069,18,04,12,050,*78
$GPGSV,3,3,12,31,10,318,18,21,08,232,18,09,04,194,,48,44,197,28*73
$GPRMC,210658.000,A,3749.8863,N,12215.2933,W,1.76,198.83,031110,,,A*7F
$GPVTG,198.83,T,,M,1.76,N,3.3,K,A*06
$GPGGA,210659.000,3749.8860,N,12215.2934,W,1,06,1.7,39.4,M,-25.0,M,,0000*55
$GPGSA,A,3,02,25,29,30,12,05,,,,,,,3.7,1.7,3.3*3B
$GPRMC,210659.000,A,3749.8860,N,12215.2934,W,0.48,225.00,031110,,,A*78
$GPVTG,225.00,T,,M,0.48,N,0.9,K,A*0D
$GPGGA,210700.000,3749.8862,N,12215.2936,W,1,06,1.7,39.7,M,-25.0,M,,0000*5B
$GPGSA,A,3,02,25,29,30,12,05,,,,,,,3.7,1.7,3.3*3B
$GPRMC,210700.000,A,3749.8862,N,12215.2936,W,0.05,349.08,031110,,,A*7F
$GPVTG,349.08,T,,M,0.05,N,0.1,K,A*0F
$GPGGA,210701.000,3749.8865,N,12215.2937,W,1,06,1.7,40.2,M,-25.0,M,,0000*57
$GPGSA,A,3,02,25,29,30,12,05,,,,,,,3.7,1.7,3.3*3B
$GPRMC,210701.000,A,3749.8865,N,12215.2937,W,0.21,3.67,031110,,,A*7A
$GPVTG,3.67,T,,M,0.21,N,0.4,K,A*08
$GPGGA,210702.000,3749.8868,N,12215.2938,W,1,06,1.7,40.7,M,-25.0,M,,0000*53
$GPGSA,A,3,02,25,29,30,12,05,,,,,,,3.7,1.7,3.3*3B
$GPRMC,210702.000,A,3749.8868,N,12215.2938,W,0.24,14.74,031110,,,A*4A
$GPVTG,14.74,T,,M,0.24,N,0.4,K,A*39
$GPGGA,210703.000,3749.8871,N,12215.2938,W,1,06,1.7,41.1,M,-25.0,M,,0000*5D
$GPGSA,A,3,02,25,29,30,12,05,,,,,,,3.7,1.7,3.3*3B
$GPGSV,3,1,12,12,69,165,30,25,64,297,37,02,47,047,31,05,43,130,28*72
$GPGSV,3,2,12,29,37,296,27,30,35,312,35,10,34,069,26,04,12,050,*70
$GPGSV,3,3,12,31,10,318,20,21,08,232,23,09,04,194,,48,44,197,26*7E
$GPVTG,11.27,T,,M,0.22,N,0.4,K,A*3C
$GPGGA,210704.000,3749.8872,N,12215.2939,W,1,06,1.7,41.1,M,-25.0,M,,0000*58
$GPGSA,A,3,02,25,29,30,12,05,,,,,,,3.7,1.7,3.3*3B
$GPRMC,210704.000,A,3749.8872,N,12215.2939,W,0.19,7.50,031110,,,A*7C
$GPVTG,7.50,T,,M,0.19,N,0.3,K,A*04
$GPGGA,210705.000,3749.8874,N,12215.2941,W,1,06,1.7,41.2,M,-25.0,M,,0000*53
$GPGSA,A,3,02,25,29,30,12,05,,,,,,,3.7,1.7,3.3*3B
$GPRMC,210705.000,A,3749.8874,N,12215.2941,W,0.21,259.47,031110,,,A*70
$GPVTG,259.47,T,,M,0.21,N,0.4,K,A*07
$GPGGA,210706.000,3749.8877,N,12215.2941,W,1,06,1.7,41.3,M,-25.0,M,,0000*52
$GPGSA,A,3,02,25,29,30,12,05,,,,,,,3.7,1.7,3.3*3B
$GPRMC,210706.000,A,3749.8877,N,12215.2941,W,0.66,6.49,031110,,,A*75
$GPVTG,6.49,T,,M,0.66,N,1.2,K,A*05
$GPGGA,210707.000,3749.8877,N,12215.2947,W,2,06,1.7,41.5,M,-25.0,M,0.8,0000*76
$GPGSA,A,3,02,25,29,30,12,05,,,,,,,3.7,1.7,3.3*3B
$GPRMC,210707.000,A,3749.8877,N,12215.2947,W,1.28,349.88,031110,,,D*79
$GPVTG,349.88,T,,M,1.28,N,2.4,K,D*0B
$GPGGA,210708.000,3749.8877,N,12215.2953,W,2,06,1.7,41.6,M,-25.0,M,1.8,0000*7E
$GPGSA,A,3,02,25,29,30,12,05,,,,,,,3.7,1.7,3.3*3B
$GPGSV,3,1,12,12,69,165,31,25,64,297,37,02,47,047,22,05,43,130,25*7C
$GPGSV,3,2,12,29,37,296,28,30,35,312,32,10,34,069,19,04,12,050,*74
$GPGSV,3,3,12,31,10,318,10,21,08,232,18,09,04,194,,48,44,197,26*75
$GPRMC,210708.000,A,3749.8877,N,12215.2953,W,0.96,302.81,031110,,,D*71
$GPVTG,302.81,T,,M,0.96,N,1.8,K,D*06
$GPGGA,210709.000,3749.8877,N,12215.2956,W,2,06,1.7,41.9,M,-25.0,M,2.8,0000*76
$GPGSA,A,3,02,25,29,30,12,05,,,,,,,3.7,1.7,3.3*3B
$GPRMC,210709.000,A,3749.8877,N,12215.2956,W,0.47,51.25,031110,,,D*42
$GPVTG,51.25,T,,M,0.47,N,0.9,K,D*31
$GPGGA,210710.000,3749.8881,N,12215.2954,W,2,06,1.7,42.9,M,-25.0,M,3.8,0000*77
$GPGSA,A,3,02,25,29,30,12,05,,,,,,,3.7,1.7,3.3*3B
$GPRMC,210710.000,A,3749.8881,N,12215.2954,W,0.50,105.29,031110,,,D*7B
$GPVTG,105.29,T,,M,0.50,N,0.9,K,D*0B
$GPGGA,210711.000,3749.8883,N,12215.2955,W,2,06,1.7,44.0,M,-25.0,M,4.8,0000*7D
$GPGSA,A,3,02,25,29,30,12,05,,,,,,,3.7,1.7,3.3*3B
$GPRMC,210711.000,A,3749.8883,N,12215.2955,W,0.29,238.47,031110,,,D*72
$GPVTG,238.47,T,,M,0.29,N,0.5,K,D*0C
$GPGGA,210712.000,3749.8881,N,12215.2956,W,2,05,2.7,43.9,M,-25.0,M,5.8,0000*70
$GPGSA,A,3,02,25,29,30,12,,,,,,,,6.4,2.7,5.8*36
$GPRMC,210712.000,A,3749.8881,N,12215.2956,W,0.13,162.69,031110,,,D*79
$GPVTG,162.69,T,,M,0.13,N,0.2,K,D*02
$GPGGA,210713.000,3749.8879,N,12215.2958,W,2,05,2.7,43.6,M,-25.0,M,6.8,0000*74
$GPGSA,A,3,02,25,29,30,12,,,,,,,,6.4,2.7,5.8*36
$GPGSV,3,1,11,12,69,165,30,25,64,297,38,02,47,047,30,05,43,130,18*7C
$GPGSV,3,2,11,29,37,296,29,30,35,312,41,10,34,069,19,04,12,050,*72
$GPGSV,3,3,11,31,10,318,22,21,08,232,22,09,04,194,*49
$GPRMC,210713.000,A,3749.8879,N,12215.2958,W,0.15,137.99,031110,,,D*78
$GPVTG,137.99,T,,M,0.15,N,0.3,K,D*0A
$GPGGA,210714.000,3749.8882,N,12215.2961,W,2,06,1.7,45.1,M,-25.0,M,7.8,0000*7D
$GPGSA,A,3,02,25,29,30,12,05,,,,,,,3.7,1.7,3.3*3B
$GPRMC,210714.000,A,3749.8882,N,12215.2961,W,0.09,145.40,031110,,,D*7D
$GPVTG,145.40,T,,M,0.09,N,0.2,K,D*07
$GPGGA,210715.000,3749.8883,N,12215.2962,W,2,06,1.7,45.6,M,-25.0,M,8.8,0000*76
$GPGSA,A,3,02,25,29,30,12,05,,,,,,,3.7,1.7,3.3*3B
$GPRMC,210715.000,A,3749.8883,N,12215.2962,W,0.13,314.74,031110,,,D*74
$GPVTG,314.74,T,,M,0.13,N,0.2,K,D*0D
$GPGGA,210716.000,3749.8885,N,12215.2964,W,2,06,1.7,46.2,M,-25.0,M,9.8,0000*73
$GPGSA,A,3,02,25,29,30,12,05,,,,,,,3.7,1.7,3.3*3B
$GPRMC,210716.000,A,3749.8885,N,12215.2964,W,0.34,341.49,031110,,,D*7C
$GPVTG,341.49,T,,M,0.34,N,0.6,K,D*02
$GPGGA,210717.000,3749.8884,N,12215.2965,W,2,06,1.7,45.8,M,-25.0,M,10.8,0000*43
$GPGSA,A,3,02,25,29,30,12,05,,,,,,,3.7,1.7,3.3*3B
$GPRMC,210717.000,A,3749.8884,N,12215.2965,W,0.53,266.98,031110,,,D*74
$GPVTG,266.98,T,,M,0.53,N,1.0,K,D*0C
$GPGGA,210718.000,3749.8878,N,12215.2974,W,2,06,1.7,45.5,M,-25.0,M,11.8,0000*43
$GPGSA,A,3,02,25,29,30,12,05,,,,,,,3.7,1.7,3.3*3B
$GPGSV,3,1,12,12,69,165,32,25,64,297,38,02,47,047,21,05,43,130,22*74
$GPGSV,3,2,12,29,37,296,34,30,35,312,32,10,34,069,19,04,12,050,*79
$GPRMC,210718.000,A,3749.8878,N,12215.2974,W,1.69,245.86,031110,,,D*7E
$GPVTG,245.86,T,,M,1.69,N,3.1,K,D*09
$GPGGA,210719.000,3749.8872,N,12215.2985,W,2,06,1.7,45.1,M,-25.0,M,12.8,0000*41
$GPGSA,A,3,02,25,29,30,12,05,,,,,,,3.7,1.7,3.3*3B
$GPRMC,210719.000,A,3749.8872,N,12215.2985,W,1.88,256.03,031110,,,D*7B
$GPVTG,256.03,T,,M,1.88,N,3.5,K,D*0D
$GPGGA,210720.000,3749.8871,N,12215.2988,W,2,06,1.7,44.7,M,-25.0,M,13.8,0000*43
$GPGSA,A,3,02,25,29,30,12,05,,,,,,,3.7,1.7,3.3*3B
$GPRMC,210720.000,A,3749.8871,N,12215.2988,W,0.65,276.90,031110,,,D*75
$GPVTG,276.90,T,,M,0.65,N,1.2,K,D*02
$GPGGA,210721.000,3749.8882,N,12215.2982,W,2,06,1.7,46.3,M,-25.0,M,14.8,0000*45
$GPGSA,A,3,02,25,29,30,12,05,,,,,,,3.7,1.7,3.3*3B
$GPRMC,210721.000,A,3749.8882,N,12215.2982,W,0.30,332.96,031110,,,D*75
$GPVTG,332.96,T,,M,0.30,N,0.6,K,D*00
$GPGGA,210722.000,3749.8888,N,12215.2979,W,2,06,1.7,47.4,M,-25.0,M,1.8,0000*7A
$GPGSA,A,3,02,25,29,30,12,05,,,,,,,3.7,1.7,3.3*3B
$GPRMC,210722.000,A,3749.8888,N,12215.2979,W,0.20,9.61,031110,,,D*7A
$GPVTG,9.61,T,,M,0.20,N,0.4,K,D*00
$GPGGA,210723.000,3749.8892,N,12215.2972,W,2,06,1.7,47.3,M,-25.0,M,2.8,0000*7F
$GPGSA,A,3,02,25,29,30,12,05,,,,,,,3.7,1.7,3.3*3B
$GPGSV,3,1,12,12,69,165,32,25,64,297,38,02,47,047,27,05,43,130,18*7B
$GPGSV,3,2,12,29,37,296,29,30,35,312,35,10,34,069,20,04,12,050,*78
$GPGSV,3,3,12,31,10,318,17,21,08,232,19,09,04,194,,48,44,197,24*71
$GPRMC,210723.000,A,3749.8892,N,12215.2972,W,0.81,72.11,031110,,,D*4B
$GPVTG,72.11,T,,M,0.81,N,1.5,K,D*30
$GPGGA,210724.000,3749.8893,N,12215.2967,W,2,06,1.7,46.5,M,-25.0,M,3.8,0000*7B
$GPGSA,A,3,02,25,29,30,12,05,,,,,,,3.7,1.7,3.3*3B
$GPRMC,210724.000,A,3749.8893,N,12215.2967,W,0.26,26.23,031110,,,D*44
$GPVTG,26.23,T,,M,0.26,N,0.5,K,D*3C
$GPGGA,210725.000,3749.8895,N,12215.2965,W,2,06,1.7,46.5,M,-25.0,M,4.8,0000*79
$GPGSA,A,3,02,25,29,30,12,05,,,,,,,3.7,1.7,3.3*3B
$GPRMC,210725.000,A,3749.8895,N,12215.2965,W,0.21,102.39,031110,,,D*7A
$GPVTG,102.39,T,,M,0.21,N,0.4,K,D*06
$GPGGA,210726.000,3749.8895,N,12215.2963,W,2,06,1.7,46.1,M,-25.0,M,5.8,0000*79
$GPGSA,A,3,02,25,29,30,12,05,,,,,,,3.7,1.7,3.3*3B
$GPRMC,210726.000,A,3749.8895,N,12215.2963,W,0.22,82.47,031110,,,D*4C
$GPVTG,82.47,T,,M,0.22,N,0.4,K,D*35
$GPGGA,210727.000,3749.8897,N,12215.2962,W,2,06,1.7,46.1,M,-25.0,M,6.8,0000*78
$GPGSA,A,3,02,25,29,30,12,05,,,,,,,3.7,1.7,3.3*3B
$GPRMC,210727.000,A,3749.8897,N,12215.2962,W,0.20,58.11,031110,,,D*48
$GPVTG,58.11,T,,M,0.20,N,0.4,K,D*33
$GPGGA,210728.000,3749.8896,N,12215.2959,W,2,06,1.7,44.8,M,-25.0,M,7.8,0000*74
$GPGSA,A,3,02,25,29,30,12,05,,,,,,,3.7,1.7,3.3*3B
$GPGSV,3,1,12,12,69,165,32,25,64,297,38,02,47,047,28,05,43,130,23*7C
$GPGSV,3,2,12,29,37,296,29,30,35,312,33,10,34,069,24,04,12,050,*7A
$GPGSV,3,3,12,31,10,318,17,21,08,232,19,09,04,194,,48,44,197,32*76
$GPRMC,210728.000,A,3749.8896,N,12215.2959,W,0.64,27.76,031110,,,D*47
$GPVTG,27.76,T,,M,0.64,N,1.2,K,D*3D
$GPGGA,210729.000,3749.8898,N,12215.2957,W,2,06,1.7,44.3,M,-25.0,M,8.8,0000*71
$GPGSA,A,3,02,25,29,30,12,05,,,,,,,3.7,1.7,3.3*3B
$GPRMC,210729.000,A,3749.8898,N,12215.2957,W,1.10,17.24,031110,,,D*40
$GPVTG,17.24,T,,M,1.10,N,2.0,K,D*3A
$GPGGA,210730.000,3749.8902,N,12215.2951,W,2,06,1.7,44.4,M,-25.0,M,9.8,0000*7B
$GPGSA,A,3,02,25,29,30,12,05,,,,,,,3.7,1.7,3.3*3B
$GPRMC,210730.000,A,3749.8902,N,12215.2951,W,1.10,31.85,031110,,,D*43
$GPVTG,31.85,T,,M,1.10,N,2.0,K,D*35
$GPGGA,210731.000,3749.8905,N,12215.2954,W,2,06,1.7,46.0,M,-25.0,M,1.8,0000*76
$GPGSA,A,3,02,25,29,30,12,05,,,,,,,3.7,1.7,3.3*3B
$GPRMC,210731.000,A,3749.8905,N,12215.2954,W,0.74,22.36,031110,,,D*49
$GPVTG,22.36,T,,M,0.74,N,1.4,K,D*3B
$GPGGA,210732.000,3749.8910,N,12215.2956,W,2,06,1.7,47.1,M,-25.0,M,1.8,0000*73
$GPGSA,A,3,02,25,29,30,12,05,,,,,,,3.7,1.7,3.3*3B
$GPRMC,210732.000,A,3749.8910,N,12215.2956,W,0.88,26.14,031110,,,D*4B
$GPVTG,26.14,T,,M,0.88,N,1.6,K,D*3E
$GPGGA,210733.000,3749.8916,N,12215.2959,W,2,06,1.7,48.6,M,-25.0,M,2.8,0000*70
$GPGSA,A,3,02,25,29,30,12,05,,,,,,,3.7,1.7,3.3*3B
$GPGSV,3,1,12,12,69,165,32,25,64,297,37,02,47,047,28,05,43,130,23*73
$GPGSV,3,2,12,29,37,296,36,30,35,312,37,10,34,069,23,04,12,050,*77
$GPGSV,3,3,12,31,10,318,17,21,08,232,19,09,04,194,,48,44,197,30*74
$GPRMC,210733.000,A,3749.8916,N,12215.2959,W,0.60,5.67,031110,,,D*70
$GPVTG,5.67,T,,M,0.60,N,1.1,K,D*0A
$GPGGA,210734.000,3749.8917,N,12215.2959,W,2,06,1.7,48.9,M,-25.0,M,3.8,0000*78
$GPGSA,A,3,02,25,29,30,12,05,,,,,,,3.7,1.7,3.4*3C
$GPRMC,210734.000,A,3749.8917,N,12215.2959,W,0.64,15.37,031110,,,D*46
$GPVTG,15.37,T,,M,0.64,N,1.2,K,D*39
$GPGGA,210735.000,3749.8913,N,12215.2957,W,2,06,1.7,46.9,M,-25.0,M,4.8,0000*7A
$GPGSA,A,3,02,25,29,30,12,05,,,,,,,3.7,1.7,3.4*3C
$GPRMC,210735.000,A,3749.8913,N,12215.2957,W,0.31,354.64,031110,,,D*7D
$GPVTG,354.64,T,,M,0.31,N,0.6,K,D*0C
$GPGGA,210736.000,3749.8913,N,12215.2959,W,2,06,1.7,46.0,M,-25.0,M,5.8,0000*7F
$GPGSA,A,3,02,25,29,30,12,05,,,,,,,3.7,1.7,3.4*3C
$GPRMC,210736.000,A,3749.8913,N,12215.2959,W,0.17,127.49,031110,,,D*7D
$GPVTG,127.49,T,,M,0.17,N,0.3,K,D*04
$GPGGA,210737.000,3749.8911,N,12215.2959,W,2,06,1.7,45.7,M,-25.0,M,1.8,0000*7C
$GPGSA,A,3,02,25,29,30,12,05,,,,,,,3.7,1.7,3.4*3C
$GPRMC,210737.000,A,3749.8911,N,12215.2959,W,0.28,99.42,031110,,,D*4D
$GPVTG,99.42,T,,M,0.28,N,0.5,K,D*31
$GPGGA,210738.000,3749.8906,N,12215.2961,W,2,06,1.7,43.0,M,-25.0,M,1.8,0000*7F
$GPGSA,A,3,02,25,29,30,12,05,,,,,,,3.7,1.7,3.4*3C
$GPGSV,3,1,12,12,69,165,33,25,64,297,35,02,47,047,23,05,43,130,22*7A
$GPGSV,3,2,12,29,37,296,29,30,35,312,30,10,34,069,26,04,12,050,*7B
$GPGSV,3,3,12,31,10,318,18,21,08,232,19,09,04,194,,48,44,197,36*7D
$GPRMC,210738.000,A,3749.8906,N,12215.2961,W,1.06,306.84,031110,,,D*7D
$GPGGA,210739.000,3749.8906,N,12215.2972,W,2,06,1.7,42.3,M,-25.0,M,1.8,0000*7E
$GPGSA,A,3,02,25,29,30,12,05,,,,,,,3.8,1.7,3.4*33
$GPRMC,210739.000,A,3749.8906,N,12215.2972,W,1.97,297.79,031110,,,D*7D
$GPVTG,297.79,T,,M,1.97,N,3.6,K,D*00
$GPGGA,210740.000,3749.8908,N,12215.2979,W,2,06,1.7,41.4,M,-25.0,M,2.8,0000*72
$GPGSA,A,3,02,25,29,30,12,05,,,,,,,3.8,1.7,3.4*33
$GPRMC,210740.000,A,3749.8908,N,12215.2979,W,2.02,317.90,031110,,,D*77
$GPVTG,317.90,T,,M,2.02,N,3.7,K,D*00
$GPGGA,210741.000,3749.8910,N,12215.2985,W,2,06,1.7,40.1,M,-25.0,M,3.8,0000*7C
$GPGSA,A,3,02,25,29,30,12,05,,,,,,,3.8,1.7,3.4*33
$GPRMC,210741.000,A,3749.8910,N,12215.2985,W,1.85,321.03,031110,,,D*7F
$GPVTG,321.03,T,,M,1.85,N,3.4,K,D*00
$GPGGA,210742.000,3749.8913,N,12215.2990,W,2,06,1.7,38.7,M,-25.0,M,4.8,0000*76
$GPGSA,A,3,02,25,29,30,12,05,,,,,,,3.8,1.7,3.4*33
$GPRMC,210742.000,A,3749.8913,N,12215.2990,W,1.79,329.74,031110,,,D*70
$GPVTG,329.74,T,,M,1.79,N,3.3,K,D*0C
$GPGGA,210743.000,3749.8918,N,12215.2998,W,2,06,1.7,39.1,M,-25.0,M,5.8,0000*72
$GPGSA,A,3,02,25,29,30,12,05,,,,,,,3.8,1.7,3.4*33
$GPGSV,3,1,12,12,69,165,33,25,64,297,35,02,47,047,25,05,43,130,23*7D
$GPGSV,3,2,12,29,37,296,34,30,35,312,36,10,34,069,22,04,12,050,*75
$GPGSV,3,3,12,31,10,318,18,21,08,232,19,09,04,194,,48,44,197,31*7A
$GPRMC,210743.000,A,3749.8918,N,12215.2998,W,1.87,323.30,031110,,,D*79
$GPVTG,323.30,T,,M,1.87,N,3.5,K,D*01
$GPGGA,210744.000,3749.8921,N,12215.3001,W,2,06,1.7,37.8,M,-25.0,M,6.8,0000*73
$GPGSA,A,3,02,25,29,30,12,05,,,,,,,3.8,1.7,3.4*33
$GPRMC,210744.000,A,3749.8921,N,12215.3001,W,1.65,315.73,031110,,,D*72
$GPVTG,315.73,T,,M,1.65,N,3.1,K,D*0B
$GPGGA,210745.000,3749.8923,N,12215.3003,W,2,06,1.7,37.1,M,-25.0,M,7.8,0000*7A
$GPGSA,A,3,02,25,29,30,12,05,,,,,,,3.8,1.7,3.4*33
$GPRMC,210745.000,A,3749.8923,N,12215.3003,W,0.50,36.36,031110,,,D*47
$GPVTG,36.36,T,,M,0.50,N,0.9,K,D*34
$GPGGA,210746.000,3749.8921,N,12215.3000,W,2,06,1.7,36.3,M,-25.0,M,8.8,0000*74
$GPGSA,A,3,02,25,29,30,12,05,,,,,,,3.8,1.7,3.4*33
$GPRMC,210746.000,A,3749.8921,N,12215.3000,W,1.34,141.56,031110,,,D*71
$GPVTG,141.56,T,,M,1.34,N,2.5,K,D*0E
$GPGGA,210747.000,3749.8917,N,12215.2996,W,2,06,1.7,35.3,M,-25.0,M,9.8,0000*75
$GPGSA,A,3,02,25,29,30,12,05,,,,,,,3.8,1.7,3.4*33
$GPRMC,210747.000,A,3749.8917,N,12215.2996,W,1.83,160.11,031110,,,D*7E
$GPVTG,160.11,T,,M,1.83,N,3.4,K,D*02
$GPGGA,210748.000,3749.8911,N,12215.2992,W,2,06,1.7,34.2,M,-25.0,M,10.8,0000*40
$GPGSA,A,3,02,25,29,30,12,05,,,,,,,3.8,1.7,3.4*33
$GPGSV,3,1,11,12,69,165,32,25,64,297,36,02,47,047,35,05,43,130,30*7F
$GPGSV,3,2,11,29,37,296,27,30,35,312,30,10,34,069,22,04,12,050,*72
$GPGSV,3,3,11,31,10,318,22,21,08,232,18,09,04,194,*40
$GPRMC,210748.000,A,3749.8911,N,12215.2992,W,2.05,163.73,031110,,,D*79
$GPVTG,163.73,T,,M,2.05,N,3.8,K,D*04
$GPGGA,210749.000,3749.8910,N,12215.2990,W,2,06,1.7,34.8,M,-25.0,M,11.8,0000*49
$GPGSA,A,3,02,25,29,30,12,05,,,,,,,3.8,1.7,3.4*33
$GPRMC,210749.000,A,3749.8910,N,12215.2990,W,2.13,166.39,031110,,,D*77
$GPVTG,166.39,T,,M,2.13,N,3.9,K,D*09
$GPGGA,210750.000,3749.8905,N,12215.2986,W,2,06,1.7,34.1,M,-25.0,M,12.8,0000*48
$GPGSA,A,3,02,25,29,30,12,05,,,,,,,3.8,1.7,3.4*33
$GPRMC,210750.000,A,3749.8905,N,12215.2986,W,2.26,167.57,031110,,,D*73
$GPVTG,167.57,T,,M,2.26,N,4.2,K,D*0A
$GPGGA,210751.000,3749.8901,N,12215.2984,W,2,06,1.7,34.5,M,-25.0,M,13.8,0000*4A
$GPGSA,A,3,02,25,29,30,12,05,,,,,,,3.8,1.7,3.4*33
$GPRMC,210751.000,A,3749.8901,N,12215.2984,W,2.42,166.81,031110,,,D*7C
$GPVTG,166.81,T,,M,2.42,N,4.5,K,D*05
$GPGGA,210752.000,3749.8894,N,12215.2982,W,2,06,1.7,34.2,M,-25.0,M,14.8,0000*42
$GPGSA,A,3,02,25,29,30,12,05,,,,,,,3.8,1.7,3.4*33
$GPRMC,210752.000,A,3749.8894,N,12215.2982,W,2.41,174.06,031110,,,D*7B
$GPVTG,174.06,T,,M,2.41,N,4.5,K,D*0A
$GPGGA,210753.000,3749.8890,N,12215.2979,W,2,06,1.7,34.5,M,-25.0,M,15.8,0000*45
$GPGSA,A,3,02,25,29,30,12,05,,,,,,,3.8,1.7,3.4*33
$GPGSV,3,1,11,12,69,165,31,25,64,297,35,02,47,047,37,05,43,130,22*7E
$GPGSV,3,2,11,29,37,296,28,30,35,312,32,10,34,069,32,04,12,050,*7E
$GPRMC,210753.000,A,3749.8890,N,12215.2979,W,2.24,176.46,031110,,,D*7F
$GPVTG,176.46,T,,M,2.24,N,4.1,K,D*0B
$GPGGA,210754.000,3749.8888,N,12215.2979,W,2,06,1.7,34.9,M,-25.0,M,16.8,0000*44
$GPGSA,A,3,02,25,29,30,12,05,,,,,,,3.8,1.7,3.4*33
$GPRMC,210754.000,A,3749.8888,N,12215.2979,W,1.77,176.30,031110,,,D*75
$GPVTG,176.30,T,,M,1.77,N,3.3,K,D*0A
$GPGGA,210755.000,3749.8887,N,12215.2980,W,2,06,1.7,35.7,M,-25.0,M,17.8,0000*42
$GPGSA,A,3,02,25,29,30,12,05,,,,,,,3.8,1.7,3.4*33
$GPRMC,210755.000,A,3749.8887,N,12215.2980,W,1.61,176.32,031110,,,D*78
$GPVTG,176.32,T,,M,1.61,N,3.0,K,D*0C
$GPGGA,210756.000,3749.8885,N,12215.2976,W,1,06,1.7,36.6,M,-25.0,M,,0000*5B
$GPGSA,A,3,02,25,29,30,12,05,,,,,,,3.8,1.7,3.4*33
$GPRMC,210756.000,A,3749.8885,N,12215.2976,W,1.74,167.87,031110,,,A*7F
$GPVTG,167.87,T,,M,1.74,N,3.2,K,A*01
$GPGGA,210757.000,3749.8882,N,12215.2973,W,1,06,1.7,37.4,M,-25.0,M,,0000*5B
$GPGSA,A,3,02,25,29,30,12,05,,,,,,,3.8,1.7,3.4*33
$GPRMC,210757.000,A,3749.8882,N,12215.2973,W,1.75,183.09,031110,,,A*71
$GPVTG,183.09,T,,M,1.75,N,3.2,K,A*0C
$GPGGA,210758.000,3749.8879,N,12215.2973,W,1,06,1.7,37.6,M,-25.0,M,,0000*52
$GPGSA,A,3,02,25,29,30,12,05,,,,,,,3.8,1.7,3.4*33
$GPGSV,3,1,12,12,69,165,31,25,64,297,32,02,47,047,29,05,43,130,22*75
$GPGSV,3,2,12,29,37,296,28,30,35,312,29,10,34,069,27,04,12,050,*73
$GPGSV,3,3,12,31,10,318,21,21,08,232,19,09,04,194,,48,44,197,29*79
$GPRMC,210758.000,A,3749.8879,N,12215.2973,W,2.04,174.60,031110,,,A*78
$GPVTG,174.60,T,,M,2.04,N,3.8,K,A*04
$GPGGA,210759.000,3749.8873,N,12215.2966,W,1,06,1.7,36.8,M,-25.0,M,,0000*52
$GPGSA,A,3,02,25,29,30,12,05,,,,,,,3.8,1.7,3.4*33
$GPRMC,210759.000,A,3749.8873,N,12215.2966,W,2.10,159.32,031110,,,A*7A
$GPVTG,159.32,T,,M,2.10,N,3.9,K,A*08
$GPGGA,210800.000,3749.8860,N,12215.2959,W,1,06,1.7,35.1,M,-25.0,M,,0000*55
$GPGSA,A,3,02,25,29,30,12,05,,,,,,,3.8,1.7,3.4*33
$GPRMC,210800.000,A,3749.8860,N,12215.2959,W,2.49,165.60,031110,,,A*73
$GPVTG,165.60,T,,M,2.49,N,4.6,K,A*04
$GPGGA,210801.000,3749.8851,N,12215.2954,W,1,06,1.7,34.3,M,-25.0,M,,0000*58
$GPGSA,A,3,02,25,29,30,12,05,,,,,,,3.8,1.7,3.4*33
$GPRMC,210801.000,A,3749.8851,N,12215.2954,W,1.74,182.80,031110,,,A*77
$GPVTG,182.80,T,,M,1.74,N,3.2,K,A*0D
$GPGGA,210802.000,3749.8846,N,12215.2954,W,1,06,1.7,34.2,M,-25.0,M,,0000*5C
$GPGSA,A,3,02,25,29,30,12,05,,,,,,,3.8,1.7,3.4*33
$GPRMC,210802.000,A,3749.8846,N,12215.2954,W,0.88,189.98,031110,,,A*72
$GPVTG,189.98,T,,M,0.88,N,1.6,K,A*0B
$GPGGA,210803.000,3749.8847,N,12215.2950,W,1,06,1.7,34.4,M,-25.0,M,,0000*5E
$GPGSA,A,3,02,25,29,30,12,05,,,,,,,3.8,1.7,3.4*33
$GPGSV,3,1,12,12,69,165,30,25,64,297,36,02,47,047,20,05,43,130,31*7B
$GPGSV,3,2,12,29,37,296,32,30,35,312,36,10,34,069,18,04,12,050,*7A
$GPGSV,3,3,12,31,10,318,15,21,08,232,31,09,04,194,,48,44,197,33*7F
$GPRMC,210803.000,A,3749.8847,N,12215.2950,W,0.32,61.01,031110,,,A*40
$GPVTG,61.01,T,,M,0.32,N,0.6,K,A*3C
$GPGGA,210804.000,3749.8851,N,12215.2943,W,1,06,1.7,34.5,M,-25.0,M,,0000*5D
$GPGSA,A,3,02,25,29,30,12,05,,,,,,,3.8,1.7,3.4*33
$GPRMC,210804.000,A,3749.8851,N,12215.2943,W,0.36,58.59,031110,,,A*41
$GPVTG,58.59,T,,M,0.36,N,0.7,K,A*3E
$GPGGA,210805.000,3749.8855,N,12215.2937,W,1,06,1.7,34.6,M,-25.0,M,,0000*58
$GPGSA,A,3,02,25,29,30,12,05,,,,,,,3.8,1.7,3.4*33
$GPRMC,210805.000,A,3749.8855,N,12215.2937,W,0.96,38.08,031110,,,A*4F
$GPVTG,38.08,T,,M,0.96,N,1.8,K,A*38
$GPGGA,210806.000,3749.8851,N,12215.2939,W,1,06,1.7,33.9,M,-25.0,M,,0000*59
$GPGSA,A,3,02,25,29,30,12,05,,,,,,,3.8,1.7,3.4*33
$GPRMC,210806.000,A,3749.8851,N,12215.2939,W,0.73,37.71,031110,,,A*4C
$GPVTG,37.71,T,,M,0.73,N,1.4,K,A*3E
$GPGGA,210807.000,3749.8847,N,12215.2941,W,1,06,1.7,33.3,M,-25.0,M,,0000*5A
$GPGSA,A,3,02,25,29,30,12,05,,,,,,,3.8,1.7,3.4*33
$GPRMC,210807.000,A,3749.8847,N,12215.2941,W,0.32,244.76,031110,,,A*71
$GPVTG,244.76,T,,M,0.32,N,0.6,K,A*09
