$ADVER,3080,2.3
$GPRMC,184757.213,A,3748.7979,N,12217.8551,W,0.16,354.99,240611,,,A*77
$GPGGA,184758.217,3748.7978,N,12217.8553,W,1,03,4.5,3.3,M,-25.1,M,,0000*61
$GPGSA,A,2,16,23,03,,,,,,,,,,4.6,4.5,1.0*34
$GPRMC,184758.217,A,3748.7978,N,12217.8553,W,0.21,14.62,240611,,,A*48
$GPVTG,14.62,T,,M,0.21,N,0.4,K,N*34
$GPGGA,184759.217,3748.7978,N,12217.8554,W,1,03,4.5,3.3,M,-25.1,M,,0000*67
$GPGSA,A,2,16,23,03,,,,,,,,,,4.6,4.5,1.0*34
$GPRMC,184759.217,A,3748.7978,N,12217.8554,W,0.14,314.79,240611,,,A*71
$GPVTG,314.79,T,,M,0.14,N,0.3,K,N*0C
$GPGGA,184800.217,3748.7978,N,12217.8553,W,1,03,4.5,3.3,M,-25.1,M,,0000*63
$GPGSA,A,2,16,23,03,,,,,,,,,,4.6,4.5,1.0*34
$GPRMC,184800.217,A,3748.7978,N,12217.8553,W,0.26,32.13,240611,,,A*4F
$GPVTG,32.13,T,,M,0.26,N,0.5,K,N*30
$GPGGA,184801.213,3748.7967,N,12217.8520,W,1,03,4.5,3.3,M,-25.1,M,,0000*6C
$GPGSA,A,2,16,23,03,,,,,,,,,,4.6,4.5,1.0*34
$GPGSV,3,1,12,23,63,085,39,16,41,054,39,03,19,104,27,13,68,349,39*71
$GPGSV,3,2,12,07,45,268,36,10,34,305,40,20,29,178,34,08,20,253,*7E
$GPGSV,3,3,12,06,15,088,26,32,12,160,26,04,06,265,,19,05,130,*71
$GPRMC,184801.213,A,3748.7967,N,12217.8520,W,0.22,90.85,240611,,,A*43
$GPVTG,90.85,T,,M,0.22,N,0.4,K,N*32
$GPGGA,184802.217,3748.7964,N,12217.8511,W,1,03,4.5,3.3,M,-25.1,M,,0000*6A
$GPGSA,A,2,16,23,03,,,,,,,,,,4.6,4.5,1.0*34
$GPRMC,184802.217,A,3748.7964,N,12217.8511,W,0.59,304.84,240611,,,A*76
$GPVTG,304.84,T,,M,0.59,N,1.1,K,N*05
$GPGGA,184803.217,3748.7976,N,12217.8629,W,1,04,3.9,-5.7,M,-25.1,M,,0000*43
$GPGSA,A,3,16,23,03,13,,,,,,,,,5.8,3.9,4.4*32
$GPRMC,184803.217,A,3748.7976,N,12217.8629,W,0.58,101.53,240611,,,A*70
$GPVTG,101.53,T,,M,0.58,N,1.1,K,A*06
$GPGGA,184804.217,3748.8004,N,12217.8605,W,1,04,3.9,5.1,M,-25.1,M,,0000*62
$GPGSA,A,3,16,23,03,13,,,,,,,,,5.8,3.9,4.4*32
$GPRMC,184804.217,A,3748.8004,N,12217.8605,W,0.35,61.09,240611,,,A*49
$GPVTG,61.09,T,,M,0.35,N,0.6,K,A*33
$GPGGA,184805.217,3748.8000,N,12217.8608,W,1,04,3.9,4.0,M,-25.1,M,,0000*6A
$GPGSA,A,3,16,23,03,13,,,,,,,,,5.8,3.9,4.4*32
$GPRMC,184805.217,A,3748.8000,N,12217.8608,W,0.24,82.01,240611,,,A*44
$GPVTG,82.01,T,,M,0.24,N,0.4,K,A*34
$GPGGA,184806.000,3748.7998,N,12217.8615,W,1,04,3.9,2.4,M,-25.1,M,,0000*64
$GPGSA,A,3,16,23,03,13,,,,,,,,,5.8,3.9,4.4*32
$GPGSV,3,1,12,13,68,349,23,23,63,085,37,16,41,054,34,03,19,104,37*78
$GPGSV,3,2,12,07,45,268,33,10,34,305,29,20,29,178,35,08,20,253,19*7D
$GPGSV,3,3,12,06,15,087,23,32,12,160,26,04,06,265,,19,05,130,*7B
$GPRMC,184806.000,A,3748.7998,N,12217.8615,W,0.43,73.37,240611,,,A*42
$GPVTG,73.37,T,,M,0.43,N,0.8,K,A*32
$GPGGA,184807.000,3748.7994,N,12217.8620,W,1,04,3.9,1.3,M,-25.1,M,,0000*6B
$GPGSA,A,3,16,23,03,13,,,,,,,,,5.8,3.9,4.4*32
$GPRMC,184807.000,A,3748.7994,N,12217.8620,W,0.39,22.18,240611,,,A*4D
$GPVTG,22.18,T,,M,0.39,N,0.7,K,A*39
$GPGGA,184808.000,3748.7997,N,12217.8632,W,1,04,3.9,-1.1,M,-25.1,M,,0000*4B
$GPGSA,A,3,16,23,03,13,,,,,,,,,5.8,3.9,4.4*32
$GPRMC,184808.000,A,3748.7997,N,12217.8632,W,0.41,43.28,240611,,,A*49
$GPVTG,43.28,T,,M,0.41,N,0.8,K,A*3D
$GPGGA,184809.000,3748.8002,N,12217.8636,W,1,04,3.9,-3.0,M,-25.1,M,,0000*47
$GPGSA,A,3,16,23,03,13,,,,,,,,,5.8,3.9,4.4*32
$GPRMC,184809.000,A,3748.8002,N,12217.8636,W,0.43,48.91,240611,,,A*4D
$GPVTG,48.91,T,,M,0.43,N,0.8,K,A*36
$GPGGA,184810.000,3748.8003,N,12217.8643,W,1,04,3.9,-5.6,M,-25.1,M,,0000*4C
$GPGSA,A,3,16,23,03,13,,,,,,,,,5.8,3.9,4.4*32
$GPRMC,184810.000,A,3748.8003,N,12217.8643,W,0.24,44.91,240611,,,A*4B
$GPVTG,44.91,T,,M,0.24,N,0.4,K,A*37
$GPGGA,184811.000,3748.8007,N,12217.8647,W,1,04,3.9,-6.8,M,-25.1,M,,0000*40
$GPGSA,A,3,16,23,03,13,,,,,,,,,5.8,3.9,4.4*32
$GPGSV,3,1,12,13,68,349,32,23,63,085,27,16,41,054,33,03,19,104,22*7A
$GPGSV,3,2,12,07,45,268,25,10,34,305,30,20,29,178,17,08,20,253,23*7B
$GPGSV,3,3,12,06,15,087,09,32,12,160,26,04,06,265,,19,05,130,*73
$GPRMC,184811.000,A,3748.8007,N,12217.8647,W,0.31,19.22,240611,,,A*4E
$GPGGA,184812.000,3748.8009,N,12217.8641,W,1,04,3.9,-7.3,M,-25.1,M,,0000*41
$GPGSA,A,3,16,23,03,13,,,,,,,,,5.8,3.9,4.4*32
$GPRMC,184812.000,A,3748.8009,N,12217.8641,W,0.48,135.86,240611,,,A*7A
$GPVTG,135.86,T,,M,0.48,N,0.9,K,A*01
$GPGGA,184813.000,3748.8003,N,12217.8637,W,1,04,3.9,-6.6,M,-25.1,M,,0000*4F
$GPGSA,A,3,16,23,03,13,,,,,,,,,5.8,3.9,4.4*32
$GPRMC,184813.000,A,3748.8003,N,12217.8637,W,1.37,225.83,240611,,,A*7E
$GPVTG,225.83,T,,M,1.37,N,2.5,K,A*01
$GPGGA,184814.000,3748.7983,N,12217.8638,W,1,04,3.9,-5.0,M,-25.1,M,,0000*4C
$GPGSA,A,3,16,23,03,13,,,,,,,,,5.8,3.9,4.4*32
$GPRMC,184814.000,A,3748.7983,N,12217.8638,W,2.27,194.67,240611,,,A*79
$GPVTG,194.67,T,,M,2.27,N,4.2,K,A*01
$GPGGA,184815.000,3748.7956,N,12217.8642,W,1,04,3.9,-0.5,M,-25.1,M,,0000*48
$GPGSA,A,3,16,23,03,13,,,,,,,,,5.8,3.9,4.4*32
$GPRMC,184815.000,A,3748.7956,N,12217.8642,W,2.79,211.98,240611,,,A*78
$GPVTG,211.98,T,,M,2.79,N,5.2,K,A*05
$GPGGA,184816.000,3748.7954,N,12217.8658,W,1,04,3.9,-3.0,M,-25.1,M,,0000*44
$GPGSA,A,3,16,23,03,13,,,,,,,,,5.8,3.9,4.4*32
$GPGSV,3,1,12,13,68,349,25,23,63,085,26,16,41,054,24,03,19,104,36*7E
$GPGSV,3,2,12,07,45,268,26,10,34,305,28,20,29,178,26,08,20,253,28*78
$GPGSV,3,3,12,06,15,087,23,32,12,160,26,04,06,265,,19,05,130,*7B
$GPRMC,184816.000,A,3748.7954,N,12217.8658,W,2.02,230.45,240611,,,A*7D
$GPVTG,230.45,T,,M,2.02,N,3.7,K,A*09
$GPGGA,184817.000,3748.7961,N,12217.8643,W,1,04,3.9,-1.8,M,-25.1,M,,0000*43
$GPGSA,A,3,16,23,03,13,,,,,,,,,5.8,3.9,4.4*32
$GPRMC,184817.000,A,3748.7961,N,12217.8643,W,0.34,128.15,240611,,,A*78
$GPVTG,128.15,T,,M,0.34,N,0.6,K,A*03
$GPGGA,184818.000,3748.7970,N,12217.8630,W,1,04,3.9,-1.6,M,-25.1,M,,0000*46
$GPGSA,A,3,16,23,03,13,,,,,,,,,5.8,3.9,4.4*32
$GPRMC,184818.000,A,3748.7970,N,12217.8630,W,0.87,69.84,240611,,,A*47
$GPVTG,69.84,T,,M,0.87,N,1.6,K,A*36
$GPGGA,184819.000,3748.7974,N,12217.8604,W,1,04,3.9,0.1,M,-25.1,M,,0000*6F
$GPGSA,A,3,16,23,03,13,,,,,,,,,5.8,3.9,4.4*32
$GPRMC,184819.000,A,3748.7974,N,12217.8604,W,1.65,82.53,240611,,,A*47
$GPVTG,82.53,T,,M,1.65,N,3.1,K,A*31
$GPGGA,184820.000,3748.7980,N,12217.8585,W,1,04,3.9,1.2,M,-25.1,M,,0000*66
$GPGSA,A,3,16,23,03,13,,,,,,,,,5.8,3.9,4.4*32
$GPRMC,184820.000,A,3748.7980,N,12217.8585,W,1.85,65.94,240611,,,A*40
$GPVTG,65.94,T,,M,1.85,N,3.4,K,A*38
$GPGGA,184821.000,3748.7994,N,12217.8583,W,1,04,3.9,-0.2,M,-25.1,M,,0000*48
$GPGSA,A,3,16,23,03,13,,,,,,,,,5.8,3.9,4.4*32
$GPGSV,3,1,12,13,68,349,17,23,63,085,22,16,41,054,27,03,19,104,17*7B
$GPGSV,3,2,12,07,45,268,23,10,34,305,23,20,29,178,34,08,20,253,27*7A
$GPGSV,3,3,12,06,15,087,16,32,12,160,29,04,06,265,,19,05,130,*72
$GPRMC,184821.000,A,3748.7994,N,12217.8583,W,1.84,25.39,240611,,,A*40
$GPVTG,25.39,T,,M,1.84,N,3.4,K,A*3A
$GPGGA,184822.000,3748.8007,N,12217.8574,W,1,04,3.9,2.6,M,-25.1,M,,0000*64
$GPGSA,A,3,16,23,03,13,,,,,,,,,5.8,3.9,4.4*32
$GPRMC,184822.000,A,3748.8007,N,12217.8574,W,2.52,0.07,240611,,,A*75
$GPVTG,0.07,T,,M,2.52,N,4.7,K,A*0C
$GPGGA,184823.000,3748.8020,N,12217.8574,W,1,03,4.0,1.8,M,-25.1,M,,0000*64
$GPGSA,A,2,16,23,13,,,,,,,,,,4.1,4.0,1.0*37
$GPRMC,184823.000,A,3748.8020,N,12217.8574,W,2.46,357.18,240611,,,A*7B
$GPVTG,357.18,T,,M,2.46,N,4.6,K,A*07
$GPGGA,184824.000,3748.8030,N,12217.8567,W,1,03,4.0,1.8,M,-25.1,M,,0000*60
$GPGSA,A,2,16,23,13,,,,,,,,,,4.1,4.0,1.0*37
$GPRMC,184824.000,A,3748.8030,N,12217.8567,W,1.81,3.97,240611,,,A*72
$GPVTG,3.97,T,,M,1.81,N,3.4,K,A*0F
$GPGGA,184825.000,3748.8039,N,12217.8557,W,1,04,3.9,2.4,M,-25.1,M,,0000*6D
$GPGSA,A,3,16,23,03,13,,,,,,,,,5.8,3.9,4.4*32
$GPRMC,184825.000,A,3748.8039,N,12217.8557,W,1.69,9.37,240611,,,A*7F
$GPVTG,9.37,T,,M,1.69,N,3.1,K,A*0C
$GPGGA,184826.000,3748.8041,N,12217.8550,W,1,03,4.0,3.5,M,-25.1,M,,0000*6F
$GPGSA,A,2,16,23,13,,,,,,,,,,4.1,4.0,1.0*37
$GPGSV,3,1,12,13,68,349,19,23,63,085,25,16,41,054,27,03,19,104,*74
$GPGSV,3,2,12,07,45,268,19,10,34,305,24,20,29,178,24,08,20,253,30*73
$GPGSV,3,3,12,06,15,087,16,32,12,160,24,04,06,265,,19,05,130,*7F
$GPRMC,184826.000,A,3748.8041,N,12217.8550,W,1.38,25.65,240611,,,A*49
$GPGGA,184827.000,3748.8051,N,12217.8552,W,1,04,3.9,4.2,M,-25.1,M,,0000*64
$GPGSA,A,3,16,23,03,13,,,,,,,,,5.8,3.9,4.4*32
$GPRMC,184827.000,A,3748.8051,N,12217.8552,W,0.78,28.66,240611,,,A*40
$GPVTG,28.66,T,,M,0.78,N,1.5,K,A*3C
$GPGGA,184828.000,3748.8056,N,12217.8549,W,1,04,3.9,4.1,M,-25.1,M,,0000*65
$GPGSA,A,3,16,23,03,13,,,,,,,,,5.8,3.9,4.4*32
$GPRMC,184828.000,A,3748.8056,N,12217.8549,W,0.67,22.34,240611,,,A*41
$GPVTG,22.34,T,,M,0.67,N,1.2,K,A*38
$GPGGA,184829.000,3748.8054,N,12217.8561,W,1,04,3.9,2.2,M,-25.1,M,,0000*69
$GPGSA,A,3,16,23,03,13,,,,,,,,,5.8,3.9,4.4*32
$GPRMC,184829.000,A,3748.8054,N,12217.8561,W,0.28,90.04,240611,,,A*49
$GPVTG,90.04,T,,M,0.28,N,0.5,K,A*3F
$GPGGA,184830.000,3748.8048,N,12217.8571,W,1,03,3.9,1.5,M,-25.1,M,,0000*6E
$GPGSA,A,2,16,23,13,,,,,,,,,,4.1,3.9,1.0*39
$GPRMC,184830.000,A,3748.8048,N,12217.8571,W,0.41,155.68,240611,,,A*70
$GPVTG,155.68,T,,M,0.41,N,0.8,K,N*00
$GPGGA,184831.000,3748.8047,N,12217.8570,W,6,00,50.0,1.6,M,-25.1,M,,0000*59
$GPGSA,A,2,,,,,,,,,,,,,50.0,50.0,50.0*06
$GPGSV,3,1,12,13,68,349,28,23,63,085,09,16,41,054,23,03,19,104,*7C
$GPGSV,3,2,12,07,45,268,23,10,34,305,24,20,29,178,27,08,20,253,22*7A
$GPGSV,3,3,12,06,15,087,08,32,12,160,24,04,06,265,,19,05,130,*70
$GPRMC,184831.000,A,3748.8047,N,12217.8570,W,0.41,155.68,240611,,,E*7B
$GPVTG,155.68,T,,M,0.41,N,0.8,K,N*00
$GPGGA,184832.000,3748.8046,N,12217.8612,W,1,03,3.9,-1.2,M,-25.1,M,,0000*4E
$GPGSA,A,2,16,23,13,,,,,,,,,,4.1,3.9,1.0*39
$GPRMC,184832.000,A,3748.8046,N,12217.8612,W,3.70,272.92,240611,,,A*78
$GPVTG,272.92,T,,M,3.70,N,6.8,K,N*04
$GPGGA,184833.000,3748.8047,N,12217.8659,W,1,03,3.9,-2.8,M,-25.1,M,,0000*48
$GPGSA,A,2,16,23,13,,,,,,,,,,4.1,3.9,1.0*39
$GPRMC,184833.000,A,3748.8047,N,12217.8659,W,4.85,282.82,240611,,,A*74
$GPVTG,282.82,T,,M,4.85,N,9.0,K,N*00
$GPGGA,184834.000,3748.8050,N,12217.8672,W,1,03,3.3,-3.5,M,-25.1,M,,0000*46
$GPGSA,A,2,16,03,13,,,,,,,,,,3.4,3.3,1.0*33
$GPRMC,184834.000,A,3748.8050,N,12217.8672,W,3.63,292.28,240611,,,A*72
$GPVTG,292.28,T,,M,3.63,N,6.7,K,A*09
$GPGGA,184835.000,3748.8042,N,12217.8679,W,1,03,3.3,-4.1,M,-25.1,M,,0000*4C
$GPGSA,A,2,16,03,13,,,,,,,,,,3.4,3.3,1.0*33
$GPRMC,184835.000,A,3748.8042,N,12217.8679,W,1.87,262.74,240611,,,A*75
$GPVTG,262.74,T,,M,1.87,N,3.5,K,A*00
$GPGGA,184836.000,3748.8032,N,12217.8685,W,1,03,4.5,-7.4,M,-25.1,M,,0000*4C
$GPGSA,A,2,16,23,03,,,,,,,,,,4.6,4.5,1.0*34
$GPGSV,3,1,12,13,68,349,15,23,63,085,18,16,41,054,25,03,19,104,26*70
$GPGSV,3,2,12,07,45,268,27,10,34,305,23,20,29,178,23,08,20,253,19*75
$GPGSV,3,3,12,06,15,087,,32,12,160,25,04,06,265,,19,05,130,*79
$GPRMC,184836.000,A,3748.8032,N,12217.8685,W,1.79,252.89,240611,,,A*72
$GPVTG,252.89,T,,M,1.79,N,3.3,K,N*09
$GPGGA,184837.000,3748.8029,N,12217.8687,W,1,04,3.9,-9.6,M,-25.1,M,,0000*45
$GPGSA,A,3,16,23,03,13,,,,,,,,,5.9,3.9,4.4*33
$GPRMC,184837.000,A,3748.8029,N,12217.8687,W,1.92,252.52,240611,,,A*78
$GPVTG,252.52,T,,M,1.92,N,3.6,K,A*00
$GPGGA,184838.000,3748.8030,N,12217.8689,W,1,03,3.3,-9.4,M,-25.1,M,,0000*43
$GPGSA,A,2,16,03,13,,,,,,,,,,3.4,3.3,1.0*33
$GPRMC,184838.000,A,3748.8030,N,12217.8689,W,2.17,255.12,240611,,,A*7C
$GPVTG,255.12,T,,M,2.17,N,4.0,K,A*0C
$GPGGA,184839.000,3748.8035,N,12217.8681,W,1,03,3.3,-8.8,M,-25.1,M,,0000*42
$GPGSA,A,2,16,03,13,,,,,,,,,,3.4,3.3,1.0*33
$GPRMC,184839.000,A,3748.8035,N,12217.8681,W,1.21,252.42,240611,,,A*74
$GPVTG,252.42,T,,M,1.21,N,2.2,K,A*0C
$GPGGA,184840.000,3748.8034,N,12217.8685,W,6,00,50.0,-9.0,M,-25.1,M,,0000*71
$GPGSA,A,2,,,,,,,,,,,,,50.0,50.0,50.0*06
$GPRMC,184840.000,A,3748.8034,N,12217.8685,W,1.21,252.42,240611,,,E*7B
$GPVTG,252.42,T,,M,1.21,N,2.2,K,N*03
$GPGGA,184841.000,3748.8050,N,12217.8669,W,1,03,3.3,-8.3,M,-25.1,M,,0000*43
$GPGSA,A,2,16,03,13,,,,,,,,,,3.4,3.3,1.0*33
$GPGSV,3,1,12,13,68,349,24,23,63,085,,16,41,054,24,03,19,104,30*7D
$GPGSV,3,2,12,07,45,268,,10,34,305,,20,29,178,31,08,20,253,23*7B
$GPGSV,3,3,12,06,15,087,,32,12,160,26,04,06,265,,19,05,130,*7A
$GPRMC,184841.000,A,3748.8050,N,12217.8669,W,1.58,27.46,240611,,,A*44
$GPVTG,27.46,T,,M,1.58,N,2.9,K,N*32
$GPGGA,184842.000,3748.8084,N,12217.8623,W,1,04,3.9,-10.2,M,-25.1,M,,0000*72
$GPGSA,A,3,16,03,23,13,,,,,,,,,5.9,3.9,4.4*33
$GPRMC,184842.000,A,3748.8084,N,12217.8623,W,4.32,40.86,240611,,,A*44
$GPVTG,40.86,T,,M,4.32,N,8.0,K,A*3A
$GPGGA,184843.000,3748.8076,N,12217.8620,W,1,04,3.9,-10.4,M,-25.1,M,,0000*7B
$GPGSA,A,3,16,03,23,13,,,,,,,,,5.9,3.9,4.4*33
$GPRMC,184843.000,A,3748.8076,N,12217.8620,W,1.71,19.63,240611,,,A*4E
$GPVTG,19.63,T,,M,1.71,N,3.2,K,A*36
$GPGGA,184844.000,3748.8060,N,12217.8619,W,1,04,3.9,-8.4,M,-25.1,M,,0000*48
$GPGSA,A,3,16,03,23,13,,,,,,,,,5.9,3.9,4.4*33
$GPRMC,184844.000,A,3748.8060,N,12217.8619,W,0.55,8.33,240611,,,A*76
$GPVTG,8.33,T,,M,0.55,N,1.0,K,A*04
$GPGGA,184845.000,3748.8058,N,12217.8618,W,1,04,3.9,-8.5,M,-25.1,M,,0000*42
$GPGSA,A,3,16,03,23,13,,,,,,,,,5.9,3.9,4.4*33
$GPRMC,184845.000,A,3748.8058,N,12217.8618,W,0.38,319.44,240611,,,A*75
$GPVTG,319.44,T,,M,0.38,N,0.7,K,A*0A
$GPGGA,184846.000,3748.8057,N,12217.8620,W,1,04,3.9,-9.3,M,-25.1,M,,0000*42
$GPGSA,A,3,16,03,23,13,,,,,,,,,5.9,3.9,4.4*33
$GPGSV,3,1,12,13,68,349,32,23,63,085,34,16,41,054,37,03,19,104,35*7A
$GPGSV,3,2,12,07,45,268,31,10,34,305,28,20,29,178,37,08,20,253,26*70
$GPGSV,3,3,12,06,15,087,28,32,12,160,35,04,06,265,,19,05,130,*72
$GPRMC,184846.000,A,3748.8057,N,12217.8620,W,0.41,323.79,240611,,,A*7B
$GPVTG,323.79,T,,M,0.41,N,0.8,K,A*0C
$GPGGA,184847.000,3748.8046,N,12217.8627,W,1,04,3.9,-9.7,M,-25.1,M,,0000*40
$GPGSA,A,3,16,03,23,13,,,,,,,,,5.9,3.9,4.4*33
$GPRMC,184847.000,A,3748.8046,N,12217.8627,W,0.03,151.10,240611,,,A*73
$GPVTG,151.10,T,,M,0.03,N,0.1,K,A*0B
$GPGGA,184848.000,3748.8033,N,12217.8610,W,1,04,3.9,-7.7,M,-25.1,M,,0000*47
$GPGSA,A,3,16,03,23,13,,,,,,,,,5.9,3.9,4.4*33
$GPRMC,184848.000,A,3748.8033,N,12217.8610,W,0.63,206.28,240611,,,A*76
$GPVTG,206.28,T,,M,0.63,N,1.2,K,A*05
$GPGGA,184849.000,3748.8018,N,12217.8624,W,1,04,3.9,-8.0,M,-25.1,M,,0000*40
$GPGSA,A,3,16,03,23,13,,,,,,,,,5.9,3.9,4.4*33
$GPRMC,184849.000,A,3748.8018,N,12217.8624,W,1.13,190.08,240611,,,A*71
$GPVTG,190.08,T,,M,1.13,N,2.1,K,A*0D
$GPGGA,184850.000,3748.8000,N,12217.8638,W,1,04,3.9,-7.2,M,-25.1,M,,0000*41
$GPGSA,A,3,16,03,23,13,,,,,,,,,5.9,3.9,4.4*33
$GPRMC,184850.000,A,3748.8000,N,12217.8638,W,1.89,186.82,240611,,,A*7B
$GPVTG,186.82,T,,M,1.89,N,3.5,K,A*0E
$GPGGA,184851.000,3748.7989,N,12217.8669,W,1,04,3.9,-7.8,M,-25.1,M,,0000*49
$GPGSA,A,3,16,03,23,13,,,,,,,,,5.9,3.9,4.4*33
$GPGSV,3,1,12,13,68,349,27,23,63,085,24,16,41,054,24,03,19,104,21*78
$GPGSV,3,2,12,07,45,268,38,10,34,305,37,20,29,178,36,08,20,253,37*76
$GPGSV,3,3,12,06,15,087,20,32,12,160,35,04,06,265,18,19,05,130,*73
$GPRMC,184851.000,A,3748.7989,N,12217.8669,W,2.47,200.88,240611,,,A*7F
$GPVTG,200.88,T,,M,2.47,N,4.6,K,A*0C
$GPGGA,184852.000,3748.7992,N,12217.8675,W,1,04,3.9,-7.1,M,-25.1,M,,0000*44
$GPGSA,A,3,16,03,23,13,,,,,,,,,5.9,3.9,4.4*33
$GPRMC,184852.000,A,3748.7992,N,12217.8675,W,2.02,220.78,240611,,,A*77
$GPVTG,220.78,T,,M,2.02,N,3.7,K,A*06
$GPGGA,184853.000,3748.8002,N,12217.8678,W,1,04,3.9,-7.9,M,-25.1,M,,0000*4F
$GPGSA,A,3,16,03,23,13,,,,,,,,,5.9,3.9,4.4*33
$GPRMC,184853.000,A,3748.8002,N,12217.8678,W,1.62,230.79,240611,,,A*71
$GPVTG,230.79,T,,M,1.62,N,3.0,K,A*04
$GPGGA,184854.000,3748.8013,N,12217.8686,W,1,04,3.9,-10.0,M,-25.1,M,,0000*76
$GPGSA,A,3,16,03,23,13,,,,,,,,,5.9,3.9,4.4*33
$GPRMC,184854.000,A,3748.8013,N,12217.8686,W,1.04,220.63,240611,,,A*7D
$GPVTG,220.63,T,,M,1.04,N,1.9,K,A*05
$GPGGA,184855.000,3748.8022,N,12217.8683,W,1,04,3.9,-11.0,M,-25.1,M,,0000*71
$GPGSA,A,3,16,03,23,13,,,,,,,,,5.9,3.9,4.4*33
$GPRMC,184855.000,A,3748.8022,N,12217.8683,W,1.32,129.26,240611,,,A*75
$GPVTG,129.26,T,,M,1.32,N,2.5,K,A*04
$GPGGA,184856.000,3748.8032,N,12217.8692,W,1,04,3.9,-12.0,M,-25.1,M,,0000*70
$GPGSA,A,3,16,03,23,13,,,,,,,,,5.9,3.9,4.4*33
$GPGSV,3,1,12,13,68,349,32,23,63,085,21,16,41,054,24,03,19,104,21*79
$GPGSV,3,2,12,07,45,268,38,10,34,305,38,20,29,178,37,08,20,253,38*77
$GPGSV,3,3,12,06,15,087,21,32,12,160,36,04,06,265,19,19,05,130,*70
$GPRMC,184856.000,A,3748.8032,N,12217.8692,W,1.55,88.50,240611,,,A*4D
$GPVTG,88.50,T,,M,1.55,N,2.9,K,A*32
$GPGGA,184857.000,3748.8021,N,12217.8690,W,1,04,3.9,-9.3,M,-25.1,M,,0000*48
$GPGSA,A,3,16,03,23,13,,,,,,,,,5.9,3.9,4.4*33
$GPRMC,184857.000,A,3748.8021,N,12217.8690,W,1.83,111.25,240611,,,A*74
$GPVTG,111.25,T,,M,1.83,N,3.4,K,A*06
$GPGGA,184858.000,3748.8009,N,12217.8702,W,1,04,3.9,-7.8,M,-25.1,M,,0000*42
$GPGSA,A,3,16,03,23,13,,,,,,,,,5.9,3.9,4.4*33
$GPRMC,184858.000,A,3748.8009,N,12217.8702,W,1.37,108.62,240611,,,A*7F
$GPVTG,108.62,T,,M,1.37,N,2.5,K,A*02
$GPGGA,184859.000,3748.8016,N,12217.8704,W,1,04,3.9,-7.6,M,-25.1,M,,0000*45
$GPGSA,A,3,16,03,23,13,,,,,,,,,5.9,3.9,4.4*33
$GPRMC,184859.000,A,3748.8016,N,12217.8704,W,1.55,97.40,240611,,,A*45
$GPVTG,97.40,T,,M,1.55,N,2.9,K,A*3D
$GPGGA,184900.000,3748.8027,N,12217.8685,W,1,04,3.9,-5.9,M,-25.1,M,,0000*4F
$GPGSA,A,3,16,03,23,13,,,,,,,,,5.9,3.9,4.4*33
$GPRMC,184900.000,A,3748.8027,N,12217.8685,W,2.26,69.83,240611,,,A*4B
$GPVTG,69.83,T,,M,2.26,N,4.2,K,A*39
$GPGGA,184901.000,3748.8010,N,12217.8703,W,1,04,3.9,-6.2,M,-25.1,M,,0000*4D
$GPGSA,A,3,16,03,23,13,,,,,,,,,5.9,3.9,4.4*33
$GPGSV,3,1,12,13,68,349,25,23,63,085,25,16,41,054,24,03,19,104,25*7F
$GPGSV,3,2,12,07,45,268,39,10,34,305,38,20,29,178,33,08,20,253,40*7D
$GPGSV,3,3,12,06,15,087,24,32,12,160,27,04,06,265,18,19,05,130,*74
$GPRMC,184901.000,A,3748.8010,N,12217.8703,W,0.71,107.89,240611,,,A*72
$GPVTG,107.89,T,,M,0.71,N,1.3,K,A*0E
$GPGGA,184902.000,3748.7989,N,12217.8719,W,1,04,3.9,-6.3,M,-25.1,M,,0000*42
$GPGSA,A,3,16,03,23,13,,,,,,,,,5.9,3.9,4.4*33
$GPRMC,184902.000,A,3748.7989,N,12217.8719,W,1.13,164.15,240611,,,A*79
$GPVTG,164.15,T,,M,1.13,N,2.1,K,A*0A
$GPGGA,184903.000,3748.7980,N,12217.8729,W,1,03,3.3,-5.7,M,-25.1,M,,0000*43
$GPGSA,A,2,16,03,13,,,,,,,,,,3.4,3.3,1.0*33
$GPRMC,184903.000,A,3748.7980,N,12217.8729,W,1.22,168.51,240611,,,A*7C
$GPVTG,168.51,T,,M,1.22,N,2.3,K,A*06
$GPGGA,184904.000,3748.7984,N,12217.8717,W,1,04,3.9,-4.9,M,-25.1,M,,0000*4F
$GPGSA,A,3,16,03,23,13,,,,,,,,,5.9,3.9,4.4*33
$GPRMC,184904.000,A,3748.7984,N,12217.8717,W,2.11,35.70,240611,,,A*4B
$GPVTG,35.70,T,,M,2.11,N,3.9,K,A*34
$GPGGA,184905.000,3748.7978,N,12217.8711,W,1,04,3.9,-2.6,M,-25.1,M,,0000*42
$GPGSA,A,3,16,03,23,13,,,,,,,,,5.9,3.9,4.4*33
$GPRMC,184905.000,A,3748.7978,N,12217.8711,W,1.87,26.70,240611,,,A*41
$GPVTG,26.70,T,,M,1.87,N,3.5,K,A*36
$GPGGA,184906.000,3748.7976,N,12217.8720,W,1,04,3.9,-5.5,M,-25.1,M,,0000*49
$GPGSA,A,3,16,03,23,13,,,,,,,,,5.9,3.9,4.4*33
$GPGSV,3,1,12,13,68,349,28,23,63,085,24,16,41,054,26,03,19,104,27*73
$GPGSV,3,2,12,07,45,268,38,10,34,305,37,20,29,178,22,08,20,253,40*73
$GPGSV,3,3,12,06,15,087,29,32,12,160,27,04,06,265,16,19,05,130,*77
$GPRMC,184906.000,A,3748.7976,N,12217.8720,W,1.12,26.28,240611,,,A*4F
$GPVTG,26.28,T,,M,1.12,N,2.1,K,A*32
$GPGGA,184907.000,3748.7975,N,12217.8717,W,1,04,3.9,-6.4,M,-25.1,M,,0000*4D
$GPGSA,A,3,16,03,23,13,,,,,,,,,5.9,3.9,4.4*33
$GPRMC,184907.000,A,3748.7975,N,12217.8717,W,1.22,51.63,240611,,,A*45
$GPVTG,51.63,T,,M,1.22,N,2.3,K,A*3C
$GPGGA,184908.000,3748.7967,N,12217.8729,W,1,04,3.9,-8.7,M,-25.1,M,,0000*41
$GPGSA,A,3,16,03,23,13,,,,,,,,,5.9,3.9,4.4*33
$GPRMC,184908.000,A,3748.7967,N,12217.8729,W,1.06,58.21,240611,,,A*4D
$GPVTG,58.21,T,,M,1.06,N,2.0,K,A*36
$GPGGA,184909.000,3748.7963,N,12217.8735,W,1,04,3.9,-9.8,M,-25.1,M,,0000*47
$GPGSA,A,3,16,03,23,13,,,,,,,,,5.9,3.9,4.4*33
$GPRMC,184909.000,A,3748.7963,N,12217.8735,W,1.04,151.27,240611,,,A*79
$GPVTG,151.27,T,,M,1.04,N,1.9,K,A*00
$GPGGA,184910.000,3748.7954,N,12217.8730,W,1,04,3.9,-7.6,M,-25.1,M,,0000*4E
$GPGSA,A,3,16,03,23,13,,,,,,,,,5.9,3.9,4.4*33
$GPRMC,184910.000,A,3748.7954,N,12217.8730,W,1.00,140.25,240611,,,A*76
$GPVTG,140.25,T,,M,1.00,N,1.8,K,A*07
$GPGGA,184911.000,3748.7956,N,12217.8730,W,1,04,3.9,-6.7,M,-25.1,M,,0000*4D
$GPGSA,A,3,16,03,23,13,,,,,,,,,5.9,3.9,4.4*33
$GPGSV,3,1,12,13,68,350,28,23,63,086,25,07,45,269,35,16,40,053,26*79
$GPGSV,3,2,12,10,34,305,38,20,29,178,22,08,21,253,30,03,19,103,22*72
$GPGSV,3,3,12,06,16,087,22,32,12,160,23,04,06,265,14,19,05,130,*79
$GPRMC,184911.000,A,3748.7956,N,12217.8730,W,1.06,76.09,240611,,,A*49
$GPGGA,184912.000,3748.7941,N,12217.8722,W,1,04,3.9,-2.5,M,-25.1,M,,0000*4D
$GPGSA,A,3,16,03,23,13,,,,,,,,,5.9,3.9,4.4*33
$GPRMC,184912.000,A,3748.7941,N,12217.8722,W,2.38,120.84,240611,,,A*76
$GPVTG,120.84,T,,M,2.38,N,4.4,K,A*0B
$GPGGA,184913.000,3748.7926,N,12217.8717,W,1,04,3.9,-0.4,M,-25.1,M,,0000*48
$GPGSA,A,3,16,03,23,13,,,,,,,,,5.9,3.9,4.4*33
$GPRMC,184913.000,A,3748.7926,N,12217.8717,W,2.75,137.96,240611,,,A*7C
$GPVTG,137.96,T,,M,2.75,N,5.1,K,A*03
$GPGGA,184914.000,3748.7908,N,12217.8730,W,1,04,3.9,-0.4,M,-25.1,M,,0000*46
$GPGSA,A,3,16,03,23,13,,,,,,,,,5.9,3.9,4.4*33
$GPRMC,184914.000,A,3748.7908,N,12217.8730,W,3.59,169.13,240611,,,A*7B
$GPVTG,169.13,T,,M,3.59,N,6.7,K,A*0F
$GPGGA,184915.000,3748.7888,N,12217.8744,W,1,04,3.9,-0.2,M,-25.1,M,,0000*4B
$GPGSA,A,3,16,03,23,13,,,,,,,,,5.9,3.9,4.4*33
$GPRMC,184915.000,A,3748.7888,N,12217.8744,W,3.79,175.27,240611,,,A*78
$GPVTG,175.27,T,,M,3.79,N,7.0,K,A*01
$GPGGA,184916.000,3748.7884,N,12217.8749,W,1,04,3.9,-0.8,M,-25.1,M,,0000*43
$GPGSA,A,3,16,03,23,13,,,,,,,,,5.9,3.9,4.4*33
$GPGSV,3,1,12,13,68,350,28,23,63,086,25,07,45,269,33,16,40,053,23*7A
$GPGSV,3,2,12,10,34,305,28,20,29,178,28,08,21,253,34,03,19,103,20*7F
$GPGSV,3,3,12,06,16,087,20,32,12,160,23,04,06,265,,19,05,130,*7E
$GPRMC,184916.000,A,3748.7884,N,12217.8749,W,2.67,168.29,240611,,,A*76
$GPVTG,168.29,T,,M,2.67,N,4.9,K,A*07
$GPGGA,184917.000,3748.7888,N,12217.8744,W,1,04,3.9,-0.6,M,-25.1,M,,0000*4D
$GPGSA,A,3,16,03,23,13,,,,,,,,,5.9,3.9,4.4*33
$GPRMC,184917.000,A,3748.7888,N,12217.8744,W,1.62,137.00,240611,,,A*71
$GPVTG,137.00,T,,M,1.62,N,3.0,K,A*0E
$GPGGA,184918.000,3748.7879,N,12217.8740,W,1,04,3.9,2.3,M,-25.1,M,,0000*62
$GPGSA,A,3,16,03,23,13,,,,,,,,,5.9,3.9,4.4*33
$GPRMC,184918.000,A,3748.7879,N,12217.8740,W,1.13,119.99,240611,,,A*7E
$GPVTG,119.99,T,,M,1.13,N,2.1,K,A*04
$GPGGA,184919.000,3748.7871,N,12217.8742,W,1,04,3.9,3.8,M,-25.1,M,,0000*63
$GPGSA,A,3,16,03,23,13,,,,,,,,,5.9,3.9,4.4*33
$GPRMC,184919.000,A,3748.7871,N,12217.8742,W,1.02,153.55,240611,,,A*7B
$GPVTG,153.55,T,,M,1.02,N,1.9,K,A*01
$GPGGA,184920.000,3748.7871,N,12217.8744,W,1,04,3.9,3.9,M,-25.1,M,,0000*6E
$GPGSA,A,3,16,03,23,13,,,,,,,,,5.9,3.9,4.4*33
$GPRMC,184920.000,A,3748.7871,N,12217.8744,W,1.28,125.86,240611,,,A*70
$GPVTG,125.86,T,,M,1.28,N,2.4,K,A*08
$GPGGA,184921.000,3748.7880,N,12217.8743,W,1,04,3.9,4.0,M,-25.1,M,,0000*68
$GPGSA,A,3,16,03,23,13,,,,,,,,,5.9,3.9,4.4*33
$GPGSV,3,1,12,13,68,350,31,23,63,086,25,07,45,269,39,16,40,053,24*7F
$GPGSV,3,2,12,10,34,305,39,20,29,178,22,08,21,253,39,03,19,103,23*7B
$GPGSV,3,3,12,06,16,087,21,32,12,160,31,04,06,265,,19,05,130,*7C
$GPRMC,184921.000,A,3748.7880,N,12217.8743,W,0.99,70.19,240611,,,A*44
$GPVTG,70.19,T,,M,0.99,N,1.8,K,A*3B
$GPGGA,184922.000,3748.7885,N,12217.8739,W,1,04,3.9,11.2,M,-25.1,M,,0000*55
$GPGSA,A,3,16,03,23,13,,,,,,,,,5.9,3.9,4.4*33
$GPRMC,184922.000,A,3748.7885,N,12217.8739,W,1.17,66.87,240611,,,A*48
$GPVTG,66.87,T,,M,1.17,N,2.2,K,A*35
$GPGGA,184923.000,3748.7873,N,12217.8751,W,1,04,3.9,16.6,M,-25.1,M,,0000*50
$GPGSA,A,3,16,03,23,13,,,,,,,,,5.9,3.9,4.4*33
$GPRMC,184923.000,A,3748.7873,N,12217.8751,W,0.58,154.81,240611,,,A*72
$GPVTG,154.81,T,,M,0.58,N,1.1,K,A*09
$GPGGA,184924.000,3748.7847,N,12217.8767,W,1,04,3.9,21.8,M,-25.1,M,,0000*5F
$GPGSA,A,3,16,03,23,13,,,,,,,,,5.9,3.9,4.4*33
$GPRMC,184924.000,A,3748.7847,N,12217.8767,W,1.94,179.08,240611,,,A*78
$GPVTG,179.08,T,,M,1.94,N,3.6,K,A*03
$GPGGA,184925.000,3748.7834,N,12217.8783,W,1,04,3.9,25.3,M,-25.1,M,,0000*5F
$GPGSA,A,3,16,03,23,13,,,,,,,,,5.9,3.9,4.4*33
$GPRMC,184925.000,A,3748.7834,N,12217.8783,W,2.49,179.01,240611,,,A*7D
$GPVTG,179.01,T,,M,2.49,N,4.6,K,A*0E
$GPGGA,184926.000,3748.7826,N,12217.8800,W,1,04,3.9,25.4,M,-25.1,M,,0000*5C
$GPGSA,A,3,16,03,23,13,,,,,,,,,5.9,3.9,4.4*33
$GPGSV,3,1,12,13,68,350,31,23,63,086,24,07,45,269,39,16,40,053,21*7B
$GPGSV,3,2,12,10,34,305,39,20,29,178,22,08,21,253,40,03,19,103,27*71
$GPGSV,3,3,12,06,16,087,24,32,12,160,24,04,06,265,,19,05,130,*7D
$GPRMC,184926.000,A,3748.7826,N,12217.8800,W,2.69,173.82,240611,,,A*7A
$GPGGA,184927.000,3748.7830,N,12217.8810,W,1,04,3.9,23.6,M,-25.1,M,,0000*5F
$GPGSA,A,3,16,03,23,13,,,,,,,,,5.9,3.9,4.4*33
$GPRMC,184927.000,A,3748.7830,N,12217.8810,W,1.92,145.12,240611,,,A*76
$GPVTG,145.12,T,,M,1.92,N,3.6,K,A*01
$GPGGA,184928.000,3748.7820,N,12217.8828,W,1,04,3.9,22.5,M,-25.1,M,,0000*58
$GPGSA,A,3,16,03,23,13,,,,,,,,,5.9,3.9,4.4*33
$GPRMC,184928.000,A,3748.7820,N,12217.8828,W,1.26,153.28,240611,,,A*72
$GPVTG,153.28,T,,M,1.26,N,2.3,K,A*04
$GPGGA,184929.000,3748.7819,N,12217.8820,W,1,04,3.9,25.8,M,-25.1,M,,0000*51
$GPGSA,A,3,16,03,23,13,,,,,,,,,5.9,3.9,4.4*33
$GPRMC,184929.000,A,3748.7819,N,12217.8820,W,0.92,106.98,240611,,,A*74
$GPVTG,106.98,T,,M,0.92,N,1.7,K,A*06
$GPGGA,184930.000,3748.7818,N,12217.8812,W,1,04,3.9,30.4,M,-25.1,M,,0000*51
$GPGSA,A,3,16,03,23,13,,,,,,,,,5.9,3.9,4.4*33
$GPRMC,184930.000,A,3748.7818,N,12217.8812,W,1.21,84.43,240611,,,A*48
$GPVTG,84.43,T,,M,1.21,N,2.2,K,A*34
$GPGGA,184931.000,3748.7805,N,12217.8831,W,1,04,3.9,30.5,M,-25.1,M,,0000*5C
$GPGSA,A,3,16,03,23,13,,,,,,,,,5.9,3.9,4.5*32
$GPGSV,3,1,12,13,68,350,31,23,63,086,25,07,45,269,39,16,40,053,21*7A
$GPGSV,3,2,12,10,34,305,38,20,29,178,23,08,21,253,41,03,19,103,26*71
$GPGSV,3,3,12,06,16,087,24,32,12,160,25,04,06,265,,19,05,130,*7C
$GPRMC,184931.000,A,3748.7805,N,12217.8831,W,1.61,117.77,240611,,,A*7C
$GPVTG,117.77,T,,M,1.61,N,3.0,K,A*0F
$GPGGA,184932.000,3748.7802,N,12217.8829,W,1,04,3.9,33.6,M,-25.1,M,,0000*51
$GPGSA,A,3,16,03,23,13,,,,,,,,,5.9,3.9,4.5*32
$GPRMC,184932.000,A,3748.7802,N,12217.8829,W,1.71,95.33,240611,,,A*4B
$GPVTG,95.33,T,,M,1.71,N,3.2,K,A*37
$GPGGA,184933.000,3748.7785,N,12217.8857,W,1,04,3.9,32.0,M,-25.1,M,,0000*5E
$GPGSA,A,3,16,03,23,13,,,,,,,,,5.9,3.9,4.5*32
$GPRMC,184933.000,A,3748.7785,N,12217.8857,W,2.01,109.05,240611,,,A*76
$GPVTG,109.05,T,,M,2.01,N,3.7,K,A*07
$GPGGA,184934.000,3748.7775,N,12217.8871,W,1,04,3.9,31.1,M,-25.1,M,,0000*50
$GPGSA,A,3,16,03,23,13,,,,,,,,,5.9,3.9,4.5*32
$GPRMC,184934.000,A,3748.7775,N,12217.8871,W,2.13,89.43,240611,,,A*42
$GPVTG,89.43,T,,M,2.13,N,3.9,K,A*31
$GPGGA,184935.000,3748.7766,N,12217.8881,W,1,04,3.9,30.8,M,-25.1,M,,0000*54
$GPGSA,A,3,16,03,23,13,,,,,,,,,5.9,3.9,4.5*32
$GPRMC,184935.000,A,3748.7766,N,12217.8881,W,1.51,119.97,240611,,,A*7A
$GPVTG,119.97,T,,M,1.51,N,2.8,K,A*05
$GPGGA,184936.000,3748.7752,N,12217.8906,W,1,04,3.9,28.0,M,-25.1,M,,0000*5F
$GPGSA,A,3,16,03,23,13,,,,,,,,,5.9,3.9,4.5*32
$GPGSV,3,1,12,13,68,350,30,23,63,086,24,07,45,269,39,16,40,053,21*7A
$GPGSV,3,2,12,10,34,305,38,20,29,178,23,08,21,253,41,03,19,103,27*70
$GPGSV,3,3,12,06,16,087,28,32,12,160,31,04,06,265,,19,05,130,*75
$GPRMC,184936.000,A,3748.7752,N,12217.8906,W,1.83,156.98,240611,,,A*7B
$GPVTG,156.98,T,,M,1.83,N,3.4,K,A*03
$GPGGA,184937.000,3748.7744,N,12217.8918,W,1,04,3.9,25.7,M,-25.1,M,,0000*5C
$GPGSA,A,3,16,03,23,13,,,,,,,,,5.9,3.9,4.5*32
$GPRMC,184937.000,A,3748.7744,N,12217.8918,W,1.05,148.86,240611,,,A*7C
$GPVTG,148.86,T,,M,1.05,N,1.9,K,A*02
$GPGGA,184938.000,3748.7729,N,12217.8933,W,1,04,3.9,24.6,M,-25.1,M,,0000*51
$GPGSA,A,3,16,03,23,13,,,,,,,,,5.9,3.9,4.5*32
$GPRMC,184938.000,A,3748.7729,N,12217.8933,W,1.18,172.87,240611,,,A*75
$GPVTG,172.87,T,,M,1.18,N,2.2,K,A*0E
$GPGGA,184939.000,3748.7722,N,12217.8924,W,1,04,3.9,27.3,M,-25.1,M,,0000*5B
$GPGSA,A,3,16,03,23,13,,,,,,,,,5.9,3.9,4.5*32
$GPRMC,184939.000,A,3748.7722,N,12217.8924,W,1.15,126.79,240611,,,A*74
$GPVTG,126.79,T,,M,1.15,N,2.1,K,A*00
$GPGGA,184940.000,3748.7735,N,12217.8895,W,1,04,3.9,31.3,M,-25.1,M,,0000*5F
$GPGSA,A,3,16,03,23,13,,,,,,,,,5.9,3.9,4.5*32
$GPRMC,184940.000,A,3748.7735,N,12217.8895,W,2.82,70.79,240611,,,A*48
$GPVTG,70.79,T,,M,2.82,N,5.2,K,A*3B
$GPGGA,184941.000,3748.7746,N,12217.8878,W,1,04,3.9,32.7,M,-25.1,M,,0000*5E
$GPGSA,A,3,16,03,23,13,,,,,,,,,5.9,3.9,4.5*32
$GPGSV,3,1,12,13,68,351,30,23,63,086,24,07,45,269,39,16,40,053,21*7B
$GPGSV,3,2,12,10,34,305,37,20,29,178,23,08,21,253,41,03,20,103,25*77
$GPGSV,3,3,12,06,16,087,27,32,11,160,27,04,06,265,,19,05,129,*76
$GPRMC,184941.000,A,3748.7746,N,12217.8878,W,2.70,59.15,240611,,,A*42
$GPVTG,59.15,T,,M,2.70,N,5.0,K,A*35
$GPGGA,184942.000,3748.7767,N,12217.8878,W,1,04,3.9,29.9,M,-25.1,M,,0000*5A
$GPGSA,A,3,16,03,23,13,,,,,,,,,5.9,3.9,4.5*32
$GPRMC,184942.000,A,3748.7767,N,12217.8878,W,2.32,49.52,240611,,,A*46
$GPVTG,49.52,T,,M,2.32,N,4.3,K,A*33
$GPGGA,184943.000,3748.7789,N,12217.8852,W,1,04,3.9,31.2,M,-25.1,M,,0000*51
$GPGSA,A,3,16,03,23,13,,,,,,,,,5.9,3.9,4.5*32
$GPRMC,184943.000,A,3748.7789,N,12217.8852,W,2.31,48.19,240611,,,A*42
$GPVTG,48.19,T,,M,2.31,N,4.3,K,A*3E
$GPGGA,184944.000,3748.7798,N,12217.8839,W,1,04,3.9,32.4,M,-25.1,M,,0000*5E
$GPGSA,A,3,16,03,23,13,,,,,,,,,5.9,3.9,4.5*32
$GPRMC,184944.000,A,3748.7798,N,12217.8839,W,3.09,51.83,240611,,,A*49
$GPVTG,51.83,T,,M,3.09,N,5.7,K,A*3A
$GPGGA,184945.000,3748.7805,N,12217.8825,W,1,04,3.9,34.3,M,-25.1,M,,0000*58
$GPGSA,A,3,16,03,23,13,,,,,,,,,5.9,3.9,4.5*32
$GPRMC,184945.000,A,3748.7805,N,12217.8825,W,3.23,52.03,240611,,,A*4D
$GPVTG,52.03,T,,M,3.23,N,6.0,K,A*3D
$GPGGA,184946.000,3748.7804,N,12217.8824,W,1,04,3.9,34.9,M,-25.1,M,,0000*51
$GPGSA,A,3,16,03,23,13,,,,,,,,,5.9,3.9,4.5*32
$GPGSV,3,1,12,13,68,351,30,23,63,087,25,07,45,269,39,16,40,053,24*7E
$GPGSV,3,2,12,10,34,305,37,20,29,178,23,08,21,253,41,03,20,103,25*77
$GPGSV,3,3,12,06,16,087,27,32,11,160,28,04,06,265,,19,05,129,*79
$GPRMC,184946.000,A,3748.7804,N,12217.8824,W,2.37,70.85,240611,,,A*44
$GPVTG,70.85,T,,M,2.37,N,4.4,K,A*31
$GPGGA,184947.000,3748.7798,N,12217.8823,W,1,04,3.9,36.7,M,-25.1,M,,0000*51
$GPGSA,A,3,16,03,23,13,,,,,,,,,5.9,3.9,4.5*32
$GPRMC,184947.000,A,3748.7798,N,12217.8823,W,1.64,66.09,240611,,,A*4E
$GPVTG,66.09,T,,M,1.64,N,3.0,K,A*34
$GPGGA,184948.000,3748.7791,N,12217.8826,W,1,04,3.9,38.4,M,-25.1,M,,0000*5F
$GPGSA,A,3,16,03,23,13,,,,,,,,,5.9,3.9,4.5*32
$GPRMC,184948.000,A,3748.7791,N,12217.8826,W,2.42,79.62,240611,,,A*49
$GPVTG,79.62,T,,M,2.42,N,4.5,K,A*32
$GPGGA,184949.000,3748.7787,N,12217.8813,W,1,04,3.9,42.2,M,-25.1,M,,0000*54
$GPGSA,A,3,16,03,23,13,,,,,,,,,5.9,3.9,4.5*32
$GPRMC,184949.000,A,3748.7787,N,12217.8813,W,2.42,103.46,240611,,,A*73
$GPVTG,103.46,T,,M,2.42,N,4.5,K,A*08
$GPGGA,184950.000,3748.7790,N,12217.8808,W,1,04,3.9,43.2,M,-25.1,M,,0000*51
$GPGSA,A,3,16,03,23,13,,,,,,,,,5.9,3.9,4.5*32
$GPRMC,184950.000,A,3748.7790,N,12217.8808,W,1.64,108.37,240611,,,A*7D
$GPVTG,108.37,T,,M,1.64,N,3.0,K,A*00
$GPGGA,184951.000,3748.7741,N,12217.8905,W,1,07,1.6,26.5,M,-25.1,M,,0000*5A
$GPGSA,A,3,16,10,03,23,13,07,08,,,,,,2.6,1.6,2.0*3A
$GPGSV,3,1,12,13,68,351,30,23,63,087,26,07,45,269,39,16,40,053,24*7D
$GPGSV,3,2,12,10,34,305,38,20,29,178,23,08,21,253,41,03,20,103,24*79
$GPGSV,3,3,12,06,16,087,26,32,11,160,28,04,06,265,,19,05,129,*78
$GPRMC,184951.000,A,3748.7741,N,12217.8905,W,2.01,193.54,240611,,,A*7B
$GPVTG,193.54,T,,M,2.01,N,3.7,K,A*00
$GPGGA,184952.000,3748.7727,N,12217.8921,W,1,07,1.6,24.9,M,-25.1,M,,0000*51
$GPGSA,A,3,16,10,03,23,13,07,08,,,,,,2.6,1.6,2.0*3A
$GPRMC,184952.000,A,3748.7727,N,12217.8921,W,1.67,192.65,240611,,,A*7E
$GPVTG,192.65,T,,M,1.67,N,3.1,K,A*06
$GPGGA,184953.000,3748.7717,N,12217.8935,W,1,07,1.6,23.6,M,-25.1,M,,0000*5E
$GPGSA,A,3,16,10,03,23,13,07,08,,,,,,2.6,1.6,2.0*3A
$GPRMC,184953.000,A,3748.7717,N,12217.8935,W,1.94,196.58,240611,,,A*7F
$GPVTG,196.58,T,,M,1.94,N,3.6,K,A*07
$GPGGA,184954.000,3748.7710,N,12217.8947,W,1,07,1.6,23.2,M,-25.1,M,,0000*5F
$GPGSA,A,3,16,10,03,23,13,07,08,,,,,,2.6,1.6,2.0*3A
$GPRMC,184954.000,A,3748.7710,N,12217.8947,W,1.85,192.56,240611,,,A*70
$GPVTG,192.56,T,,M,1.85,N,3.4,K,A*0F
$GPGGA,184955.000,3748.7702,N,12217.8955,W,1,07,1.6,23.7,M,-25.1,M,,0000*5B
$GPGSA,A,3,16,10,03,23,13,07,08,,,,,,2.6,1.6,2.0*3A
$GPRMC,184955.000,A,3748.7702,N,12217.8955,W,1.89,196.76,240611,,,A*7B
$GPVTG,196.76,T,,M,1.89,N,3.5,K,A*04
$GPGGA,184956.000,3748.7694,N,12217.8963,W,1,07,1.6,23.5,M,-25.1,M,,0000*51
$GPGSA,A,3,16,10,03,23,13,07,08,,,,,,2.6,1.6,2.0*3A
$GPGSV,3,1,12,13,68,351,30,23,63,087,25,07,45,269,40,16,40,053,24*70
$GPGSV,3,2,12,10,34,305,38,20,28,178,22,08,21,253,41,03,20,103,25*78
$GPGSV,3,3,12,06,16,087,26,32,11,160,28,04,06,265,18,19,05,129,*71
$GPRMC,184956.000,A,3748.7694,N,12217.8963,W,1.80,199.84,240611,,,A*78
$GPGGA,184957.000,3748.7687,N,12217.8969,W,1,07,1.6,23.1,M,-25.1,M,,0000*5C
$GPGSA,A,3,16,10,03,23,13,07,08,,,,,,2.6,1.6,2.0*3A
$GPRMC,184957.000,A,3748.7687,N,12217.8969,W,2.16,187.01,240611,,,A*7F
$GPVTG,187.01,T,,M,2.16,N,4.0,K,A*03
$GPGGA,184958.000,3748.7680,N,12217.8974,W,1,07,1.6,22.6,M,-25.1,M,,0000*5E
$GPGSA,A,3,16,10,03,23,13,07,08,,,,,,2.6,1.6,2.0*3A
$GPRMC,184958.000,A,3748.7680,N,12217.8974,W,1.91,197.81,240611,,,A*7E
$GPVTG,197.81,T,,M,1.91,N,3.5,K,A*04
$GPGGA,184959.000,3748.7674,N,12217.8979,W,1,07,1.6,22.1,M,-25.1,M,,0000*5E
$GPGSA,A,3,16,10,03,23,13,07,08,,,,,,2.6,1.6,2.0*3A
$GPRMC,184959.000,A,3748.7674,N,12217.8979,W,1.93,199.89,240611,,,A*7D
$GPVTG,199.89,T,,M,1.93,N,3.6,K,A*03
$GPGGA,185000.000,3748.7668,N,12217.8985,W,1,07,1.6,22.1,M,-25.1,M,,0000*54
$GPGSA,A,3,16,10,03,23,13,07,08,,,,,,2.6,1.6,2.0*3A
$GPRMC,185000.000,A,3748.7668,N,12217.8985,W,1.86,195.73,240611,,,A*7A
$GPVTG,195.73,T,,M,1.86,N,3.5,K,A*0D
$GPGGA,185001.000,3748.7663,N,12217.8991,W,1,07,1.6,22.1,M,-25.1,M,,0000*5B
$GPGSA,A,3,16,10,03,23,13,07,08,,,,,,2.6,1.6,2.0*3A
$GPGSV,3,1,12,13,68,351,30,23,63,087,25,07,45,269,40,16,40,053,23*77
$GPGSV,3,2,12,10,34,305,38,20,28,178,22,08,21,253,41,03,20,103,25*78
$GPGSV,3,3,12,06,16,087,25,32,11,160,23,04,06,265,23,19,05,129,*71
$GPRMC,185001.000,A,3748.7663,N,12217.8991,W,1.76,196.18,240611,,,A*74
$GPVTG,196.18,T,,M,1.76,N,3.3,K,A*0A
$GPGGA,185002.000,3748.7658,N,12217.8997,W,1,07,1.6,22.0,M,-25.1,M,,0000*57
$GPGSA,A,3,16,10,03,23,13,07,08,,,,,,2.6,1.6,2.0*3A
$GPRMC,185002.000,A,3748.7658,N,12217.8997,W,1.97,190.10,240611,,,A*78
$GPVTG,190.10,T,,M,1.97,N,3.6,K,A*0E
$GPGGA,185003.000,3748.7653,N,12217.9002,W,1,07,1.6,21.9,M,-25.1,M,,0000*53
$GPGSA,A,3,16,10,03,23,13,07,08,,,,,,2.6,1.6,2.0*3A
$GPRMC,185003.000,A,3748.7653,N,12217.9002,W,1.88,197.30,240611,,,A*7D
$GPVTG,197.30,T,,M,1.88,N,3.5,K,A*06
$GPGGA,185004.000,3748.7648,N,12217.9008,W,1,07,1.6,21.9,M,-25.1,M,,0000*54
$GPGSA,A,3,16,10,03,23,13,07,08,,,,,,2.6,1.6,2.0*3A
$GPRMC,185004.000,A,3748.7648,N,12217.9008,W,1.80,194.61,240611,,,A*75
$GPVTG,194.61,T,,M,1.80,N,3.3,K,A*0F
$GPGGA,185005.000,3748.7643,N,12217.9013,W,1,07,1.6,21.8,M,-25.1,M,,0000*55
$GPGSA,A,3,16,10,03,23,13,07,08,,,,,,2.6,1.6,2.0*3A
$GPRMC,185005.000,A,3748.7643,N,12217.9013,W,1.97,187.01,240611,,,A*77
$GPVTG,187.01,T,,M,1.97,N,3.6,K,A*08
$GPGGA,185006.000,3748.7635,N,12217.9014,W,1,07,1.6,22.1,M,-25.1,M,,0000*5A
$GPGSA,A,3,16,10,03,23,13,07,08,,,,,,2.6,1.6,2.0*3A
$GPGSV,3,1,12,13,68,351,30,23,63,087,25,07,45,269,41,16,40,053,23*76
$GPGSV,3,2,12,10,34,305,38,20,28,178,35,08,21,253,41,03,20,103,25*7E
$GPGSV,3,3,12,06,16,087,25,32,11,160,27,04,06,265,18,19,05,129,*7D
$GPRMC,185006.000,A,3748.7635,N,12217.9014,W,1.87,189.50,240611,,,A*79
$GPVTG,189.50,T,,M,1.87,N,3.5,K,A*00
$GPGGA,185007.000,3748.7629,N,12217.9015,W,1,07,1.6,22.2,M,-25.1,M,,0000*54
$GPGSA,A,3,16,10,03,23,13,07,08,,,,,,2.6,1.6,2.0*3A
$GPRMC,185007.000,A,3748.7629,N,12217.9015,W,1.46,197.12,240611,,,A*70
$GPVTG,197.12,T,,M,1.46,N,2.7,K,A*07
$GPGGA,185008.000,3748.7621,N,12217.9018,W,1,07,1.6,22.8,M,-25.1,M,,0000*54
$GPGSA,A,3,16,10,03,23,13,07,08,,,,,,2.6,1.6,2.0*3A
$GPRMC,185008.000,A,3748.7621,N,12217.9018,W,2.03,201.60,240611,,,A*71
$GPVTG,201.60,T,,M,2.03,N,3.8,K,A*02
$GPGGA,185009.000,3748.7613,N,12217.9020,W,1,07,1.6,23.0,M,-25.1,M,,0000*56
$GPGSA,A,3,16,10,03,23,13,07,08,,,,,,2.6,1.6,2.0*3A
$GPRMC,185009.000,A,3748.7613,N,12217.9020,W,1.90,203.84,240611,,,A*7B
$GPVTG,203.84,T,,M,1.90,N,3.5,K,A*0E
$GPGGA,185010.000,3748.7607,N,12217.9024,W,1,07,1.6,23.0,M,-25.1,M,,0000*5F
$GPGSA,A,3,16,10,03,23,13,07,08,,,,,,2.6,1.6,2.0*3A
$GPRMC,185010.000,A,3748.7607,N,12217.9024,W,2.12,210.82,240611,,,A*7F
$GPVTG,210.82,T,,M,2.12,N,3.9,K,A*0F
$GPGGA,185011.000,3748.7600,N,12217.9026,W,1,07,1.6,22.5,M,-25.1,M,,0000*5F
$GPGSA,A,3,16,10,03,23,13,07,08,,,,,,2.6,1.6,2.0*3A
$GPGSV,3,1,12,13,68,351,29,23,63,087,27,07,45,269,40,16,40,053,21*7F
$GPGSV,3,2,12,10,34,305,37,20,28,178,34,08,21,253,41,03,20,103,24*71
$GPGSV,3,3,12,06,16,087,25,32,11,160,29,04,06,265,18,19,05,129,*73
$GPVTG,197.48,T,,M,2.08,N,3.8,K,A*0F
$GPGGA,185012.000,3748.7594,N,12217.9029,W,1,07,1.6,22.3,M,-25.1,M,,0000*5B
$GPGSA,A,3,16,10,03,23,13,07,08,,,,,,2.6,1.6,2.0*3A
$GPRMC,185012.000,A,3748.7594,N,12217.9029,W,1.77,211.51,240611,,,A*76
$GPVTG,211.51,T,,M,1.77,N,3.3,K,A*0A
$GPGGA,185013.000,3748.7588,N,12217.9033,W,1,07,1.6,22.2,M,-25.1,M,,0000*5D
$GPGSA,A,3,16,10,03,23,13,07,08,,,,,,2.6,1.6,2.0*3A
$GPRMC,185013.000,A,3748.7588,N,12217.9033,W,1.87,205.05,240611,,,A*7A
$GPVTG,205.05,T,,M,1.87,N,3.5,K,A*07
$GPGGA,185014.000,3748.7583,N,12217.9035,W,1,07,1.6,22.0,M,-25.1,M,,0000*55
$GPGSA,A,3,16,10,03,23,13,07,08,,,,,,2.6,1.6,2.0*3A
$GPRMC,185014.000,A,3748.7583,N,12217.9035,W,1.84,194.04,240611,,,A*79
$GPVTG,194.04,T,,M,1.84,N,3.4,K,A*0F
$GPGGA,185015.000,3748.7577,N,12217.9037,W,1,07,1.6,21.6,M,-25.1,M,,0000*58
$GPGSA,A,3,16,10,03,23,13,07,08,,,,,,2.6,1.6,2.0*3A
$GPRMC,185015.000,A,3748.7577,N,12217.9037,W,1.94,198.04,240611,,,A*7C
$GPVTG,198.04,T,,M,1.94,N,3.6,K,A*00
$GPGGA,185016.000,3748.7571,N,12217.9040,W,1,07,1.6,21.2,M,-25.1,M,,0000*59
$GPGSA,A,3,16,10,03,23,13,07,08,,,,,,2.6,1.6,2.0*3A
$GPGSV,3,1,12,13,68,351,29,23,63,087,28,07,45,269,40,16,40,053,21*70
$GPGSV,3,2,12,10,35,305,36,20,28,178,36,08,21,254,41,03,20,103,24*74
$GPGSV,3,3,12,06,16,087,25,32,11,160,26,04,06,264,18,19,05,129,*7D
$GPRMC,185016.000,A,3748.7571,N,12217.9040,W,1.96,190.23,240611,,,A*76
$GPVTG,190.23,T,,M,1.96,N,3.6,K,A*0F
$GPGGA,185017.000,3748.7565,N,12217.9045,W,1,07,1.6,21.6,M,-25.1,M,,0000*5C
$GPGSA,A,3,16,10,03,23,13,07,08,,,,,,2.6,1.6,2.0*3A
$GPRMC,185017.000,A,3748.7565,N,12217.9045,W,1.93,209.37,240611,,,A*74
$GPVTG,209.37,T,,M,1.93,N,3.6,K,A*0C
$GPGGA,185018.000,3748.7560,N,12217.9051,W,1,07,1.6,22.0,M,-25.1,M,,0000*56
$GPGSA,A,3,16,10,03,23,13,07,08,,,,,,2.6,1.6,2.0*3A
$GPRMC,185018.000,A,3748.7560,N,12217.9051,W,1.94,208.03,240611,,,A*7A
$GPVTG,208.03,T,,M,1.94,N,3.6,K,A*0D
$GPGGA,185019.000,3748.7554,N,12217.9055,W,1,07,1.6,21.7,M,-25.1,M,,0000*50
$GPGSA,A,3,16,10,03,23,13,07,08,,,,,,2.6,1.6,2.0*3A
$GPRMC,185019.000,A,3748.7554,N,12217.9055,W,2.05,206.64,240611,,,A*7C
$GPVTG,206.64,T,,M,2.05,N,3.8,K,A*07
$GPGGA,185020.000,3748.7548,N,12217.9058,W,1,07,1.6,21.4,M,-25.1,M,,0000*59
$GPGSA,A,3,16,10,03,23,13,07,08,,,,,,2.6,1.6,2.0*3A
$GPRMC,185020.000,A,3748.7548,N,12217.9058,W,2.16,204.14,240611,,,A*71
$GPVTG,204.14,T,,M,2.16,N,4.0,K,A*0F
$GPGGA,185021.000,3748.7544,N,12217.9061,W,1,07,1.6,20.4,M,-25.1,M,,0000*5F
$GPGSA,A,3,16,10,03,23,13,07,08,,,,,,2.6,1.6,2.0*3A
$GPGSV,3,1,12,13,68,351,30,23,63,087,28,07,45,269,39,16,40,053,22*75
$GPGSV,3,2,12,10,35,305,37,20,28,178,27,08,21,254,41,03,20,103,25*74
$GPGSV,3,3,12,06,16,087,29,32,11,160,32,04,06,264,17,19,05,129,*7B
$GPRMC,185021.000,A,3748.7544,N,12217.9061,W,1.78,194.32,240611,,,A*73
$GPVTG,194.32,T,,M,1.78,N,3.3,K,A*0E
$GPGGA,185022.000,3748.7538,N,12217.9063,W,1,07,1.6,19.9,M,-25.1,M,,0000*52
$GPGSA,A,3,16,10,03,23,13,07,08,,,,,,2.6,1.6,2.0*3A
$GPRMC,185022.000,A,3748.7538,N,12217.9063,W,1.77,190.08,240611,,,A*7B
$GPVTG,190.08,T,,M,1.77,N,3.3,K,A*0C
$GPGGA,185023.000,3748.7535,N,12217.9067,W,1,07,1.6,19.1,M,-25.1,M,,0000*52
$GPGSA,A,3,16,10,03,23,13,07,08,,,,,,2.6,1.6,2.0*3A
$GPRMC,185023.000,A,3748.7535,N,12217.9067,W,1.87,204.20,240611,,,A*78
$GPVTG,204.20,T,,M,1.87,N,3.5,K,A*01
$GPGGA,185024.000,3748.7530,N,12217.9070,W,1,07,1.6,18.6,M,-25.1,M,,0000*50
$GPGSA,A,3,16,10,03,23,13,07,08,,,,,,2.6,1.6,2.0*3A
$GPRMC,185024.000,A,3748.7530,N,12217.9070,W,1.95,192.57,240611,,,A*73
$GPVTG,192.57,T,,M,1.95,N,3.6,K,A*0D
$GPGGA,185025.000,3748.7524,N,12217.9071,W,1,07,1.6,17.9,M,-25.1,M,,0000*55
$GPGSA,A,3,16,10,03,23,13,07,08,,,,,,2.6,1.6,2.0*3A
$GPRMC,185025.000,A,3748.7524,N,12217.9071,W,1.89,190.97,240611,,,A*75
$GPVTG,190.97,T,,M,1.89,N,3.5,K,A*0D
$GPGGA,185026.000,3748.7517,N,12217.9074,W,1,07,1.6,17.5,M,-25.1,M,,0000*5F
$GPGSA,A,3,16,10,03,23,13,07,08,,,,,,2.6,1.6,2.0*3A
$GPGSV,3,1,12,13,68,351,30,23,63,087,28,07,45,269,32,16,40,053,27*7B
$GPGSV,3,2,12,10,35,305,38,20,28,178,36,08,21,254,41,03,20,103,25*7B
$GPGSV,3,3,12,06,16,087,27,32,11,160,30,04,06,264,17,19,05,129,*77
$GPRMC,185026.000,A,3748.7517,N,12217.9074,W,1.88,186.25,240611,,,A*7C
$GPVTG,186.25,T,,M,1.88,N,3.5,K,A*02
$GPGGA,185027.000,3748.7512,N,12217.9073,W,1,07,1.6,16.4,M,-25.1,M,,0000*5C
$GPGSA,A,3,16,10,03,23,13,07,08,,,,,,2.6,1.6,2.0*3A
$GPRMC,185027.000,A,3748.7512,N,12217.9073,W,1.75,188.59,240611,,,A*78
$GPVTG,188.59,T,,M,1.75,N,3.2,K,A*02
$GPGGA,185028.000,3748.7506,N,12217.9074,W,1,07,1.6,15.5,M,-25.1,M,,0000*53
$GPGSA,A,3,16,10,03,23,13,07,08,,,,,,2.6,1.6,2.0*3A
$GPRMC,185028.000,A,3748.7506,N,12217.9074,W,1.83,190.91,240611,,,A*71
$GPVTG,190.91,T,,M,1.83,N,3.4,K,A*00
$GPGGA,185029.000,3748.7495,N,12217.9080,W,1,07,1.6,16.5,M,-25.1,M,,0000*51
$GPGSA,A,3,16,10,03,23,13,07,08,,,,,,2.6,1.6,2.0*3A
$GPRMC,185029.000,A,3748.7495,N,12217.9080,W,1.66,203.35,240611,,,A*7C
$GPVTG,203.35,T,,M,1.66,N,3.1,K,A*09
$GPGGA,185030.000,3748.7490,N,12217.9087,W,1,07,1.6,17.3,M,-25.1,M,,0000*5C
$GPGSA,A,3,16,10,03,23,13,07,08,,,,,,2.6,1.6,2.0*3A
$GPRMC,185030.000,A,3748.7490,N,12217.9087,W,1.62,205.89,240611,,,A*73
$GPVTG,205.89,T,,M,1.62,N,3.0,K,A*0D
$GPGGA,185031.000,3748.7486,N,12217.9093,W,1,07,1.6,18.2,M,-25.1,M,,0000*51
$GPGSA,A,3,16,10,03,23,13,07,08,,,,,,2.6,1.6,2.0*3A
$GPGSV,3,1,12,13,68,351,24,23,63,087,28,07,45,269,39,16,40,053,24*76
$GPGSV,3,2,12,10,35,305,38,20,28,178,25,08,21,254,41,03,20,103,25*79
$GPGSV,3,3,12,06,16,087,27,32,11,160,33,04,06,264,17,19,05,129,*74
$GPRMC,185031.000,A,3748.7486,N,12217.9093,W,1.81,214.41,240611,,,A*79
$GPGGA,185032.000,3748.7480,N,12217.9099,W,1,07,1.6,19.0,M,-25.1,M,,0000*5D
$GPGSA,A,3,16,10,03,23,13,07,08,,,,,,2.6,1.6,2.0*3A
$GPRMC,185032.000,A,3748.7480,N,12217.9099,W,1.97,208.04,240611,,,A*7D
$GPVTG,208.04,T,,M,1.97,N,3.6,K,A*09
$GPGGA,185033.000,3748.7474,N,12217.9104,W,1,07,1.6,19.3,M,-25.1,M,,0000*51
$GPGSA,A,3,16,10,03,23,13,07,08,,,,,,2.6,1.6,2.0*3A
$GPRMC,185033.000,A,3748.7474,N,12217.9104,W,2.00,212.00,240611,,,A*70
$GPVTG,212.00,T,,M,2.00,N,3.7,K,A*0A
$GPGGA,185034.000,3748.7469,N,12217.9109,W,1,07,1.6,19.7,M,-25.1,M,,0000*53
$GPGSA,A,3,16,10,03,23,13,07,08,,,,,,2.6,1.6,2.0*3A
$GPRMC,185034.000,A,3748.7469,N,12217.9109,W,2.17,207.86,240611,,,A*7A
$GPVTG,207.86,T,,M,2.17,N,4.0,K,A*06
$GPGGA,185035.000,3748.7463,N,12217.9115,W,1,07,1.6,20.3,M,-25.1,M,,0000*5B
$GPGSA,A,3,16,10,03,23,13,07,08,,,,,,2.6,1.6,2.0*3A
$GPRMC,185035.000,A,3748.7463,N,12217.9115,W,2.24,207.23,240611,,,A*73
$GPVTG,207.23,T,,M,2.24,N,4.2,K,A*0B
$GPGGA,185036.000,3748.7456,N,12217.9121,W,1,07,1.6,21.0,M,-25.1,M,,0000*5B
$GPGSA,A,3,16,10,03,23,13,07,08,,,,,,2.6,1.6,2.0*3A
$GPGSV,3,1,12,13,68,351,29,23,63,087,29,07,45,269,40,16,40,053,20*70
$GPGSV,3,2,12,10,35,305,37,20,28,178,37,08,21,254,42,03,20,103,25*76
$GPGSV,3,3,12,06,16,087,26,32,11,160,26,04,06,264,17,19,05,129,*71
$GPRMC,185036.000,A,3748.7456,N,12217.9121,W,2.35,210.97,240611,,,A*78
$GPVTG,210.97,T,,M,2.35,N,4.4,K,A*04
$GPGGA,185037.000,3748.7451,N,12217.9127,W,1,07,1.6,21.4,M,-25.1,M,,0000*5F
$GPGSA,A,3,16,10,03,23,13,07,08,,,,,,2.6,1.6,2.0*3A
$GPRMC,185037.000,A,3748.7451,N,12217.9127,W,2.19,204.29,240611,,,A*76
$GPVTG,204.29,T,,M,2.19,N,4.1,K,A*0F
$GPGGA,185038.000,3748.7445,N,12217.9131,W,1,07,1.6,21.5,M,-25.1,M,,0000*53
$GPGSA,A,3,16,10,03,23,13,07,08,,,,,,2.6,1.6,2.0*3A
$GPRMC,185038.000,A,3748.7445,N,12217.9131,W,2.11,200.07,240611,,,A*7B
$GPVTG,200.07,T,,M,2.11,N,3.9,K,A*00
$GPGGA,185039.000,3748.7439,N,12217.9137,W,1,07,1.6,22.8,M,-25.1,M,,0000*51
$GPGSA,A,3,16,10,03,23,13,07,08,,,,,,2.6,1.6,2.0*3A
$GPRMC,185039.000,A,3748.7439,N,12217.9137,W,2.29,206.81,240611,,,A*74
$GPVTG,206.81,T,,M,2.29,N,4.2,K,A*0F
$GPGGA,185040.000,3748.7435,N,12217.9138,W,1,07,1.6,22.2,M,-25.1,M,,0000*56
$GPGSA,A,3,16,10,03,23,13,07,08,,,,,,2.6,1.6,2.0*3A
$GPRMC,185040.000,A,3748.7435,N,12217.9138,W,1.98,208.83,240611,,,A*7C
$GPVTG,208.83,T,,M,1.98,N,3.7,K,A*08
$GPGGA,185041.000,3748.7430,N,12217.9138,W,1,07,1.6,21.2,M,-25.1,M,,0000*51
$GPGSA,A,3,16,10,03,23,13,07,08,,,,,,2.6,1.6,2.0*3A
$GPGSV,3,1,12,13,68,351,28,23,63,087,30,07,45,269,40,16,40,053,27*7E
$GPGSV,3,2,12,10,35,305,35,20,28,178,36,08,21,254,41,03,20,103,25*76
$GPGSV,3,3,12,06,16,087,26,32,11,160,26,04,06,264,17,19,05,129,*71
$GPRMC,185041.000,A,3748.7430,N,12217.9138,W,2.11,191.16,240611,,,A*75
$GPVTG,191.16,T,,M,2.11,N,3.9,K,A*0B
$GPGGA,185042.000,3748.7426,N,12217.9143,W,1,07,1.6,21.7,M,-25.1,M,,0000*5C
$GPGSA,A,3,16,10,03,23,13,07,08,,,,,,2.6,1.6,2.0*3A
$GPRMC,185042.000,A,3748.7426,N,12217.9143,W,2.06,204.64,240611,,,A*71
$GPVTG,204.64,T,,M,2.06,N,3.8,K,A*06
$GPGGA,185043.000,3748.7421,N,12217.9149,W,1,07,1.6,22.5,M,-25.1,M,,0000*51
$GPGSA,A,3,16,10,03,23,13,07,08,,,,,,2.6,1.6,2.0*3A
$GPRMC,185043.000,A,3748.7421,N,12217.9149,W,1.96,200.09,240611,,,A*78
$GPVTG,200.09,T,,M,1.96,N,3.6,K,A*0D
$GPGGA,185044.000,3748.7415,N,12217.9154,W,1,07,1.6,22.9,M,-25.1,M,,0000*51
$GPGSA,A,3,16,10,03,23,13,07,08,,,,,,2.6,1.6,2.0*3A
$GPRMC,185044.000,A,3748.7415,N,12217.9154,W,1.80,204.33,240611,,,A*7E
$GPVTG,204.33,T,,M,1.80,N,3.3,K,A*02
$GPGGA,185045.000,3748.7409,N,12217.9158,W,1,07,1.6,23.2,M,-25.1,M,,0000*5B
$GPGSA,A,3,16,10,03,23,13,07,08,,,,,,2.6,1.6,2.0*3A
$GPRMC,185045.000,A,3748.7409,N,12217.9158,W,1.93,198.70,240611,,,A*7D
$GPVTG,198.70,T,,M,1.93,N,3.6,K,A*04
$GPGGA,185046.000,3748.7403,N,12217.9162,W,1,07,1.6,23.6,M,-25.1,M,,0000*5F
$GPGSA,A,3,16,10,03,23,13,07,08,,,,,,2.6,1.6,2.0*3A
$GPGSV,3,1,12,13,68,352,28,23,62,087,29,07,45,270,40,16,40,053,22*79
$GPGSV,3,2,12,10,35,304,36,20,28,178,36,08,21,254,41,03,20,102,26*76
$GPRMC,185046.000,A,3748.7403,N,12217.9162,W,2.05,192.39,240611,,,A*76
$GPVTG,192.39,T,,M,2.05,N,3.8,K,A*01
$GPGGA,185047.000,3748.7397,N,12217.9166,W,1,07,1.6,24.1,M,-25.1,M,,0000*50
$GPGSA,A,3,16,10,03,23,13,07,08,,,,,,2.6,1.6,2.0*3A
$GPRMC,185047.000,A,3748.7397,N,12217.9166,W,1.97,198.22,240611,,,A*71
$GPVTG,198.22,T,,M,1.97,N,3.6,K,A*07
$GPGGA,185048.000,3748.7391,N,12217.9165,W,1,07,1.6,22.7,M,-25.1,M,,0000*5A
$GPGSA,A,3,16,10,03,23,13,07,08,,,,,,2.6,1.6,2.0*3A
$GPRMC,185048.000,A,3748.7391,N,12217.9165,W,2.03,191.65,240611,,,A*7F
$GPVTG,191.65,T,,M,2.03,N,3.8,K,A*0D
$GPGGA,185049.000,3748.7386,N,12217.9167,W,1,07,1.6,21.9,M,-25.1,M,,0000*52
$GPGSA,A,3,16,10,03,23,13,07,08,,,,,,2.6,1.6,2.0*3A
$GPRMC,185049.000,A,3748.7386,N,12217.9167,W,2.11,202.82,240611,,,A*79
$GPVTG,202.82,T,,M,2.11,N,3.9,K,A*0F
$GPGGA,185050.000,3748.7380,N,12217.9173,W,1,07,1.6,22.2,M,-25.1,M,,0000*51
$GPGSA,A,3,16,10,03,23,13,07,08,,,,,,2.6,1.6,2.0*3A
$GPRMC,185050.000,A,3748.7380,N,12217.9173,W,2.01,211.49,240611,,,A*76
$GPVTG,211.49,T,,M,2.01,N,3.7,K,A*05
$GPGGA,185051.000,3748.7375,N,12217.9178,W,1,07,1.6,22.2,M,-25.1,M,,0000*51
$GPGSA,A,3,16,10,03,23,13,07,08,,,,,,2.6,1.6,2.0*3A
$GPGSV,3,1,12,13,68,352,28,23,62,087,29,07,45,270,40,16,40,053,23*78
$GPGSV,3,2,12,10,35,304,37,20,28,178,26,08,21,254,41,03,20,102,26*76
$GPGSV,3,3,12,06,16,086,25,32,11,160,26,04,06,264,19,19,06,129,*7E
$GPRMC,185051.000,A,3748.7375,N,12217.9178,W,2.04,206.11,240611,,,A*78
$GPVTG,206.11,T,,M,2.04,N,3.8,K,A*04
$GPGGA,185052.000,3748.7369,N,12217.9182,W,1,07,1.6,22.2,M,-25.1,M,,0000*5A
$GPGSA,A,3,16,10,03,23,13,07,08,,,,,,2.6,1.6,2.0*3A
$GPRMC,185052.000,A,3748.7369,N,12217.9182,W,2.04,205.70,240611,,,A*77
$GPVTG,205.70,T,,M,2.04,N,3.8,K,A*00
$GPGGA,185053.000,3748.7364,N,12217.9185,W,1,07,1.6,22.1,M,-25.1,M,,0000*52
$GPGSA,A,3,16,10,03,23,13,07,08,,,,,,2.6,1.6,2.0*3A
$GPRMC,185053.000,A,3748.7364,N,12217.9185,W,1.55,198.23,240611,,,A*7A
$GPVTG,198.23,T,,M,1.55,N,2.9,K,A*06
$GPGGA,185054.000,3748.7359,N,12217.9190,W,1,07,1.6,22.6,M,-25.1,M,,0000*58
$GPGSA,A,3,16,10,03,23,13,07,08,,,,,,2.6,1.6,2.0*3A
$GPRMC,185054.000,A,3748.7359,N,12217.9190,W,1.52,203.01,240611,,,A*71
$GPVTG,203.01,T,,M,1.52,N,2.8,K,A*01
$GPGGA,185055.000,3748.7355,N,12217.9196,W,1,07,1.6,23.2,M,-25.1,M,,0000*56
$GPGSA,A,3,16,10,03,23,13,07,08,,,,,,2.6,1.6,2.0*3A
$GPRMC,185055.000,A,3748.7355,N,12217.9196,W,1.59,212.14,240611,,,A*75
$GPVTG,212.14,T,,M,1.59,N,2.9,K,A*0F
$GPGGA,185056.000,3748.7350,N,12217.9202,W,1,07,1.6,24.2,M,-25.1,M,,0000*59
$GPGSA,A,3,16,10,03,23,13,07,08,,,,,,2.6,1.6,2.0*3A
$GPGSV,3,1,12,13,68,352,25,23,62,087,29,07,45,270,36,16,40,053,23*74
$GPGSV,3,2,12,10,35,304,35,20,28,178,34,08,21,254,41,03,20,102,26*77
$GPGSV,3,3,12,06,16,086,29,32,11,160,29,04,06,264,19,19,06,129,*7D
$GPRMC,185056.000,A,3748.7350,N,12217.9202,W,1.82,204.63,240611,,,A*7C
$GPVTG,204.63,T,,M,1.82,N,3.4,K,A*02
$GPGGA,185057.000,3748.7345,N,12217.9208,W,1,07,1.6,25.4,M,-25.1,M,,0000*51
$GPGSA,A,3,16,10,03,23,13,07,08,,,,,,2.6,1.6,2.0*3A
$GPRMC,185057.000,A,3748.7345,N,12217.9208,W,2.07,201.33,240611,,,A*7D
$GPVTG,201.33,T,,M,2.07,N,3.8,K,A*00
$GPGGA,185058.000,3748.7340,N,12217.9214,W,1,07,1.6,26.0,M,-25.1,M,,0000*51
$GPGSA,A,3,16,10,03,23,13,07,08,,,,,,2.6,1.6,2.0*3A
$GPRMC,185058.000,A,3748.7340,N,12217.9214,W,2.04,199.30,240611,,,A*78
$GPVTG,199.30,T,,M,2.04,N,3.8,K,A*02
$GPGGA,185059.000,3748.7334,N,12217.9218,W,1,07,1.6,24.9,M,-25.1,M,,0000*54
$GPGSA,A,3,16,10,03,23,13,07,08,,,,,,2.6,1.6,2.0*3A
$GPRMC,185059.000,A,3748.7334,N,12217.9218,W,1.99,198.71,240611,,,A*75
$GPVTG,198.71,T,,M,1.99,N,3.7,K,A*0E
$GPGGA,185100.000,3748.7330,N,12217.9224,W,1,07,1.6,25.2,M,-25.1,M,,0000*58
$GPGSA,A,3,16,10,03,23,13,07,08,,,,,,2.6,1.6,2.0*3A
$GPRMC,185100.000,A,3748.7330,N,12217.9224,W,1.76,198.50,240611,,,A*71
$GPVTG,198.50,T,,M,1.76,N,3.3,K,A*08
$GPGGA,185101.000,3748.7325,N,12217.9228,W,1,07,1.6,24.8,M,-25.1,M,,0000*5A
$GPGSA,A,3,16,10,03,23,13,07,08,,,,,,2.6,1.6,2.0*3A
$GPGSV,3,1,12,13,68,352,27,23,62,087,29,07,45,270,38,16,40,053,23*78
$GPGSV,3,2,12,10,35,304,37,20,28,178,24,08,21,254,41,03,20,102,26*74
$GPGSV,3,3,12,06,16,086,25,32,11,160,29,04,06,264,18,19,06,129,*70
$GPRMC,185101.000,A,3748.7325,N,12217.9228,W,1.66,200.53,240611,,,A*78
$GPVTG,200.53,T,,M,1.66,N,3.1,K,A*0A
$GPGGA,185102.000,3748.7320,N,12217.9231,W,1,07,1.6,24.2,M,-25.1,M,,0000*5E
$GPGSA,A,3,16,10,03,23,13,07,08,,,,,,2.6,1.6,2.0*3A
$GPRMC,185102.000,A,3748.7320,N,12217.9231,W,1.75,204.98,240611,,,A*77
$GPVTG,204.98,T,,M,1.75,N,3.2,K,A*08
$GPGGA,185103.000,3748.7316,N,12217.9236,W,1,07,1.6,23.9,M,-25.1,M,,0000*51
$GPGSA,A,3,16,10,03,23,13,07,08,,,,,,2.6,1.6,2.0*3A
$GPRMC,185103.000,A,3748.7316,N,12217.9236,W,1.69,212.28,240611,,,A*75
$GPVTG,212.28,T,,M,1.69,N,3.1,K,A*0A
$GPGGA,185104.000,3748.7311,N,12217.9239,W,1,07,1.6,23.3,M,-25.1,M,,0000*54
$GPGSA,A,3,16,10,03,23,13,07,08,,,,,,2.6,1.6,2.0*3A
$GPRMC,185104.000,A,3748.7311,N,12217.9239,W,1.71,203.56,240611,,,A*7A
$GPVTG,203.56,T,,M,1.71,N,3.2,K,A*09
$GPGGA,185105.000,3748.7306,N,12217.9241,W,1,07,1.6,22.4,M,-25.1,M,,0000*5A
$GPGSA,A,3,16,10,03,23,13,07,08,,,,,,2.6,1.6,2.0*3A
$GPRMC,185105.000,A,3748.7306,N,12217.9241,W,1.82,202.79,240611,,,A*72
$GPVTG,202.79,T,,M,1.82,N,3.4,K,A*0F
$GPGGA,185106.000,3748.7300,N,12217.9244,W,1,07,1.6,22.1,M,-25.1,M,,0000*5F
$GPGSA,A,3,16,10,03,23,13,07,08,,,,,,2.6,1.6,2.0*3A
$GPGSV,3,1,12,13,68,352,28,23,62,087,29,07,45,270,39,16,40,053,23*76
$GPGSV,3,2,12,10,35,304,37,20,28,178,32,08,21,254,41,03,20,102,26*73
$GPGSV,3,3,12,06,16,086,25,32,11,160,23,04,06,264,18,19,06,129,*7A
$GPVTG,204.13,T,,M,1.73,N,3.2,K,A*0D
$GPGGA,185107.000,3748.7295,N,12217.9247,W,1,07,1.6,21.9,M,-25.1,M,,0000*5B
$GPGSA,A,3,16,10,03,23,13,07,08,,,,,,2.6,1.6,2.0*3A
$GPRMC,185107.000,A,3748.7295,N,12217.9247,W,1.56,188.83,240611,,,A*70
$GPVTG,188.83,T,,M,1.56,N,2.9,K,A*0E
$GPGGA,185108.000,3748.7290,N,12217.9252,W,1,07,1.6,22.3,M,-25.1,M,,0000*5C
$GPGSA,A,3,16,10,03,23,13,07,08,,,,,,2.6,1.6,2.0*3A
$GPRMC,185108.000,A,3748.7290,N,12217.9252,W,1.72,198.55,240611,,,A*72
$GPVTG,198.55,T,,M,1.72,N,3.2,K,A*08
$GPGGA,185109.000,3748.7285,N,12217.9257,W,1,07,1.6,22.7,M,-25.1,M,,0000*58
$GPGSA,A,3,16,10,03,23,13,07,08,,,,,,2.6,1.6,2.0*3A
$GPRMC,185109.000,A,3748.7285,N,12217.9257,W,1.51,203.27,240611,,,A*77
$GPVTG,203.27,T,,M,1.51,N,2.8,K,A*06
$GPGGA,185110.000,3748.7280,N,12217.9259,W,1,07,1.6,22.1,M,-25.1,M,,0000*5D
$GPGSA,A,3,16,10,03,23,13,07,08,,,,,,2.6,1.6,2.0*3A
$GPRMC,185110.000,A,3748.7280,N,12217.9259,W,1.50,205.60,240611,,,A*70
$GPVTG,205.60,T,,M,1.50,N,2.8,K,A*02
$GPGGA,185111.000,3748.7275,N,12217.9262,W,1,07,1.6,21.9,M,-25.1,M,,0000*55
$GPGSA,A,3,16,10,03,23,13,07,08,,,,,,2.6,1.6,2.0*3A
$GPGSV,3,1,12,13,68,352,28,23,62,087,30,07,45,270,39,16,40,053,22*7F
$GPGSV,3,2,12,10,35,304,37,20,28,178,35,08,21,254,41,03,20,102,25*77
$GPGSV,3,3,12,06,16,086,25,32,11,160,25,04,06,264,19,19,06,129,*7D
$GPRMC,185111.000,A,3748.7275,N,12217.9262,W,1.57,198.90,240611,,,A*7C
$GPVTG,198.90,T,,M,1.57,N,2.9,K,A*0C
$GPGGA,185112.000,3748.7270,N,12217.9266,W,1,07,1.6,22.0,M,-25.1,M,,0000*5D
$GPGSA,A,3,16,10,03,23,13,07,08,,,,,,2.6,1.6,2.0*3A
$GPRMC,185112.000,A,3748.7270,N,12217.9266,W,1.78,201.10,240611,,,A*78
$GPVTG,201.10,T,,M,1.78,N,3.3,K,A*01
$GPGGA,185113.000,3748.7265,N,12217.9269,W,1,07,1.6,21.7,M,-25.1,M,,0000*53
$GPGSA,A,3,16,10,03,23,13,07,08,,,,,,2.6,1.6,2.0*3A
$GPRMC,185113.000,A,3748.7265,N,12217.9269,W,1.48,199.19,240611,,,A*7A
$GPVTG,199.19,T,,M,1.48,N,2.7,K,A*0C
$GPGGA,185114.000,3748.7260,N,12217.9271,W,1,07,1.6,21.5,M,-25.1,M,,0000*5A
$GPGSA,A,3,16,10,03,23,13,07,08,,,,,,2.6,1.6,2.0*3A
$GPRMC,185114.000,A,3748.7260,N,12217.9271,W,1.47,186.73,240611,,,A*7C
$GPVTG,186.73,T,,M,1.47,N,2.7,K,A*01
$GPGGA,185115.000,3748.7256,N,12217.9274,W,1,07,1.6,21.8,M,-25.1,M,,0000*56
$GPGSA,A,3,16,10,03,23,13,07,08,,,,,,2.6,1.6,2.0*3A
$GPRMC,185115.000,A,3748.7256,N,12217.9274,W,1.46,211.00,240611,,,A*75
$GPVTG,211.00,T,,M,1.46,N,2.7,K,A*09
$GPGGA,185116.000,3748.7251,N,12217.9279,W,1,07,1.6,22.1,M,-25.1,M,,0000*55
$GPGSA,A,3,16,10,03,23,13,07,08,,,,,,2.6,1.6,2.0*3A
$GPGSV,3,1,12,13,69,352,28,23,62,088,30,07,46,270,39,16,40,052,23*72
$GPGSV,3,2,12,10,35,304,37,20,28,178,27,08,21,254,39,03,20,102,30*7F
$GPGSV,3,3,12,06,16,086,24,32,11,160,21,04,06,264,20,19,06,129,*72
$GPRMC,185116.000,A,3748.7251,N,12217.9279,W,1.76,214.41,240611,,,A*7F
$GPVTG,214.41,T,,M,1.76,N,3.3,K,A*0F
$GPGGA,185117.000,3748.7246,N,12217.9284,W,1,07,1.6,22.2,M,-25.1,M,,0000*53
$GPGSA,A,3,16,10,03,23,13,07,08,,,,,,2.6,1.6,2.0*3A
$GPRMC,185117.000,A,3748.7246,N,12217.9284,W,1.75,207.09,240611,,,A*77
$GPVTG,207.09,T,,M,1.75,N,3.2,K,A*03
$GPGGA,185118.000,3748.7240,N,12217.9286,W,1,07,1.6,22.3,M,-25.1,M,,0000*59
$GPGSA,A,3,16,10,03,23,13,07,08,,,,,,2.6,1.6,2.0*3A
$GPRMC,185118.000,A,3748.7240,N,12217.9286,W,1.65,202.41,240611,,,A*74
$GPVTG,202.41,T,,M,1.65,N,3.1,K,A*08
$GPGGA,185119.000,3748.7234,N,12217.9292,W,1,07,1.6,23.8,M,-25.1,M,,0000*54
$GPGSA,A,3,16,10,03,23,13,07,08,,,,,,2.6,1.6,2.0*3A
$GPRMC,185119.000,A,3748.7234,N,12217.9292,W,1.89,204.87,240611,,,A*7D
$GPVTG,204.87,T,,M,1.89,N,3.5,K,A*02
$GPGGA,185120.000,3748.7226,N,12217.9294,W,1,07,1.6,24.2,M,-25.1,M,,0000*56
$GPGSA,A,3,16,10,03,23,13,07,08,,,,,,2.6,1.6,2.0*3A
$GPRMC,185120.000,A,3748.7226,N,12217.9294,W,1.89,204.27,240611,,,A*78
$GPVTG,204.27,T,,M,1.89,N,3.5,K,A*08
$GPGGA,185121.000,3748.7221,N,12217.9294,W,1,07,1.6,23.3,M,-25.1,M,,0000*56
$GPGSA,A,3,16,10,03,23,13,07,08,,,,,,2.6,1.6,2.0*3A
$GPGSV,3,1,12,13,69,352,28,23,62,088,30,07,46,270,37,16,40,052,23*7C
$GPGSV,3,2,12,10,35,304,36,20,28,178,30,08,21,254,39,03,20,102,23*7A
$GPGSV,3,3,12,06,16,086,24,32,11,160,21,04,06,264,29,19,06,129,*7B
$GPVTG,188.10,T,,M,2.02,N,3.7,K,A*09
$GPGGA,185122.000,3748.7218,N,12217.9293,W,1,07,1.6,22.3,M,-25.1,M,,0000*59
$GPGSA,A,3,16,10,03,23,13,07,08,,,,,,2.6,1.6,2.0*3A
$GPRMC,185122.000,A,3748.7218,N,12217.9293,W,1.41,207.62,240611,,,A*76
$GPVTG,207.62,T,,M,1.41,N,2.6,K,A*0C
$GPGGA,185123.000,3748.7212,N,12217.9296,W,1,07,1.6,21.8,M,-25.1,M,,0000*5F
$GPGSA,A,3,16,10,03,23,13,07,08,,,,,,2.6,1.6,2.0*3A
$GPRMC,185123.000,A,3748.7212,N,12217.9296,W,1.61,208.09,240611,,,A*78
$GPVTG,208.09,T,,M,1.61,N,3.0,K,A*0B
$GPGGA,185124.000,3748.7207,N,12217.9298,W,1,07,1.6,21.1,M,-25.1,M,,0000*5B
$GPGSA,A,3,16,10,03,23,13,07,08,,,,,,2.6,1.6,2.0*3A
$GPRMC,185124.000,A,3748.7207,N,12217.9298,W,1.77,211.37,240611,,,A*77
$GPVTG,211.37,T,,M,1.77,N,3.3,K,A*0A
$GPGGA,185125.000,3748.7199,N,12217.9302,W,1,07,1.6,20.7,M,-25.1,M,,0000*5B
$GPGSA,A,3,16,10,03,23,13,07,08,,,,,,2.6,1.6,2.0*3A
$GPRMC,185125.000,A,3748.7199,N,12217.9302,W,1.91,209.23,240611,,,A*74
$GPVTG,209.23,T,,M,1.91,N,3.5,K,A*08
$GPGGA,185126.000,3748.7191,N,12217.9306,W,1,07,1.6,20.3,M,-25.1,M,,0000*50
$GPGSA,A,3,16,10,03,23,13,07,08,,,,,,2.6,1.6,2.0*3A
$GPGSV,3,1,12,13,69,352,28,23,62,088,28,07,46,270,38,16,40,052,23*7A
$GPGSV,3,2,12,10,35,304,36,20,28,178,24,08,21,254,38,03,20,102,23*7E
$GPGSV,3,3,12,06,16,086,24,32,11,160,20,04,06,264,28,19,06,129,*7B
$GPRMC,185126.000,A,3748.7191,N,12217.9306,W,2.24,201.15,240611,,,A*7B
$GPVTG,201.15,T,,M,2.24,N,4.1,K,A*0B
$GPGGA,185127.000,3748.7188,N,12217.9314,W,1,07,1.6,21.8,M,-25.1,M,,0000*50
$GPGSA,A,3,16,10,03,23,13,07,08,,,,,,2.6,1.6,2.0*3A
$GPRMC,185127.000,A,3748.7188,N,12217.9314,W,2.17,214.84,240611,,,A*7D
$GPVTG,214.84,T,,M,2.17,N,4.0,K,A*06
$GPGGA,185128.000,3748.7184,N,12217.9322,W,1,07,1.6,22.9,M,-25.1,M,,0000*54
$GPGSA,A,3,16,10,03,23,13,07,08,,,,,,2.6,1.6,2.0*3A
$GPRMC,185128.000,A,3748.7184,N,12217.9322,W,1.78,213.45,240611,,,A*7B
$GPVTG,213.45,T,,M,1.78,N,3.3,K,A*02
$GPGGA,185129.000,3748.7181,N,12217.9329,W,1,07,1.6,24.1,M,-25.1,M,,0000*55
$GPGSA,A,3,16,10,03,23,13,07,08,,,,,,2.6,1.6,2.0*3A
$GPRMC,185129.000,A,3748.7181,N,12217.9329,W,1.76,205.60,240611,,,A*7A
$GPVTG,205.60,T,,M,1.76,N,3.3,K,A*0C
$GPGGA,185130.000,3748.7177,N,12217.9336,W,1,07,1.6,25.3,M,-25.1,M,,0000*59
$GPGSA,A,3,16,10,03,23,13,07,08,,,,,,2.6,1.6,2.0*3A
$GPRMC,185130.000,A,3748.7177,N,12217.9336,W,1.73,207.01,240611,,,A*75
$GPVTG,207.01,T,,M,1.73,N,3.2,K,A*0D
$GPGGA,185131.000,3748.7172,N,12217.9339,W,1,07,1.6,24.8,M,-25.1,M,,0000*58
$GPGSA,A,3,16,10,03,23,13,07,08,,,,,,2.6,1.6,2.0*3A
$GPGSV,3,1,12,13,69,352,28,23,62,088,30,07,46,270,38,16,40,052,21*71
$GPGSV,3,2,12,10,35,304,36,20,28,178,28,08,21,254,33,03,20,102,18*71
$GPGSV,3,3,12,06,16,086,21,32,11,160,19,04,06,264,25,19,06,129,*79
$GPRMC,185131.000,A,3748.7172,N,12217.9339,W,1.75,214.37,240611,,,A*7F
$GPVTG,214.37,T,,M,1.75,N,3.2,K,A*0C
$GPGGA,185132.000,3748.7164,N,12217.9345,W,1,07,1.6,25.3,M,-25.1,M,,0000*5D
$GPGSA,A,3,16,10,03,23,13,07,08,,,,,,2.6,1.6,2.0*3A
$GPRMC,185132.000,A,3748.7164,N,12217.9345,W,1.82,208.47,240611,,,A*72
$GPVTG,208.47,T,,M,1.82,N,3.4,K,A*08
$GPGGA,185133.000,3748.7157,N,12217.9348,W,1,07,1.6,25.2,M,-25.1,M,,0000*50
$GPGSA,A,3,16,10,03,23,13,07,08,,,,,,2.6,1.6,2.0*3A
$GPRMC,185133.000,A,3748.7157,N,12217.9348,W,1.79,209.08,240611,,,A*70
$GPVTG,209.08,T,,M,1.79,N,3.3,K,A*01
$GPGGA,185134.000,3748.7153,N,12217.9350,W,1,07,1.6,24.4,M,-25.1,M,,0000*5D
$GPGSA,A,3,16,10,03,23,13,07,08,,,,,,2.6,1.6,2.0*3A
$GPRMC,185134.000,A,3748.7153,N,12217.9350,W,1.83,199.04,240611,,,A*79
$GPVTG,199.04,T,,M,1.83,N,3.4,K,A*05
$GPGGA,185135.000,3748.7148,N,12217.9355,W,1,07,1.6,24.7,M,-25.1,M,,0000*50
$GPGSA,A,3,16,10,03,23,13,07,08,,,,,,2.6,1.6,2.0*3A
$GPRMC,185135.000,A,3748.7148,N,12217.9355,W,1.82,198.28,240611,,,A*79
$GPVTG,198.28,T,,M,1.82,N,3.4,K,A*0B
$GPGGA,185136.000,3748.7141,N,12217.9357,W,1,07,1.6,24.3,M,-25.1,M,,0000*5C
$GPGSA,A,3,16,10,03,23,13,07,08,,,,,,2.6,1.6,2.0*3A
$GPGSV,3,1,12,13,69,352,27,23,62,088,30,07,46,270,39,16,40,052,21*7F
$GPGSV,3,2,12,10,35,304,36,20,28,178,28,08,21,254,39,03,20,102,21*71
$GPGSV,3,3,12,06,16,086,23,32,11,160,20,04,06,264,21,19,06,129,*75
$GPRMC,185136.000,A,3748.7141,N,12217.9357,W,1.85,190.55,240611,,,A*74
$GPVTG,190.55,T,,M,1.85,N,3.4,K,A*0E
$GPGGA,185137.000,3748.7132,N,12217.9360,W,1,07,1.6,24.0,M,-25.1,M,,0000*5E
$GPGSA,A,3,16,10,03,23,13,07,08,,,,,,2.6,1.6,2.0*3A
$GPRMC,185137.000,A,3748.7132,N,12217.9360,W,2.16,191.70,240611,,,A*7A
$GPVTG,191.70,T,,M,2.16,N,4.0,K,A*02
$GPGGA,185138.000,3748.7126,N,12217.9362,W,1,07,1.6,23.4,M,-25.1,M,,0000*55
$GPGSA,A,3,16,10,03,23,13,07,08,,,,,,2.6,1.6,2.0*3A
$GPRMC,185138.000,A,3748.7126,N,12217.9362,W,1.97,200.65,240611,,,A*77
$GPVTG,200.65,T,,M,1.97,N,3.6,K,A*06
$GPGGA,185139.000,3748.7120,N,12217.9365,W,1,07,1.6,23.1,M,-25.1,M,,0000*50
$GPGSA,A,3,16,10,03,23,13,07,08,,,,,,2.6,1.6,2.0*3A
