$ADVER,3080,2.3
$GPRMC,224522.539,A,3748.7984,N,12217.8610,W,0.06,127.87,080512,,,A*73
$GPGGA,224523.539,3748.7985,N,12217.8609,W,1,04,2.4,19.9,M,-25.1,M,,0000*52
$GPGSA,A,3,13,07,06,08,,,,,,,,,4.0,2.4,3.1*39
$GPRMC,224523.539,A,3748.7985,N,12217.8609,W,0.13,121.94,080512,,,A*7B
$GPVTG,121.94,T,,M,0.13,N,0.2,K,A*02
$GPGGA,224524.539,3748.7985,N,12217.8608,W,1,04,2.4,19.8,M,-25.1,M,,0000*55
$GPGSA,A,3,13,07,06,08,,,,,,,,,4.0,2.4,3.1*39
$GPRMC,224524.539,A,3748.7985,N,12217.8608,W,0.14,113.63,080512,,,A*73
$GPVTG,113.63,T,,M,0.14,N,0.3,K,A*0D
$GPGGA,224525.000,3748.7985,N,12217.8608,W,1,04,2.4,19.8,M,-25.1,M,,0000*5B
$GPGSA,A,3,13,07,06,08,,,,,,,,,4.0,2.4,3.1*39
$GPRMC,224525.000,A,3748.7985,N,12217.8608,W,0.06,122.92,080512,,,A*72
$GPVTG,122.92,T,,M,0.06,N,0.1,K,A*00
$GPGGA,224526.000,3748.7984,N,12217.8608,W,1,04,2.4,19.7,M,-25.1,M,,0000*56
$GPGSA,A,3,13,07,06,08,,,,,,,,,4.0,2.4,3.1*39
$GPRMC,224526.000,A,3748.7984,N,12217.8608,W,0.12,120.51,080512,,,A*78
$GPVTG,120.51,T,,M,0.12,N,0.2,K,A*0B
$GPGGA,224527.000,3748.7984,N,12217.8607,W,1,04,2.4,19.6,M,-25.1,M,,0000*59
$GPGSA,A,3,13,07,06,08,,,,,,,,,4.0,2.4,3.1*39
$GPGSV,3,1,12,07,65,013,42,13,60,129,42,08,47,298,42,06,13,044,35*7C
$GPGSV,3,2,12,10,35,241,27,19,32,095,41,28,29,221,27,23,27,137,40*7E
$GPGSV,3,3,12,03,23,054,33,05,21,303,30,16,00,043,,26,00,314,*7E
$GPRMC,224527.000,A,3748.7984,N,12217.8607,W,0.14,119.35,080512,,,A*78
$GPVTG,119.35,T,,M,0.14,N,0.3,K,A*04
$GPGGA,224528.000,3748.7977,N,12217.8603,W,1,07,1.4,16.0,M,-25.1,M,,0000*57
$GPGSA,A,3,13,03,07,23,06,19,08,,,,,,2.7,1.4,2.2*33
$GPRMC,224528.000,A,3748.7977,N,12217.8603,W,0.09,138.39,080512,,,A*7C
$GPVTG,138.39,T,,M,0.09,N,0.2,K,A*06
$GPGGA,224529.000,3748.7976,N,12217.8600,W,1,07,1.4,14.9,M,-25.1,M,,0000*5F
$GPGSA,A,3,13,03,07,23,06,19,08,,,,,,2.7,1.4,2.2*33
$GPRMC,224529.000,A,3748.7976,N,12217.8600,W,0.09,133.66,080512,,,A*7E
$GPVTG,133.66,T,,M,0.09,N,0.2,K,A*07
$GPGGA,224530.000,3748.7975,N,12217.8599,W,1,07,1.4,14.4,M,-25.1,M,,0000*5A
$GPGSA,A,3,13,03,07,23,06,19,08,,,,,,2.7,1.4,2.2*33
$GPRMC,224530.000,A,3748.7975,N,12217.8599,W,0.09,130.98,080512,,,A*74
$GPVTG,130.98,T,,M,0.09,N,0.2,K,A*05
$GPGGA,224531.000,3748.7976,N,12217.8597,W,1,07,1.4,13.8,M,-25.1,M,,0000*5D
$GPGSA,A,3,13,03,07,23,06,19,08,,,,,,2.7,1.4,2.2*33
$GPRMC,224531.000,A,3748.7976,N,12217.8597,W,0.09,127.67,080512,,,A*7E
$GPVTG,127.67,T,,M,0.09,N,0.2,K,A*03
$GPGGA,224532.000,3748.7977,N,12217.8595,W,1,07,1.4,13.4,M,-25.1,M,,0000*51
$GPGSA,A,3,13,03,07,23,06,19,08,,,,,,2.7,1.4,2.2*33
$GPGSV,3,1,12,07,65,013,42,13,60,129,42,08,47,298,42,10,35,241,27*7B
$GPGSV,3,2,12,19,32,094,41,28,29,221,27,23,27,137,40,03,23,054,33*79
$GPGSV,3,3,12,05,21,303,30,06,13,044,34,16,00,043,,26,00,314,*7E
$GPRMC,224532.000,A,3748.7977,N,12217.8595,W,0.09,130.48,080512,,,A*75
$GPGGA,224533.000,3748.7978,N,12217.8594,W,1,07,1.4,13.0,M,-25.1,M,,0000*5A
$GPGSA,A,3,13,03,07,23,06,19,08,,,,,,2.7,1.4,2.2*33
$GPRMC,224533.000,A,3748.7978,N,12217.8594,W,0.10,125.84,080512,,,A*76
$GPVTG,125.84,T,,M,0.10,N,0.2,K,A*04
$GPGGA,224534.000,3748.7979,N,12217.8593,W,1,08,1.1,12.7,M,-25.1,M,,0000*57
$GPGSA,A,3,13,03,07,23,05,06,19,08,,,,,2.1,1.1,1.7*33
$GPRMC,224534.000,A,3748.7979,N,12217.8593,W,0.09,128.39,080512,,,A*74
$GPVTG,128.39,T,,M,0.09,N,0.2,K,A*07
$GPGGA,224535.000,3748.7979,N,12217.8592,W,1,08,1.1,12.4,M,-25.1,M,,0000*54
$GPGSA,A,3,13,03,07,23,05,06,19,08,,,,,2.1,1.1,1.7*33
$GPRMC,224535.000,A,3748.7979,N,12217.8592,W,0.09,132.01,080512,,,A*74
$GPVTG,132.01,T,,M,0.09,N,0.2,K,A*07
$GPGGA,224536.000,3748.7980,N,12217.8592,W,1,08,1.1,12.2,M,-25.1,M,,0000*57
$GPGSA,A,3,13,03,07,23,05,06,19,08,,,,,2.1,1.1,1.7*33
$GPRMC,224536.000,A,3748.7980,N,12217.8592,W,0.09,129.15,080512,,,A*7E
$GPVTG,129.15,T,,M,0.09,N,0.2,K,A*08
$GPGGA,224537.000,3748.7981,N,12217.8591,W,1,08,1.1,12.0,M,-25.1,M,,0000*56
$GPGSA,A,3,13,03,07,23,05,06,19,08,,,,,2.1,1.1,1.7*33
$GPGSV,3,1,12,07,65,013,42,13,60,129,41,08,47,298,42,10,35,240,27*79
$GPGSV,3,2,12,19,32,094,41,28,29,221,27,23,27,137,40,03,23,054,33*79
$GPGSV,3,3,12,05,21,303,31,06,13,044,34,16,00,043,,26,00,314,*7F
$GPRMC,224537.000,A,3748.7981,N,12217.8591,W,0.08,132.75,080512,,,A*70
$GPVTG,132.75,T,,M,0.08,N,0.2,K,A*05
$GPGGA,224538.000,3748.7981,N,12217.8590,W,1,08,1.1,11.8,M,-25.1,M,,0000*53
$GPGSA,A,3,13,03,07,23,05,06,19,08,,,,,2.1,1.1,1.7*33
$GPRMC,224538.000,A,3748.7981,N,12217.8590,W,0.08,128.82,080512,,,A*7D
$GPVTG,128.82,T,,M,0.08,N,0.1,K,A*05
$GPGGA,224539.000,3748.7982,N,12217.8590,W,1,08,1.1,11.7,M,-25.1,M,,0000*5E
$GPGSA,A,3,13,03,07,23,05,06,19,08,,,,,2.1,1.1,1.7*33
$GPRMC,224539.000,A,3748.7982,N,12217.8590,W,0.09,139.67,080512,,,A*75
$GPVTG,139.67,T,,M,0.09,N,0.2,K,A*0C
$GPGGA,224540.000,3748.7982,N,12217.8589,W,1,08,1.1,11.5,M,-25.1,M,,0000*5A
$GPGSA,A,3,13,03,07,23,05,06,19,08,,,,,2.1,1.1,1.7*33
$GPRMC,224540.000,A,3748.7982,N,12217.8589,W,0.09,136.15,080512,,,A*79
$GPVTG,136.15,T,,M,0.09,N,0.2,K,A*06
$GPGGA,224541.000,3748.7982,N,12217.8589,W,1,08,1.1,11.4,M,-25.1,M,,0000*5A
$GPGSA,A,3,13,03,07,23,05,06,19,08,,,,,2.1,1.1,1.7*33
$GPRMC,224541.000,A,3748.7982,N,12217.8589,W,0.10,141.55,080512,,,A*74
$GPVTG,141.55,T,,M,0.10,N,0.2,K,A*0A
$GPGGA,224542.000,3748.7983,N,12217.8588,W,1,08,1.1,11.3,M,-25.1,M,,0000*5E
$GPGSA,A,3,13,03,07,23,05,06,19,08,,,,,2.1,1.1,1.7*33
$GPGSV,3,1,12,07,65,013,42,13,60,129,41,08,47,298,42,10,35,240,27*79
$GPGSV,3,2,12,19,32,094,41,28,29,221,27,23,27,137,40,03,23,054,34*7E
$GPGSV,3,3,12,05,21,303,32,06,13,044,33,16,00,043,,26,00,314,*7B
$GPRMC,224542.000,A,3748.7983,N,12217.8588,W,0.09,132.62,080512,,,A*7F
$GPVTG,132.62,T,,M,0.09,N,0.2,K,A*02
$GPGGA,224543.000,3748.7983,N,12217.8588,W,1,08,1.1,11.2,M,-25.1,M,,0000*5E
$GPGSA,A,3,13,03,07,23,05,06,19,08,,,,,2.1,1.1,1.7*33
$GPRMC,224543.000,A,3748.7983,N,12217.8588,W,0.09,137.82,080512,,,A*75
$GPVTG,137.82,T,,M,0.09,N,0.2,K,A*09
$GPGGA,224544.000,3748.7983,N,12217.8587,W,1,08,1.1,11.1,M,-25.1,M,,0000*55
$GPGSA,A,3,13,03,07,23,05,06,19,08,,,,,2.1,1.1,1.7*33
$GPRMC,224544.000,A,3748.7983,N,12217.8587,W,0.09,133.50,080512,,,A*76
$GPVTG,133.50,T,,M,0.09,N,0.2,K,A*02
$GPGGA,224545.000,3748.7983,N,12217.8587,W,1,08,1.1,11.0,M,-25.1,M,,0000*55
$GPGSA,A,3,13,03,07,23,05,06,19,08,,,,,2.1,1.1,1.7*33
$GPRMC,224545.000,A,3748.7983,N,12217.8587,W,0.08,129.40,080512,,,A*7C
$GPVTG,129.40,T,,M,0.08,N,0.2,K,A*09
$GPGGA,224546.000,3748.7984,N,12217.8587,W,1,08,1.1,10.9,M,-25.1,M,,0000*59
$GPGSA,A,3,13,03,07,23,05,06,19,08,,,,,2.1,1.1,1.7*33
$GPRMC,224546.000,A,3748.7984,N,12217.8587,W,0.09,137.89,080512,,,A*73
$GPVTG,137.89,T,,M,0.09,N,0.2,K,A*02
$GPGGA,224547.000,3748.7984,N,12217.8586,W,1,08,1.1,10.8,M,-25.1,M,,0000*58
$GPGSA,A,3,13,03,07,23,05,06,19,08,,,,,2.1,1.1,1.7*33
$GPGSV,3,1,12,07,65,013,42,13,60,129,41,08,47,298,42,10,35,240,27*79
$GPGSV,3,2,12,19,32,094,41,28,29,221,28,23,27,137,40,03,23,054,34*71
$GPGSV,3,3,12,05,21,302,32,06,13,044,32,16,00,043,,26,00,314,*7B
$GPVTG,134.36,T,,M,0.10,N,0.2,K,A*0D
$GPGGA,224548.000,3748.7984,N,12217.8586,W,1,08,1.1,10.8,M,-25.1,M,,0000*57
$GPGSA,A,3,13,03,07,23,05,06,19,08,,,,,2.1,1.1,1.7*33
$GPRMC,224548.000,A,3748.7984,N,12217.8586,W,0.08,142.29,080512,,,A*75
$GPVTG,142.29,T,,M,0.08,N,0.1,K,A*08
$GPGGA,224549.000,3748.7984,N,12217.8586,W,1,08,1.1,10.7,M,-25.1,M,,0000*59
$GPGSA,A,3,13,03,07,23,05,06,19,08,,,,,2.1,1.1,1.7*33
$GPRMC,224549.000,A,3748.7984,N,12217.8586,W,0.09,133.27,080512,,,A*7D
$GPVTG,133.27,T,,M,0.09,N,0.2,K,A*02
$GPGGA,224550.000,3748.7984,N,12217.8586,W,1,08,1.1,10.6,M,-25.1,M,,0000*50
$GPGSA,A,3,13,03,07,23,05,06,19,08,,,,,2.1,1.1,1.7*33
$GPRMC,224550.000,A,3748.7984,N,12217.8586,W,0.09,131.18,080512,,,A*7B
$GPVTG,131.18,T,,M,0.09,N,0.2,K,A*0C
$GPGGA,224551.000,3748.7984,N,12217.8585,W,1,08,1.1,10.6,M,-25.1,M,,0000*52
$GPGSA,A,3,13,03,07,23,05,06,19,08,,,,,2.1,1.1,1.7*33
$GPRMC,224551.000,A,3748.7984,N,12217.8585,W,0.09,142.19,080512,,,A*7C
$GPVTG,142.19,T,,M,0.09,N,0.2,K,A*09
$GPGGA,224552.000,3748.7984,N,12217.8585,W,1,08,1.1,10.5,M,-25.1,M,,0000*52
$GPGSA,A,3,13,03,07,23,05,06,19,08,,,,,2.1,1.1,1.7*33
$GPGSV,3,1,12,07,65,013,43,13,60,129,41,08,47,298,42,10,35,240,*7D
$GPGSV,3,2,12,19,32,094,41,28,29,221,28,23,27,137,40,03,23,054,34*71
$GPGSV,3,3,12,05,21,302,33,06,13,044,28,16,00,043,,26,00,314,*71
$GPRMC,224552.000,A,3748.7984,N,12217.8585,W,0.09,148.10,080512,,,A*7C
$GPVTG,148.10,T,,M,0.09,N,0.2,K,A*0A
$GPGGA,224553.000,3748.7984,N,12217.8585,W,1,08,1.1,10.5,M,-25.1,M,,0000*53
$GPGSA,A,3,13,03,07,23,05,06,19,08,,,,,2.1,1.1,1.7*33
$GPRMC,224553.000,A,3748.7984,N,12217.8585,W,0.09,132.39,080512,,,A*7B
$GPVTG,132.39,T,,M,0.09,N,0.2,K,A*0C
$GPGGA,224554.000,3748.7985,N,12217.8585,W,1,08,1.1,10.4,M,-25.1,M,,0000*54
$GPGSA,A,3,13,03,07,23,05,06,19,08,,,,,2.1,1.1,1.7*33
$GPRMC,224554.000,A,3748.7985,N,12217.8585,W,0.09,139.52,080512,,,A*7B
$GPVTG,139.52,T,,M,0.09,N,0.2,K,A*0A
$GPGGA,224555.000,3748.7985,N,12217.8585,W,1,08,1.1,10.4,M,-25.1,M,,0000*55
$GPGSA,A,3,13,03,07,23,05,06,19,08,,,,,2.1,1.1,1.7*33
$GPRMC,224555.000,A,3748.7985,N,12217.8585,W,0.08,137.73,080512,,,A*76
$GPVTG,137.73,T,,M,0.08,N,0.2,K,A*06
$GPGGA,224556.000,3748.7985,N,12217.8584,W,1,08,1.1,10.3,M,-25.1,M,,0000*50
$GPGSA,A,3,13,03,07,23,05,06,19,08,,,,,2.1,1.1,1.7*33
$GPRMC,224556.000,A,3748.7985,N,12217.8584,W,0.09,139.18,080512,,,A*76
$GPVTG,139.18,T,,M,0.09,N,0.2,K,A*04
$GPGGA,224557.000,3748.7985,N,12217.8584,W,1,08,1.1,10.3,M,-25.1,M,,0000*51
$GPGSA,A,3,13,03,07,23,05,06,19,08,,,,,2.1,1.1,1.7*33
$GPGSV,3,1,12,07,65,013,43,13,60,129,42,08,47,298,42,10,35,240,27*7B
$GPGSV,3,2,12,19,32,094,41,28,29,221,31,23,27,137,40,03,23,054,34*79
$GPGSV,3,3,12,05,21,302,33,06,13,044,28,16,00,043,,26,00,314,*71
$GPRMC,224557.000,A,3748.7985,N,12217.8584,W,0.09,140.60,080512,,,A*76
$GPVTG,140.60,T,,M,0.09,N,0.2,K,A*05
$GPGGA,224558.000,3748.7985,N,12217.8584,W,1,08,1.1,10.3,M,-25.1,M,,0000*5E
$GPGSA,A,3,13,03,07,23,05,06,19,08,,,,,2.1,1.1,1.7*33
$GPRMC,224558.000,A,3748.7985,N,12217.8584,W,0.09,138.35,080512,,,A*76
$GPVTG,138.35,T,,M,0.09,N,0.2,K,A*0A
$GPGGA,224559.000,3748.7985,N,12217.8584,W,1,08,1.1,10.2,M,-25.1,M,,0000*5E
$GPGSA,A,3,13,03,07,23,05,06,19,08,,,,,2.1,1.1,1.7*33
$GPRMC,224559.000,A,3748.7985,N,12217.8584,W,0.10,140.26,080512,,,A*72
$GPVTG,140.26,T,,M,0.10,N,0.2,K,A*0F
$GPGGA,224600.000,3748.7985,N,12217.8584,W,1,08,1.1,10.2,M,-25.1,M,,0000*51
$GPGSA,A,3,13,03,07,23,05,06,19,08,,,,,2.1,1.1,1.7*33
$GPRMC,224600.000,A,3748.7985,N,12217.8584,W,0.09,143.90,080512,,,A*7B
$GPVTG,143.90,T,,M,0.09,N,0.2,K,A*09
$GPGGA,224601.000,3748.7985,N,12217.8583,W,1,08,1.1,10.1,M,-25.1,M,,0000*54
$GPGSA,A,3,13,03,07,23,05,06,19,08,,,,,2.1,1.1,1.7*33
$GPRMC,224601.000,A,3748.7985,N,12217.8583,W,0.09,140.96,080512,,,A*78
$GPVTG,140.96,T,,M,0.09,N,0.2,K,A*0C
$GPGGA,224602.000,3748.7985,N,12217.8583,W,1,08,1.1,10.1,M,-25.1,M,,0000*57
$GPGSA,A,3,13,03,07,23,05,06,19,08,,,,,2.1,1.1,1.7*33
$GPGSV,3,1,12,07,65,013,43,13,60,129,42,08,47,298,42,10,35,240,26*7A
$GPGSV,3,2,12,19,32,094,41,28,29,221,32,23,27,137,39,03,23,054,34*74
$GPGSV,3,3,12,05,21,302,33,06,13,044,28,16,00,043,,26,00,314,*71
$GPRMC,224602.000,A,3748.7985,N,12217.8583,W,0.09,129.43,080512,,,A*7C
$GPVTG,129.43,T,,M,0.09,N,0.2,K,A*0B
$GPGGA,224603.000,3748.7985,N,12217.8583,W,1,08,1.1,10.1,M,-25.1,M,,0000*56
$GPGSA,A,3,13,03,07,23,05,06,19,08,,,,,2.1,1.1,1.7*33
$GPRMC,224603.000,A,3748.7985,N,12217.8583,W,0.09,140.69,080512,,,A*7A
$GPVTG,140.69,T,,M,0.09,N,0.2,K,A*0C
$GPGGA,224604.000,3748.7985,N,12217.8583,W,1,08,1.1,10.1,M,-25.1,M,,0000*51
$GPGSA,A,3,13,03,07,23,05,06,19,08,,,,,2.1,1.1,1.7*33
$GPRMC,224604.000,A,3748.7985,N,12217.8583,W,0.09,137.67,080512,,,A*73
$GPVTG,137.67,T,,M,0.09,N,0.2,K,A*02
$GPGGA,224605.000,3748.7985,N,12217.8583,W,1,08,1.1,10.0,M,-25.1,M,,0000*51
$GPGSA,A,3,13,03,07,23,05,06,19,08,,,,,2.1,1.1,1.7*33
$GPRMC,224605.000,A,3748.7985,N,12217.8583,W,0.08,131.12,080512,,,A*77
$GPVTG,131.12,T,,M,0.08,N,0.2,K,A*07
$GPGGA,224606.000,3748.7985,N,12217.8583,W,1,08,1.1,10.0,M,-25.1,M,,0000*52
$GPGSA,A,3,13,03,07,23,05,06,19,08,,,,,2.1,1.1,1.7*33
$GPRMC,224606.000,A,3748.7985,N,12217.8583,W,0.09,146.25,080512,,,A*71
$GPVTG,146.25,T,,M,0.09,N,0.2,K,A*02
$GPGGA,224607.000,3748.7985,N,12217.8582,W,1,08,1.1,10.0,M,-25.1,M,,0000*52
$GPGSA,A,3,13,03,07,23,05,06,19,08,,,,,2.1,1.1,1.7*33
$GPGSV,3,1,12,07,65,013,42,13,60,129,42,08,47,298,42,10,35,240,26*7B
$GPGSV,3,2,12,19,32,094,41,28,29,221,32,23,27,137,39,03,23,054,33*73
$GPGSV,3,3,12,05,21,302,32,06,13,044,28,16,00,043,,26,00,314,*70
$GPVTG,141.03,T,,M,0.09,N,0.2,K,A*01
$GPGGA,224608.000,3748.7985,N,12217.8582,W,1,08,1.1,10.0,M,-25.1,M,,0000*5D
$GPGSA,A,3,13,03,07,23,05,06,19,08,,,,,2.1,1.1,1.7*33
$GPRMC,224608.000,A,3748.7985,N,12217.8582,W,0.09,138.67,080512,,,A*71
$GPVTG,138.67,T,,M,0.09,N,0.2,K,A*0D
$GPGGA,224609.000,3748.7985,N,12217.8582,W,1,08,1.1,9.9,M,-25.1,M,,0000*6D
$GPGSA,A,3,13,03,07,23,05,06,19,08,,,,,2.1,1.1,1.7*33
$GPRMC,224609.000,A,3748.7985,N,12217.8582,W,0.09,142.51,080512,,,A*78
$GPVTG,142.51,T,,M,0.09,N,0.2,K,A*05
$GPGGA,224609.000,3748.7985,N,12217.8582,W,1,08,1.1,9.9,M,-25.1,M,,0000*6D
$GPGSA,A,3,13,03,07,23,05,06,19,08,,,,,2.1,1.1,1.7*33
$GPRMC,224609.000,A,3748.7985,N,12217.8582,W,0.08,135.89,080512,,,A*7C
$GPVTG,135.89,T,,M,0.08,N,0.2,K,A*01
$GPGGA,224610.000,3748.7985,N,12217.8582,W,1,08,1.1,9.9,M,-25.1,M,,0000*65
$GPGSA,A,3,13,03,07,23,05,06,19,08,,,,,2.1,1.1,1.7*33
$GPRMC,224610.000,A,3748.7985,N,12217.8582,W,0.11,148.93,080512,,,A*7D
$GPVTG,148.93,T,,M,0.11,N,0.2,K,A*08
$GPGGA,224611.000,3748.7985,N,12217.8582,W,1,08,1.1,9.8,M,-25.1,M,,0000*65
$GPGSA,A,3,13,03,07,23,05,06,19,08,,,,,2.1,1.1,1.7*33
$GPGSV,3,1,12,07,65,013,42,13,60,129,42,08,47,298,42,10,35,240,*7F
$GPGSV,3,2,12,19,32,094,41,28,29,221,32,23,27,137,40,03,23,054,34*7A
$GPGSV,3,3,12,05,21,302,32,06,13,044,27,16,00,043,,26,00,314,*7F
$GPRMC,224611.000,A,3748.7985,N,12217.8582,W,0.08,121.34,080512,,,A*76
$GPVTG,121.34,T,,M,0.08,N,0.1,K,A*01
$GPGGA,224612.000,3748.7985,N,12217.8582,W,1,08,1.1,9.8,M,-25.1,M,,0000*66
$GPGSA,A,3,13,03,07,23,05,06,19,08,,,,,2.1,1.1,1.7*33
$GPRMC,224612.000,A,3748.7985,N,12217.8582,W,0.09,122.53,080512,,,A*76
$GPVTG,122.53,T,,M,0.09,N,0.2,K,A*01
$GPGGA,224613.000,3748.7985,N,12217.8581,W,1,08,1.1,9.7,M,-25.1,M,,0000*6B
$GPGSA,A,3,13,03,07,23,05,06,19,08,,,,,2.0,1.1,1.7*32
$GPRMC,224613.000,A,3748.7985,N,12217.8581,W,0.09,135.81,080512,,,A*7D
$GPVTG,135.81,T,,M,0.09,N,0.2,K,A*08
$GPGGA,224614.000,3748.7985,N,12217.8581,W,1,08,1.1,9.7,M,-25.1,M,,0000*6C
$GPGSA,A,3,13,03,07,23,05,06,19,08,,,,,2.0,1.1,1.7*32
$GPRMC,224614.000,A,3748.7985,N,12217.8581,W,0.09,130.53,080512,,,A*70
$GPVTG,130.53,T,,M,0.09,N,0.2,K,A*02
$GPGGA,224615.000,3748.7985,N,12217.8581,W,1,08,1.1,9.7,M,-25.1,M,,0000*6D
$GPGSA,A,3,13,03,07,23,05,06,19,08,,,,,2.0,1.1,1.7*32
$GPRMC,224615.000,A,3748.7985,N,12217.8581,W,0.10,120.30,080512,,,A*7D
$GPVTG,120.30,T,,M,0.10,N,0.2,K,A*0E
$GPGGA,224616.000,3748.7985,N,12217.8581,W,1,08,1.1,9.4,M,-25.1,M,,0000*6D
$GPGSA,A,3,13,03,07,23,05,06,19,08,,,,,2.0,1.1,1.7*32
$GPGSV,3,1,12,07,65,014,42,13,60,129,42,08,47,298,42,10,35,240,25*7F
$GPGSV,3,2,12,19,32,093,40,28,29,221,32,23,27,137,40,03,23,053,34*7B
$GPGSV,3,3,12,05,21,302,32,06,13,043,27,26,00,314,,16,00,043,*78
$GPRMC,224616.000,A,3748.7985,N,12217.8581,W,0.10,128.77,080512,,,A*75
$GPVTG,128.77,T,,M,0.10,N,0.2,K,A*05
$GPGGA,224617.000,3748.7985,N,12217.8581,W,1,08,1.1,9.1,M,-25.1,M,,0000*69
$GPGSA,A,3,13,03,07,23,05,06,19,08,,,,,2.0,1.1,1.7*32
$GPRMC,224617.000,A,3748.7985,N,12217.8581,W,0.09,130.16,080512,,,A*72
$GPVTG,130.16,T,,M,0.09,N,0.2,K,A*03
$GPGGA,224618.000,3748.7984,N,12217.8581,W,1,08,1.1,8.8,M,-25.1,M,,0000*6F
$GPGSA,A,3,13,03,07,23,05,06,19,08,,,,,2.0,1.1,1.7*32
$GPRMC,224618.000,A,3748.7984,N,12217.8581,W,0.10,145.91,080512,,,A*79
$GPVTG,145.91,T,,M,0.10,N,0.2,K,A*06
$GPGGA,224619.000,3748.7984,N,12217.8581,W,1,08,1.1,8.5,M,-25.1,M,,0000*63
$GPGSA,A,3,13,03,07,23,05,06,19,08,,,,,2.0,1.1,1.7*32
$GPRMC,224619.000,A,3748.7984,N,12217.8581,W,0.10,154.16,080512,,,A*77
$GPVTG,154.16,T,,M,0.10,N,0.2,K,A*09
$GPGGA,224620.000,3748.7984,N,12217.8580,W,1,08,1.1,8.1,M,-25.1,M,,0000*6C
$GPGSA,A,3,13,03,07,23,05,06,19,08,,,,,2.0,1.1,1.7*32
$GPRMC,224620.000,A,3748.7984,N,12217.8580,W,0.10,121.27,080512,,,A*7C
$GPVTG,121.27,T,,M,0.10,N,0.2,K,A*09
$GPGGA,224621.000,3748.7985,N,12217.8580,W,1,08,1.1,7.6,M,-25.1,M,,0000*64
$GPGSA,A,3,13,03,07,23,05,06,19,08,,,,,2.0,1.1,1.7*32
$GPGSV,3,1,12,07,65,014,42,13,60,129,42,08,47,298,43,10,35,240,25*7E
$GPGSV,3,2,12,19,32,093,40,28,29,221,32,23,27,137,40,03,23,053,35*7A
$GPRMC,224621.000,A,3748.7985,N,12217.8580,W,0.09,119.47,080512,,,A*79
$GPVTG,119.47,T,,M,0.09,N,0.2,K,A*0C
$GPGGA,224622.000,3748.7985,N,12217.8579,W,1,08,1.1,7.2,M,-25.1,M,,0000*65
$GPGSA,A,3,13,03,07,23,05,06,19,08,,,,,2.0,1.1,1.7*32
$GPRMC,224622.000,A,3748.7985,N,12217.8579,W,0.10,108.78,080512,,,A*78
$GPVTG,108.78,T,,M,0.10,N,0.2,K,A*08
$GPGGA,224623.000,3748.7986,N,12217.8579,W,1,08,1.1,6.9,M,-25.1,M,,0000*6D
$GPGSA,A,3,13,03,07,23,05,06,19,08,,,,,2.0,1.1,1.7*32
$GPRMC,224623.000,A,3748.7986,N,12217.8579,W,0.10,118.84,080512,,,A*78
$GPVTG,118.84,T,,M,0.10,N,0.2,K,A*0A
$GPGGA,224624.000,3748.7986,N,12217.8578,W,1,08,1.1,6.5,M,-25.1,M,,0000*67
$GPGSA,A,3,13,03,07,23,05,06,19,08,,,,,2.0,1.1,1.7*32
$GPRMC,224624.000,A,3748.7986,N,12217.8578,W,0.09,112.62,080512,,,A*74
$GPVTG,112.62,T,,M,0.09,N,0.2,K,A*00
$GPGGA,224625.000,3748.7986,N,12217.8578,W,1,08,1.1,6.1,M,-25.1,M,,0000*62
$GPGSA,A,3,13,03,07,23,05,06,19,08,,,,,2.0,1.1,1.7*32
$GPRMC,224625.000,A,3748.7986,N,12217.8578,W,0.09,116.54,080512,,,A*74
$GPVTG,116.54,T,,M,0.09,N,0.2,K,A*01
$GPGGA,224626.000,3748.7987,N,12217.8578,W,2,08,1.1,5.8,M,-25.1,M,1.8,0000*4E
$GPGSA,A,3,13,03,07,23,05,06,19,08,,,,,2.0,1.1,1.7*32
$GPGSV,3,1,12,07,65,014,42,13,60,129,42,08,47,298,43,10,35,240,26*7D
$GPGSV,3,2,12,19,32,093,40,28,29,221,32,23,27,137,40,03,23,053,35*7A
$GPGSV,3,3,12,05,21,302,31,06,13,043,26,26,00,314,,16,00,043,*7A
$GPRMC,224626.000,A,3748.7987,N,12217.8578,W,0.11,73.29,080512,,,D*42
$GPVTG,73.29,T,,M,0.11,N,0.2,K,D*35
$GPGGA,224627.000,3748.7987,N,12217.8577,W,2,08,1.1,5.5,M,-25.1,M,1.8,0000*4D
$GPGSA,A,3,13,03,07,23,05,06,19,08,,,,,2.0,1.1,1.7*32
$GPRMC,224627.000,A,3748.7987,N,12217.8577,W,0.12,75.34,080512,,,D*45
$GPVTG,75.34,T,,M,0.12,N,0.2,K,D*3C
$GPGGA,224628.000,3748.7987,N,12217.8577,W,2,08,1.1,5.1,M,-25.1,M,1.8,0000*46
$GPGSA,A,3,13,03,07,23,05,06,19,08,,,,,2.0,1.1,1.7*32
$GPRMC,224628.000,A,3748.7987,N,12217.8577,W,0.08,159.01,080512,,,D*78
$GPVTG,159.01,T,,M,0.08,N,0.2,K,D*0E
$GPGGA,224629.000,3748.7988,N,12217.8577,W,2,08,1.1,4.7,M,-25.1,M,2.8,0000*4C
$GPGSA,A,3,13,03,07,23,05,06,19,08,,,,,2.0,1.1,1.7*32
$GPRMC,224629.000,A,3748.7988,N,12217.8577,W,0.10,180.55,080512,,,D*7A
$GPVTG,180.55,T,,M,0.10,N,0.2,K,D*02
$GPGGA,224630.000,3748.7988,N,12217.8577,W,2,08,1.1,4.4,M,-25.1,M,3.8,0000*46
$GPGSA,A,3,13,03,07,23,05,06,19,08,,,,,2.0,1.1,1.7*32
$GPRMC,224630.000,A,3748.7988,N,12217.8577,W,0.08,170.19,080512,,,D*7C
$GPVTG,170.19,T,,M,0.08,N,0.2,K,D*0C
$GPGGA,224631.000,3748.7988,N,12217.8577,W,2,08,1.1,4.1,M,-25.1,M,4.8,0000*45
$GPGSA,A,3,13,03,07,23,05,06,19,08,,,,,2.0,1.1,1.7*32
$GPGSV,3,1,12,07,65,014,42,13,60,129,42,08,47,298,43,10,35,240,27*7C
$GPGSV,3,2,12,19,32,093,40,28,29,221,32,23,27,137,40,03,23,053,35*7A
$GPGSV,3,3,12,05,21,302,31,06,13,043,27,26,00,314,,16,00,043,*7B
$GPRMC,224631.000,A,3748.7988,N,12217.8577,W,0.09,176.74,080512,,,D*71
$GPVTG,176.74,T,,M,0.09,N,0.2,K,D*00
$GPGGA,224632.000,3748.7988,N,12217.8577,W,2,08,1.1,3.7,M,-25.1,M,1.8,0000*42
$GPGSA,A,3,13,03,07,23,05,06,19,08,,,,,2.0,1.1,1.7*32
$GPRMC,224632.000,A,3748.7988,N,12217.8577,W,0.11,161.72,080512,,,D*7B
$GPVTG,161.72,T,,M,0.11,N,0.2,K,D*09
$GPGGA,224633.000,3748.7988,N,12217.8577,W,2,08,1.1,3.3,M,-25.1,M,1.8,0000*47
$GPGSA,A,3,13,03,07,23,05,06,19,08,,,,,2.0,1.1,1.7*32
$GPRMC,224633.000,A,3748.7988,N,12217.8577,W,0.11,151.11,080512,,,D*7C
$GPVTG,151.11,T,,M,0.11,N,0.2,K,D*0F
$GPGGA,224634.000,3748.7988,N,12217.8577,W,2,08,1.1,3.0,M,-25.1,M,1.8,0000*43
$GPGSA,A,3,13,03,07,23,05,06,19,08,,,,,2.0,1.1,1.7*32
$GPRMC,224634.000,A,3748.7988,N,12217.8577,W,0.13,121.20,080512,,,D*7C
$GPVTG,121.20,T,,M,0.13,N,0.2,K,D*08
$GPGGA,224635.000,3748.7988,N,12217.8577,W,2,08,1.1,2.8,M,-25.1,M,1.8,0000*4B
$GPGSA,A,3,13,03,07,23,05,06,19,08,,,,,2.0,1.1,1.7*32
$GPRMC,224635.000,A,3748.7988,N,12217.8577,W,0.12,124.56,080512,,,D*78
$GPVTG,124.56,T,,M,0.12,N,0.2,K,D*0D
$GPGGA,224636.000,3748.7988,N,12217.8577,W,2,08,1.1,2.5,M,-25.1,M,1.8,0000*45
$GPGSA,A,3,13,03,07,23,05,06,19,08,,,,,2.0,1.1,1.7*32
$GPGSV,3,1,12,07,65,014,42,13,60,129,42,08,47,298,43,10,35,240,28*73
$GPGSV,3,2,12,19,32,093,41,28,29,221,32,23,27,137,40,03,23,053,35*7B
$GPGSV,3,3,12,05,21,302,31,06,13,043,27,26,00,314,,16,00,043,*7B
$GPRMC,224636.000,A,3748.7988,N,12217.8577,W,0.12,123.97,080512,,,D*71
$GPVTG,123.97,T,,M,0.12,N,0.2,K,D*07
$GPGGA,224637.000,3748.7988,N,12217.8576,W,2,08,1.1,2.3,M,-25.1,M,1.8,0000*43
$GPGSA,A,3,13,03,07,23,05,06,19,08,,,,,2.0,1.1,1.7*32
$GPRMC,224637.000,A,3748.7988,N,12217.8576,W,0.12,129.16,080512,,,D*72
$GPVTG,129.16,T,,M,0.12,N,0.2,K,D*04
$GPGGA,224638.000,3748.7988,N,12217.8576,W,2,08,1.1,2.2,M,-25.1,M,1.8,0000*4D
$GPGSA,A,3,13,03,07,23,05,06,19,08,,,,,2.0,1.1,1.7*32
$GPRMC,224638.000,A,3748.7988,N,12217.8576,W,0.08,136.21,080512,,,D*7C
$GPVTG,136.21,T,,M,0.08,N,0.2,K,D*05
$GPGGA,224639.000,3748.7988,N,12217.8576,W,2,08,1.1,2.0,M,-25.1,M,1.8,0000*4E
$GPGSA,A,3,13,03,07,23,05,06,19,08,,,,,2.0,1.1,1.7*32
$GPRMC,224639.000,A,3748.7988,N,12217.8576,W,0.09,127.45,080512,,,D*7E
$GPVTG,127.45,T,,M,0.09,N,0.2,K,D*06
$GPGGA,224640.000,3748.7988,N,12217.8576,W,2,08,1.1,1.9,M,-25.1,M,1.8,0000*4A
$GPGSA,A,3,13,03,07,23,05,06,19,08,,,,,2.0,1.1,1.7*32
$GPRMC,224640.000,A,3748.7988,N,12217.8576,W,0.08,170.74,080512,,,D*71
$GPVTG,170.74,T,,M,0.08,N,0.2,K,D*07
$GPGGA,224641.000,3748.7988,N,12217.8576,W,2,08,1.1,1.7,M,-25.1,M,2.8,0000*46
$GPGSA,A,3,13,03,07,23,05,06,19,08,,,,,2.0,1.1,1.7*32
$GPGSV,3,1,12,07,65,014,43,13,60,129,41,08,47,298,43,10,35,240,28*71
$GPGSV,3,2,12,19,32,093,41,28,29,221,32,23,27,137,40,03,23,053,35*7B
$GPRMC,224641.000,A,3748.7988,N,12217.8576,W,0.05,178.17,080512,,,D*70
$GPVTG,178.17,T,,M,0.05,N,0.1,K,D*04
$GPGGA,224642.000,3748.7988,N,12217.8577,W,2,08,1.1,1.6,M,-25.1,M,1.8,0000*46
$GPGSA,A,3,13,03,07,23,05,06,19,08,,,,,2.0,1.1,1.7*32
$GPRMC,224642.000,A,3748.7988,N,12217.8577,W,0.07,185.65,080512,,,D*77
$GPVTG,185.65,T,,M,0.07,N,0.1,K,D*01
$GPGGA,224643.000,3748.7988,N,12217.8577,W,2,08,1.1,1.5,M,-25.1,M,2.8,0000*47
$GPGSA,A,3,13,03,07,23,05,06,19,08,,,,,2.0,1.1,1.7*32
$GPRMC,224643.000,A,3748.7988,N,12217.8577,W,0.05,158.19,080512,,,D*7F
$GPVTG,158.19,T,,M,0.05,N,0.1,K,D*08
$GPGGA,224644.000,3748.7988,N,12217.8578,W,2,08,1.1,1.3,M,-25.1,M,1.8,0000*4A
$GPGSA,A,3,13,03,07,23,05,06,19,08,,,,,2.0,1.1,1.7*32
$GPRMC,224644.000,A,3748.7988,N,12217.8578,W,0.36,215.05,080512,,,D*70
$GPVTG,215.05,T,,M,0.36,N,0.7,K,D*09
$GPGGA,224645.000,3748.7988,N,12217.8578,W,2,08,1.1,1.5,M,-25.1,M,1.8,0000*4D
$GPGSA,A,3,13,03,07,23,05,06,19,08,,,,,2.0,1.1,1.7*32
$GPRMC,224645.000,A,3748.7988,N,12217.8578,W,0.35,9.44,080512,,,D*78
$GPVTG,9.44,T,,M,0.35,N,0.6,K,D*01
$GPGGA,224646.000,3748.7988,N,12217.8579,W,2,08,1.1,1.5,M,-25.1,M,2.8,0000*4C
$GPGSA,A,3,13,03,07,23,05,06,19,08,,,,,2.0,1.1,1.7*32
$GPGSV,3,1,12,07,65,014,32,13,59,130,32,08,47,298,34,10,34,240,28*70
$GPGSV,3,2,12,19,32,093,30,28,29,221,26,23,27,137,32,03,23,053,23*7A
$GPGSV,3,3,12,05,21,302,44,06,13,043,25,26,00,314,,16,00,043,*7B
$GPRMC,224646.000,A,3748.7988,N,12217.8579,W,0.37,218.48,080512,,,D*76
$GPVTG,218.48,T,,M,0.37,N,0.7,K,D*0C
$GPGGA,224647.000,3748.7987,N,12217.8581,W,2,08,1.1,1.4,M,-25.1,M,3.8,0000*45
$GPGSA,A,3,13,03,07,23,05,06,19,08,,,,,2.0,1.1,1.7*32
$GPRMC,224647.000,A,3748.7987,N,12217.8581,W,0.22,229.64,080512,,,D*77
$GPVTG,229.64,T,,M,0.22,N,0.4,K,D*07
$GPGGA,224648.000,3748.7991,N,12217.8582,W,2,08,1.1,0.6,M,-25.1,M,4.8,0000*4A
$GPGSA,A,3,13,03,07,23,05,06,19,08,,,,,2.0,1.1,1.7*32
$GPRMC,224648.000,A,3748.7991,N,12217.8582,W,0.63,14.98,080512,,,D*46
$GPVTG,14.98,T,,M,0.63,N,1.2,K,D*3A
$GPGGA,224649.000,3748.7995,N,12217.8584,W,2,08,1.1,0.7,M,-25.1,M,5.8,0000*49
$GPGSA,A,3,13,03,07,23,05,06,19,08,,,,,2.0,1.1,1.7*32
$GPRMC,224649.000,A,3748.7995,N,12217.8584,W,0.40,6.68,080512,,,D*78
$GPVTG,6.68,T,,M,0.40,N,0.7,K,D*03
$GPGGA,224650.000,3748.8000,N,12217.8584,W,2,08,1.1,-0.1,M,-25.1,M,6.8,0000*63
$GPGSA,A,3,13,03,07,23,05,06,19,08,,,,,2.0,1.1,1.7*32
$GPRMC,224650.000,A,3748.8000,N,12217.8584,W,0.10,60.39,080512,,,D*4B
$GPVTG,60.39,T,,M,0.10,N,0.2,K,D*37
$GPGGA,224651.000,3748.7997,N,12217.8586,W,2,08,1.1,0.3,M,-25.1,M,7.8,0000*46
$GPGSA,A,3,13,03,07,23,05,06,19,08,,,,,2.0,1.1,1.7*32
$GPGSV,3,1,12,07,65,014,32,13,59,130,25,08,47,298,36,10,34,240,26*7A
$GPGSV,3,2,12,19,32,093,29,28,29,221,27,23,27,137,25,03,23,053,29*7F
$GPGSV,3,3,12,05,21,302,36,06,13,043,33,26,00,314,,16,00,043,*79
$GPRMC,224651.000,A,3748.7997,N,12217.8586,W,0.16,99.26,080512,,,D*4E
$GPVTG,99.26,T,,M,0.16,N,0.3,K,D*38
$GPGGA,224652.000,3748.7994,N,12217.8588,W,2,08,1.1,0.8,M,-25.1,M,8.8,0000*4C
$GPGSA,A,3,13,03,07,23,05,06,19,08,,,,,2.0,1.1,1.7*32
$GPRMC,224652.000,A,3748.7994,N,12217.8588,W,0.21,184.03,080512,,,D*7E
$GPVTG,184.03,T,,M,0.21,N,0.4,K,D*01
$GPGGA,224653.000,3748.7992,N,12217.8590,W,2,08,1.1,1.2,M,-25.1,M,9.8,0000*48
$GPGSA,A,3,13,03,07,23,05,06,19,08,,,,,2.0,1.1,1.7*32
$GPRMC,224653.000,A,3748.7992,N,12217.8590,W,0.33,347.37,080512,,,D*79
$GPVTG,347.37,T,,M,0.33,N,0.6,K,D*0A
$GPGGA,224654.000,3748.7991,N,12217.8591,W,2,08,1.1,1.6,M,-25.1,M,10.8,0000*71
$GPGSA,A,3,13,03,07,23,05,06,19,08,,,,,2.0,1.1,1.7*32
$GPRMC,224654.000,A,3748.7991,N,12217.8591,W,0.33,50.08,080512,,,D*45
$GPVTG,50.08,T,,M,0.33,N,0.6,K,D*33
$GPGGA,224655.000,3748.7985,N,12217.8592,W,2,08,1.1,1.4,M,-25.1,M,11.8,0000*75
$GPGSA,A,3,13,03,07,23,05,06,19,08,,,,,2.0,1.1,1.7*32
$GPRMC,224655.000,A,3748.7985,N,12217.8592,W,0.46,169.45,080512,,,D*72
$GPVTG,169.45,T,,M,0.46,N,0.9,K,D*0C
$GPGGA,224656.000,3748.7982,N,12217.8596,W,2,08,1.1,1.8,M,-25.1,M,12.8,0000*7A
$GPGSA,A,3,13,03,07,23,05,06,19,08,,,,,2.0,1.1,1.7*32
$GPGSV,3,1,12,07,65,014,23,13,59,130,35,08,47,298,29,10,34,240,19*79
$GPGSV,3,2,12,19,32,093,31,28,29,221,24,23,27,137,34,03,23,053,30*7D
$GPGSV,3,3,12,05,21,302,23,06,13,043,31,26,00,314,,16,00,043,*7F
$GPRMC,224656.000,A,3748.7982,N,12217.8596,W,0.30,85.16,080512,,,D*46
$GPVTG,85.16,T,,M,0.30,N,0.6,K,D*37
$GPGGA,224657.000,3748.7979,N,12217.8593,W,2,08,1.1,1.9,M,-25.1,M,13.8,0000*7A
$GPGSA,A,3,13,03,07,23,05,06,19,08,,,,,2.0,1.1,1.7*32
$GPRMC,224657.000,A,3748.7979,N,12217.8593,W,0.53,132.45,080512,,,D*78
$GPVTG,132.45,T,,M,0.53,N,1.0,K,D*0E
$GPGGA,224658.000,3748.7981,N,12217.8594,W,2,08,1.1,1.7,M,-25.1,M,14.8,0000*7C
$GPGSA,A,3,13,03,07,23,05,06,19,08,,,,,2.0,1.1,1.7*32
$GPRMC,224658.000,A,3748.7981,N,12217.8594,W,0.54,210.33,080512,,,D*72
$GPVTG,210.33,T,,M,0.54,N,1.0,K,D*0B
$GPGGA,224659.000,3748.7979,N,12217.8597,W,2,08,1.1,2.0,M,-25.1,M,15.8,0000*7C
$GPGSA,A,3,13,03,07,23,05,06,19,08,,,,,2.0,1.1,1.7*32
$GPRMC,224659.000,A,3748.7979,N,12217.8597,W,0.15,233.11,080512,,,D*73
$GPVTG,233.11,T,,M,0.15,N,0.3,K,D*0D
$GPGGA,224700.000,3748.7975,N,12217.8598,W,2,08,1.1,2.0,M,-25.1,M,16.8,0000*71
$GPGSA,A,3,13,03,07,23,05,06,19,08,,,,,2.0,1.1,1.7*32
$GPRMC,224700.000,A,3748.7975,N,12217.8598,W,0.25,176.56,080512,,,D*7F
$GPVTG,176.56,T,,M,0.25,N,0.5,K,D*09
$GPGGA,224701.000,3748.7975,N,12217.8598,W,2,08,1.1,1.7,M,-25.1,M,17.8,0000*75
$GPGSA,A,3,13,03,07,23,05,06,19,08,,,,,2.0,1.1,1.7*32
$GPGSV,3,1,12,07,65,014,27,13,59,130,30,08,47,298,27,10,34,240,17*78
$GPGSV,3,2,12,19,32,093,33,28,29,221,17,23,27,137,27,03,23,053,31*7C
$GPRMC,224701.000,A,3748.7975,N,12217.8598,W,0.13,258.64,080512,,,D*75
$GPVTG,258.64,T,,M,0.13,N,0.2,K,D*05
$GPGGA,224702.000,3748.7973,N,12217.8601,W,1,08,1.1,1.8,M,-25.1,M,,0000*6F
$GPGSA,A,3,13,03,07,23,05,06,19,08,,,,,2.0,1.1,1.7*32
$GPRMC,224702.000,A,3748.7973,N,12217.8601,W,0.13,329.20,080512,,,A*71
$GPVTG,329.20,T,,M,0.13,N,0.2,K,A*07
$GPGGA,224703.000,3748.7977,N,12217.8598,W,1,08,1.1,1.3,M,-25.1,M,,0000*62
$GPGSA,A,3,13,03,07,23,05,06,19,08,,,,,2.0,1.1,1.7*32
$GPRMC,224703.000,A,3748.7977,N,12217.8598,W,0.03,298.51,080512,,,A*7B
$GPVTG,298.51,T,,M,0.03,N,0.1,K,A*08
$GPGGA,224704.000,3748.7974,N,12217.8600,W,1,08,1.1,1.8,M,-25.1,M,,0000*6F
$GPGSA,A,3,13,03,07,23,05,06,19,08,,,,,2.0,1.1,1.7*32
$GPRMC,224704.000,A,3748.7974,N,12217.8600,W,0.12,156.11,080512,,,A*78
$GPVTG,156.11,T,,M,0.12,N,0.2,K,A*0E
$GPGGA,224705.000,3748.7975,N,12217.8599,W,1,08,1.1,2.0,M,-25.1,M,,0000*67
$GPGSA,A,3,13,03,07,23,05,06,19,08,,,,,2.0,1.1,1.7*32
$GPRMC,224705.000,A,3748.7975,N,12217.8599,W,0.09,110.35,080512,,,A*75
$GPVTG,110.35,T,,M,0.09,N,0.2,K,A*00
$GPGGA,224706.000,3748.7975,N,12217.8599,W,1,08,1.1,2.1,M,-25.1,M,,0000*65
$GPGSA,A,3,13,03,07,23,05,06,19,08,,,,,2.0,1.1,1.7*32
$GPGSV,3,1,12,07,65,014,36,13,59,130,37,08,47,298,35,10,34,240,07*7D
$GPGSV,3,2,12,19,32,093,33,28,29,221,17,23,27,137,33,03,23,053,35*7D
$GPGSV,3,3,12,05,21,302,32,06,13,043,36,26,00,314,,16,00,043,*78
$GPRMC,224706.000,A,3748.7975,N,12217.8599,W,0.07,97.13,080512,,,A*42
$GPVTG,97.13,T,,M,0.07,N,0.1,K,A*37
$GPGGA,224707.000,3748.7977,N,12217.8598,W,1,08,1.1,1.4,M,-25.1,M,,0000*61
$GPGSA,A,3,13,03,07,23,05,06,19,08,,,,,2.0,1.1,1.7*32
$GPRMC,224707.000,A,3748.7977,N,12217.8598,W,0.02,74.28,080512,,,A*40
$GPVTG,74.28,T,,M,0.02,N,0.0,K,A*36
$GPGGA,224708.000,3748.7979,N,12217.8596,W,1,08,1.1,0.6,M,-25.1,M,,0000*6D
$GPGSA,A,3,13,03,07,23,05,06,19,08,,,,,2.0,1.1,1.7*32
$GPRMC,224708.000,A,3748.7979,N,12217.8596,W,0.31,96.04,080512,,,A*4D
$GPVTG,96.04,T,,M,0.31,N,0.6,K,A*32
$GPGGA,224709.000,3748.7980,N,12217.8596,W,1,08,1.1,1.0,M,-25.1,M,,0000*6D
$GPGSA,A,3,13,03,07,23,05,06,19,08,,,,,2.0,1.1,1.7*32
$GPRMC,224709.000,A,3748.7980,N,12217.8596,W,0.30,308.62,080512,,,A*7F
$GPVTG,308.62,T,,M,0.30,N,0.6,K,A*07
$GPGGA,224710.000,3748.7981,N,12217.8597,W,1,07,1.2,0.7,M,-25.1,M,,0000*6F
$GPGSA,A,3,13,07,23,05,06,19,08,,,,,,2.1,1.2,1.7*33
$GPRMC,224710.000,A,3748.7981,N,12217.8597,W,0.21,199.90,080512,,,A*70
$GPVTG,199.90,T,,M,0.21,N,0.4,K,A*02
$GPGGA,224711.000,3748.7978,N,12217.8601,W,1,07,1.2,0.7,M,-25.1,M,,0000*64
$GPGSA,A,3,13,07,23,05,06,19,08,,,,,,2.1,1.2,1.7*33
$GPGSV,3,1,12,07,65,014,22,13,59,130,24,08,47,298,32,10,34,240,*7A
$GPGSV,3,2,12,19,32,093,27,28,29,221,24,23,27,137,31,03,23,053,*7C
$GPGSV,3,3,12,05,21,302,39,06,13,043,27,26,00,314,,16,00,043,*73
$GPRMC,224711.000,A,3748.7978,N,12217.8601,W,0.33,172.80,080512,,,A*7C
$GPVTG,172.80,T,,M,0.33,N,0.6,K,A*07
$GPGGA,224712.000,3748.7976,N,12217.8601,W,1,08,1.1,1.0,M,-25.1,M,,0000*63
$GPGSA,A,3,13,03,07,23,05,06,19,08,,,,,2.0,1.1,1.7*32
$GPRMC,224712.000,A,3748.7976,N,12217.8601,W,0.20,178.70,080512,,,A*76
$GPVTG,178.70,T,,M,0.20,N,0.4,K,A*02
$GPGGA,224713.000,3748.7977,N,12217.8602,W,1,08,1.1,1.3,M,-25.1,M,,0000*63
$GPGSA,A,3,13,03,07,23,05,06,19,08,,,,,2.0,1.1,1.7*32
$GPRMC,224713.000,A,3748.7977,N,12217.8602,W,0.32,267.41,080512,,,A*79
$GPVTG,267.41,T,,M,0.32,N,0.6,K,A*0C
$GPGGA,224714.000,3748.7979,N,12217.8600,W,1,08,1.1,0.9,M,-25.1,M,,0000*63
$GPGSA,A,3,13,03,07,23,05,06,19,08,,,,,2.0,1.1,1.7*32
$GPRMC,224714.000,A,3748.7979,N,12217.8600,W,0.68,49.00,080512,,,A*46
$GPVTG,49.00,T,,M,0.68,N,1.3,K,A*3C
$GPGGA,224715.000,3748.7983,N,12217.8598,W,1,08,1.1,0.6,M,-25.1,M,,0000*6A
$GPGSA,A,3,13,03,07,23,05,06,19,08,,,,,2.0,1.1,1.7*32
$GPRMC,224715.000,A,3748.7983,N,12217.8598,W,0.17,51.78,080512,,,A*4E
$GPVTG,51.78,T,,M,0.17,N,0.3,K,A*33
$GPGGA,224716.000,3748.7985,N,12217.8596,W,1,08,1.1,0.3,M,-25.1,M,,0000*64
$GPGSA,A,3,13,03,07,23,05,06,19,08,,,,,2.0,1.1,1.7*32
$GPGSV,3,1,12,07,65,014,32,13,59,130,37,08,47,298,24,10,34,240,*7E
$GPGSV,3,2,12,19,32,093,39,28,29,221,30,23,27,137,40,03,23,053,34*77
$GPGSV,3,3,12,05,21,302,25,06,13,043,36,26,00,314,,16,00,043,*7E
$GPRMC,224716.000,A,3748.7985,N,12217.8596,W,0.02,157.28,080512,,,A*73
$GPVTG,157.28,T,,M,0.02,N,0.0,K,A*06
$GPGGA,224717.000,3748.7986,N,12217.8595,W,1,08,1.1,0.3,M,-25.1,M,,0000*65
$GPGSA,A,3,13,03,07,23,05,06,19,08,,,,,2.0,1.1,1.7*32
$GPRMC,224717.000,A,3748.7986,N,12217.8595,W,0.11,22.36,080512,,,A*4C
$GPVTG,22.36,T,,M,0.11,N,0.2,K,A*3A
$GPGGA,224718.000,3748.7987,N,12217.8596,W,1,07,1.3,-0.0,M,-25.1,M,,0000*4B
$GPGSA,A,3,13,03,23,05,06,19,08,,,,,,2.7,1.3,2.4*30
$GPRMC,224718.000,A,3748.7987,N,12217.8596,W,0.13,110.50,080512,,,A*73
$GPVTG,110.50,T,,M,0.13,N,0.2,K,A*08
$GPGGA,224719.000,3748.7988,N,12217.8595,W,1,08,1.1,-0.2,M,-25.1,M,,0000*49
$GPGSA,A,3,13,03,07,23,05,06,19,08,,,,,2.0,1.1,1.7*32
$GPRMC,224719.000,A,3748.7988,N,12217.8595,W,0.33,144.72,080512,,,A*7D
$GPVTG,144.72,T,,M,0.33,N,0.6,K,A*0F
$GPGGA,224720.000,3748.7990,N,12217.8593,W,1,08,1.1,0.5,M,-25.1,M,,0000*66
$GPGSA,A,3,13,03,07,23,05,06,19,08,,,,,2.0,1.1,1.7*32
$GPRMC,224720.000,A,3748.7990,N,12217.8593,W,0.07,116.17,080512,,,A*7B
$GPVTG,116.17,T,,M,0.07,N,0.1,K,A*0B
$GPGGA,224721.000,3748.7989,N,12217.8595,W,1,08,1.1,0.3,M,-25.1,M,,0000*6F
$GPGSA,A,3,13,03,07,23,05,06,19,08,,,,,2.0,1.1,1.7*32
$GPGSV,3,1,12,07,65,014,28,13,59,130,35,08,47,298,21,10,34,240,*72
$GPGSV,3,2,12,19,32,093,40,28,29,221,30,23,27,137,41,03,23,053,37*7B
$GPGSV,3,3,12,05,21,302,25,06,13,043,32,26,00,314,,16,00,043,*7A
$GPRMC,224721.000,A,3748.7989,N,12217.8595,W,0.67,250.66,080512,,,A*75
$GPGGA,224722.000,3748.7985,N,12217.8595,W,1,08,1.1,0.3,M,-25.1,M,,0000*60
$GPGSA,A,3,13,03,07,23,05,06,19,08,,,,,2.0,1.1,1.7*32
$GPRMC,224722.000,A,3748.7985,N,12217.8595,W,0.72,124.39,080512,,,A*74
$GPVTG,124.39,T,,M,0.72,N,1.3,K,A*07
$GPGGA,224723.000,3748.7979,N,12217.8593,W,1,08,1.1,0.1,M,-25.1,M,,0000*66
$GPGSA,A,3,13,03,07,23,05,06,19,08,,,,,2.0,1.1,1.7*32
$GPRMC,224723.000,A,3748.7979,N,12217.8593,W,0.72,151.78,080512,,,A*77
$GPVTG,151.78,T,,M,0.72,N,1.3,K,A*00
$GPGGA,224724.000,3748.7975,N,12217.8591,W,1,08,1.1,0.2,M,-25.1,M,,0000*6C
$GPGSA,A,3,13,03,07,23,05,06,19,08,,,,,2.0,1.1,1.7*32
$GPRMC,224724.000,A,3748.7975,N,12217.8591,W,1.24,130.44,080512,,,A*74
$GPVTG,130.44,T,,M,1.24,N,2.3,K,A*09
$GPGGA,224725.000,3748.7970,N,12217.8587,W,1,08,1.1,0.5,M,-25.1,M,,0000*68
$GPGSA,A,3,13,03,07,23,05,06,19,08,,,,,2.0,1.1,1.7*32
$GPRMC,224725.000,A,3748.7970,N,12217.8587,W,1.43,142.57,080512,,,A*71
$GPVTG,142.57,T,,M,1.43,N,2.6,K,A*0A
$GPGGA,224726.000,3748.7966,N,12217.8584,W,2,08,1.1,1.1,M,-25.1,M,1.8,0000*4E
$GPGSA,A,3,13,03,07,23,05,06,19,08,,,,,2.0,1.1,1.7*32
$GPGSV,3,1,12,07,65,014,25,13,59,130,35,08,47,298,22,10,34,240,33*7C
$GPGSV,3,2,12,19,32,093,38,28,29,221,37,23,27,137,40,03,23,053,33*76
$GPGSV,3,3,12,05,21,302,21,06,13,043,25,26,00,314,,16,00,043,*78
$GPRMC,224726.000,A,3748.7966,N,12217.8584,W,1.37,139.28,080512,,,D*74
$GPVTG,139.28,T,,M,1.37,N,2.5,K,D*0B
$GPGGA,224727.000,3748.7961,N,12217.8580,W,2,08,1.1,1.1,M,-25.1,M,1.8,0000*4C
$GPGSA,A,3,13,03,07,23,05,06,19,08,,,,,2.0,1.1,1.7*32
$GPRMC,224727.000,A,3748.7961,N,12217.8580,W,1.27,145.30,080512,,,D*75
$GPVTG,145.30,T,,M,1.27,N,2.4,K,D*09
$GPGGA,224728.000,3748.7957,N,12217.8577,W,2,08,1.1,1.4,M,-25.1,M,1.8,0000*4B
$GPGSA,A,3,13,03,07,23,05,06,19,08,,,,,2.0,1.1,1.7*32
$GPRMC,224728.000,A,3748.7957,N,12217.8577,W,0.94,145.62,080512,,,D*79
$GPVTG,145.62,T,,M,0.94,N,1.7,K,D*07
$GPGGA,224729.000,3748.7955,N,12217.8573,W,2,08,1.1,1.5,M,-25.1,M,2.8,0000*4E
$GPGSA,A,3,13,03,07,23,05,06,19,08,,,,,2.0,1.1,1.7*32
$GPRMC,224729.000,A,3748.7955,N,12217.8573,W,1.35,125.18,080512,,,D*7F
$GPVTG,125.18,T,,M,1.35,N,2.5,K,D*07
$GPGGA,224730.000,3748.7952,N,12217.8568,W,2,08,1.1,1.1,M,-25.1,M,3.8,0000*4E
$GPGSA,A,3,13,03,07,23,05,06,19,08,,,,,2.0,1.1,1.7*32
$GPRMC,224730.000,A,3748.7952,N,12217.8568,W,1.69,139.06,080512,,,D*71
$GPVTG,139.06,T,,M,1.69,N,3.1,K,D*09
$GPGGA,224731.000,3748.7948,N,12217.8561,W,2,08,1.1,-0.2,M,-25.1,M,4.8,0000*65
$GPGSA,A,3,13,03,07,23,05,06,19,08,,,,,2.0,1.1,1.7*32
$GPGSV,3,1,12,07,65,014,24,13,59,130,35,08,47,298,20,10,34,240,31*7D
$GPGSV,3,2,12,19,32,093,37,28,29,221,35,23,27,137,38,03,23,053,28*7E
$GPGSV,3,3,12,05,21,302,21,06,13,043,25,26,00,314,,16,00,043,*78
$GPRMC,224731.000,A,3748.7948,N,12217.8561,W,1.72,133.30,080512,,,D*77
$GPVTG,133.30,T,,M,1.72,N,3.2,K,D*0F
$GPGGA,224732.000,3748.7946,N,12217.8554,W,2,08,1.1,-1.4,M,-25.1,M,1.8,0000*6C
$GPGSA,A,3,13,03,07,23,05,06,19,08,,,,,2.0,1.1,1.7*32
$GPRMC,224732.000,A,3748.7946,N,12217.8554,W,1.92,125.15,080512,,,D*72
$GPVTG,125.15,T,,M,1.92,N,3.6,K,D*05
$GPGGA,224733.000,3748.7943,N,12217.8547,W,2,08,1.1,-2.9,M,-25.1,M,1.8,0000*64
$GPGSA,A,3,13,03,07,23,05,06,19,08,,,,,2.0,1.1,1.7*32
$GPRMC,224733.000,A,3748.7943,N,12217.8547,W,1.65,135.84,080512,,,D*75
$GPVTG,135.84,T,,M,1.65,N,3.1,K,D*03
$GPGGA,224734.000,3748.7939,N,12217.8541,W,2,08,1.1,-3.6,M,-25.1,M,2.8,0000*65
$GPGSA,A,3,13,03,07,23,05,06,19,08,,,,,2.0,1.1,1.7*32
$GPRMC,224734.000,A,3748.7939,N,12217.8541,W,1.99,144.64,080512,,,D*72
$GPVTG,144.64,T,,M,1.99,N,3.7,K,D*0E
$GPGGA,224735.000,3748.7935,N,12217.8530,W,2,08,1.1,-3.4,M,-25.1,M,3.8,0000*6D
$GPGSA,A,3,13,03,07,23,05,06,19,08,,,,,2.0,1.1,1.7*32
$GPRMC,224735.000,A,3748.7935,N,12217.8530,W,1.76,148.52,080512,,,D*71
$GPVTG,148.52,T,,M,1.76,N,3.3,K,D*02
$GPGGA,224736.000,3748.7931,N,12217.8522,W,2,08,1.1,-3.8,M,-25.1,M,4.8,0000*62
$GPGSA,A,3,13,03,07,23,05,06,19,08,,,,,2.0,1.1,1.7*32
$GPGSV,3,1,12,07,65,014,24,13,59,130,29,08,47,298,24,10,34,240,34*71
$GPGSV,3,2,12,19,32,093,30,28,29,221,36,23,27,137,32,03,23,053,19*72
$GPGSV,3,3,12,05,21,302,22,06,13,043,18,26,00,314,,16,00,043,*75
$GPRMC,224736.000,A,3748.7931,N,12217.8522,W,2.17,124.86,080512,,,D*72
$GPVTG,124.86,T,,M,2.17,N,4.0,K,D*01
$GPGGA,224737.000,3748.7928,N,12217.8512,W,2,08,1.1,-3.7,M,-25.1,M,1.8,0000*62
$GPGSA,A,3,13,03,07,23,05,06,19,08,,,,,2.0,1.1,1.7*32
$GPRMC,224737.000,A,3748.7928,N,12217.8512,W,1.76,124.36,080512,,,D*77
$GPVTG,124.36,T,,M,1.76,N,3.3,K,D*0A
$GPGGA,224738.000,3748.7926,N,12217.8507,W,2,08,1.1,-4.2,M,-25.1,M,1.8,0000*65
$GPGSA,A,3,13,03,07,23,05,06,19,08,,,,,2.0,1.1,1.7*32
$GPRMC,224738.000,A,3748.7926,N,12217.8507,W,1.66,120.06,080512,,,D*74
$GPVTG,120.06,T,,M,1.66,N,3.1,K,D*0E
$GPGGA,224739.000,3748.7924,N,12217.8495,W,2,08,1.1,-4.5,M,-25.1,M,1.8,0000*6B
$GPGSA,A,3,13,03,07,23,05,06,19,08,,,,,2.0,1.1,1.7*32
$GPRMC,224739.000,A,3748.7924,N,12217.8495,W,1.79,97.80,080512,,,D*40
$GPVTG,97.80,T,,M,1.79,N,3.3,K,D*31
$GPGGA,224740.000,3748.7923,N,12217.8482,W,2,08,1.1,-4.7,M,-25.1,M,1.8,0000*66
$GPGSA,A,3,13,03,07,23,05,06,19,08,,,,,2.0,1.1,1.7*32
$GPRMC,224740.000,A,3748.7923,N,12217.8482,W,1.42,94.57,080512,,,D*4E
$GPVTG,94.57,T,,M,1.42,N,2.6,K,D*34
$GPGGA,224741.000,3748.7922,N,12217.8471,W,2,08,1.1,-5.0,M,-25.1,M,2.8,0000*6F
$GPGSA,A,3,13,03,07,23,05,06,19,08,,,,,2.0,1.1,1.7*32
$GPGSV,3,1,12,07,65,014,23,13,59,130,33,08,47,298,24,10,34,240,29*71
$GPGSV,3,2,12,19,32,093,31,28,29,221,33,23,27,137,36,03,23,053,19*72
$GPGSV,3,3,12,05,21,302,23,06,13,043,18,26,00,314,,16,00,043,*74
$GPVTG,94.26,T,,M,2.12,N,3.9,K,D*3A
$GPGGA,224742.000,3748.7919,N,12217.8465,W,2,08,1.1,-4.7,M,-25.1,M,3.8,0000*66
$GPGSA,A,3,13,03,07,23,05,06,19,08,,,,,2.0,1.1,1.7*32
$GPRMC,224742.000,A,3748.7919,N,12217.8465,W,1.39,110.48,080512,,,D*73
$GPVTG,110.48,T,,M,1.39,N,2.6,K,D*0B
$GPGGA,224743.000,3748.7918,N,12217.8459,W,2,08,1.1,-4.8,M,-25.1,M,4.8,0000*61
$GPGSA,A,3,13,03,07,23,05,06,19,08,,,,,2.0,1.1,1.7*32
$GPRMC,224743.000,A,3748.7918,N,12217.8459,W,0.93,134.94,080512,,,D*7A
$GPVTG,134.94,T,,M,0.93,N,1.7,K,D*0F
$GPGGA,224744.000,3748.7916,N,12217.8456,W,2,08,1.1,-5.0,M,-25.1,M,5.8,0000*6F
$GPGSA,A,3,13,03,07,23,05,06,19,08,,,,,2.0,1.1,1.7*32
$GPRMC,224744.000,A,3748.7916,N,12217.8456,W,1.00,165.03,080512,,,D*7D
$GPVTG,165.03,T,,M,1.00,N,1.9,K,D*00
$GPGGA,224745.000,3748.7914,N,12217.8449,W,2,08,1.1,-5.3,M,-25.1,M,6.8,0000*62
$GPGSA,A,3,13,03,07,23,05,06,19,08,,,,,2.0,1.1,1.7*32
$GPRMC,224745.000,A,3748.7914,N,12217.8449,W,1.16,155.76,080512,,,D*76
$GPVTG,155.76,T,,M,1.16,N,2.2,K,D*0E
$GPGGA,224746.000,3748.7913,N,12217.8441,W,2,08,1.1,-3.1,M,-25.1,M,7.8,0000*6B
$GPGSA,A,3,13,03,07,23,05,06,19,08,,,,,2.0,1.1,1.7*32
$GPGSV,3,1,12,07,65,014,23,13,59,130,27,08,47,298,18,10,34,240,25*77
$GPGSV,3,2,12,19,32,093,31,28,29,221,29,23,27,137,33,03,23,053,23*75
$GPGSV,3,3,12,05,21,302,23,06,13,043,21,26,00,314,,16,00,043,*7E
$GPRMC,224746.000,A,3748.7913,N,12217.8441,W,1.37,157.91,080512,,,D*72
$GPVTG,157.91,T,,M,1.37,N,2.5,K,D*01
$GPGGA,224747.000,3748.7906,N,12217.8436,W,2,08,1.1,-2.8,M,-25.1,M,8.8,0000*69
$GPGSA,A,3,13,03,07,23,05,06,19,08,,,,,2.0,1.1,1.7*32
$GPRMC,224747.000,A,3748.7906,N,12217.8436,W,1.31,138.51,080512,,,D*74
$GPVTG,138.51,T,,M,1.31,N,2.4,K,D*03
$GPGGA,224748.000,3748.7904,N,12217.8426,W,2,08,1.1,-1.0,M,-25.1,M,9.8,0000*6F
$GPGSA,A,3,13,03,07,23,05,06,19,08,,,,,2.0,1.1,1.7*32
$GPRMC,224748.000,A,3748.7904,N,12217.8426,W,0.86,126.23,080512,,,D*7F
$GPVTG,126.23,T,,M,0.86,N,1.6,K,D*05
$GPGGA,224749.000,3748.7900,N,12217.8417,W,2,08,1.1,-1.6,M,-25.1,M,10.8,0000*56
$GPGSA,A,3,13,03,07,23,05,06,19,08,,,,,2.0,1.1,1.7*32
$GPRMC,224749.000,A,3748.7900,N,12217.8417,W,1.31,133.24,080512,,,D*76
$GPVTG,133.24,T,,M,1.31,N,2.4,K,D*0A
$GPGGA,224750.000,3748.7895,N,12217.8410,W,2,08,1.1,-1.7,M,-25.1,M,1.8,0000*65
$GPGSA,A,3,13,03,07,23,05,06,19,08,,,,,2.0,1.1,1.7*32
$GPRMC,224750.000,A,3748.7895,N,12217.8410,W,1.26,126.51,080512,,,D*74
$GPVTG,126.51,T,,M,1.26,N,2.3,K,D*0D
$GPGGA,224751.000,3748.7897,N,12217.8399,W,2,08,1.1,-0.6,M,-25.1,M,1.8,0000*60
$GPGSA,A,3,13,03,07,23,05,06,19,08,,,,,2.0,1.1,1.7*32
$GPGSV,3,1,12,07,65,014,23,13,59,130,34,08,47,298,20,10,34,240,26*7D
$GPGSV,3,2,12,19,32,093,37,28,29,221,32,23,27,137,39,03,23,053,23*73
$GPGSV,3,3,12,05,21,302,22,06,13,043,21,26,00,314,,16,00,043,*7F
$GPRMC,224751.000,A,3748.7897,N,12217.8399,W,1.09,116.52,080512,,,D*7C
$GPVTG,116.52,T,,M,1.09,N,2.0,K,D*03
$GPGGA,224752.000,3748.7894,N,12217.8393,W,2,08,1.1,-0.5,M,-25.1,M,1.8,0000*69
$GPGSA,A,3,13,03,07,23,05,06,19,08,,,,,2.0,1.1,1.7*32
$GPRMC,224752.000,A,3748.7894,N,12217.8393,W,1.60,131.78,080512,,,D*74
$GPVTG,131.78,T,,M,1.60,N,3.0,K,D*00
$GPGGA,224753.000,3748.7891,N,12217.8390,W,2,08,1.1,-0.5,M,-25.1,M,1.8,0000*6E
$GPGSA,A,3,13,03,07,23,05,06,19,08,,,,,2.0,1.1,1.7*32
$GPRMC,224753.000,A,3748.7891,N,12217.8390,W,1.76,119.80,080512,,,D*79
$GPVTG,119.80,T,,M,1.76,N,3.3,K,D*09
$GPGGA,224754.000,3748.7885,N,12217.8383,W,2,08,1.1,-0.6,M,-25.1,M,2.8,0000*6E
$GPGSA,A,3,13,03,07,23,05,06,19,08,,,,,2.0,1.1,1.7*32
$GPRMC,224754.000,A,3748.7885,N,12217.8383,W,1.75,135.58,080512,,,D*71
$GPVTG,135.58,T,,M,1.75,N,3.2,K,D*00
$GPGGA,224755.000,3748.7880,N,12217.8381,W,2,08,1.1,-2.0,M,-25.1,M,3.8,0000*6D
$GPGSA,A,3,13,03,07,23,05,06,19,08,,,,,2.0,1.1,1.7*32
$GPRMC,224755.000,A,3748.7880,N,12217.8381,W,1.48,142.22,080512,,,D*74
$GPVTG,142.22,T,,M,1.48,N,2.7,K,D*07
$GPGGA,224756.000,3748.7876,N,12217.8373,W,2,08,1.1,-1.7,M,-25.1,M,4.8,0000*69
$GPGSA,A,3,13,03,07,23,05,06,19,08,,,,,2.0,1.1,1.7*32
$GPGSV,3,1,12,07,65,014,23,13,59,130,33,08,47,298,25,10,34,240,31*79
$GPGSV,3,2,12,19,32,093,29,28,29,221,35,23,27,137,38,03,23,053,27*7E
$GPGSV,3,3,12,05,21,302,22,06,13,043,21,26,00,314,,16,00,043,*7F
$GPRMC,224756.000,A,3748.7876,N,12217.8373,W,1.70,134.27,080512,,,D*7C
$GPVTG,134.27,T,,M,1.70,N,3.1,K,D*0F
$GPGGA,224757.000,3748.7872,N,12217.8361,W,2,08,1.1,-1.1,M,-25.1,M,1.8,0000*6C
$GPGSA,A,3,13,03,07,23,05,06,19,08,,,,,2.0,1.1,1.7*32
$GPRMC,224757.000,A,3748.7872,N,12217.8361,W,1.82,132.22,080512,,,D*74
$GPVTG,132.22,T,,M,1.82,N,3.4,K,D*04
$GPGGA,224758.000,3748.7865,N,12217.8356,W,2,08,1.1,-0.8,M,-25.1,M,1.8,0000*69
$GPGSA,A,3,13,03,07,23,05,06,19,08,,,,,2.0,1.1,1.7*32
$GPRMC,224758.000,A,3748.7865,N,12217.8356,W,1.68,152.91,080512,,,D*73
$GPVTG,152.91,T,,M,1.68,N,3.1,K,D*0B
$GPGGA,224759.000,3748.7858,N,12217.8353,W,2,08,1.1,-0.5,M,-25.1,M,2.8,0000*6D
$GPGSA,A,3,13,03,07,23,05,06,19,08,,,,,2.0,1.1,1.7*32
$GPRMC,224759.000,A,3748.7858,N,12217.8353,W,2.07,140.26,080512,,,D*7C
$GPVTG,140.26,T,,M,2.07,N,3.8,K,D*07
$GPGGA,224800.000,3748.7855,N,12217.8344,W,2,08,1.1,-0.2,M,-25.1,M,1.8,0000*61
$GPGSA,A,3,13,03,07,23,05,06,19,08,,,,,2.0,1.1,1.7*32
$GPRMC,224800.000,A,3748.7855,N,12217.8344,W,2.30,125.53,080512,,,D*71
$GPVTG,125.53,T,,M,2.30,N,4.3,K,D*0E
$GPGGA,224801.000,3748.7853,N,12217.8332,W,2,08,1.1,-0.0,M,-25.1,M,2.8,0000*66
$GPGSA,A,3,13,03,07,23,05,06,19,08,,,,,2.0,1.1,1.7*32
$GPGSV,3,1,12,07,65,014,23,13,59,130,29,08,47,298,24,10,34,240,31*73
$GPGSV,3,2,12,19,32,093,30,28,29,221,36,23,27,137,39,03,23,053,21*72
$GPGSV,3,3,12,05,21,302,22,06,13,043,21,26,00,314,,16,00,043,*7F
$GPVTG,126.83,T,,M,2.06,N,3.8,K,D*09
$GPGGA,224802.000,3748.7851,N,12217.8323,W,2,08,1.1,0.6,M,-25.1,M,1.8,0000*4F
$GPGSA,A,3,13,03,07,23,05,06,19,08,,,,,2.0,1.1,1.7*32
$GPRMC,224802.000,A,3748.7851,N,12217.8323,W,1.70,125.68,080512,,,D*79
$GPVTG,125.68,T,,M,1.70,N,3.2,K,D*07
$GPGGA,224803.000,3748.7845,N,12217.8311,W,2,08,1.1,1.1,M,-25.1,M,1.8,0000*4C
$GPGSA,A,3,13,03,07,23,05,06,19,08,,,,,2.0,1.1,1.7*32
$GPRMC,224803.000,A,3748.7845,N,12217.8311,W,2.11,120.02,080512,,,D*71
$GPVTG,120.02,T,,M,2.11,N,3.9,K,D*01
$GPGGA,224804.000,3748.7841,N,12217.8300,W,2,08,1.1,1.7,M,-25.1,M,2.8,0000*4A
$GPGSA,A,3,13,03,07,23,05,06,19,08,,,,,2.0,1.1,1.7*32
$GPRMC,224804.000,A,3748.7841,N,12217.8300,W,2.22,125.40,080512,,,D*71
$GPVTG,125.40,T,,M,2.22,N,4.1,K,D*0D
$GPGGA,224805.000,3748.7838,N,12217.8292,W,2,08,1.1,2.3,M,-25.1,M,3.8,0000*49
$GPGSA,A,3,13,03,07,23,05,06,19,08,,,,,2.0,1.1,1.7*32
$GPRMC,224805.000,A,3748.7838,N,12217.8292,W,1.95,131.39,080512,,,D*70
$GPVTG,131.39,T,,M,1.95,N,3.6,K,D*09
$GPGGA,224806.000,3748.7836,N,12217.8288,W,2,08,1.1,2.8,M,-25.1,M,4.8,0000*43
$GPGSA,A,3,13,03,07,23,05,06,19,08,,,,,2.0,1.1,1.7*32
$GPGSV,3,1,12,07,65,014,23,13,59,130,31,08,47,298,24,10,34,240,31*7A
$GPGSV,3,2,12,19,32,093,29,28,29,221,36,23,27,137,34,03,23,053,22*74
$GPGSV,3,3,12,05,21,302,22,06,13,043,21,26,00,314,,16,00,043,*7F
$GPRMC,224806.000,A,3748.7836,N,12217.8288,W,1.78,117.87,080512,,,D*74
$GPVTG,117.87,T,,M,1.78,N,3.3,K,D*0E
$GPGGA,224807.000,3748.7833,N,12217.8282,W,2,08,1.1,3.5,M,-25.1,M,5.8,0000*40
$GPGSA,A,3,13,03,07,23,05,06,19,08,,,,,2.0,1.1,1.7*32
$GPRMC,224807.000,A,3748.7833,N,12217.8282,W,1.73,132.78,080512,,,D*76
$GPVTG,132.78,T,,M,1.73,N,3.2,K,D*03
$GPGGA,224808.000,3748.7830,N,12217.8275,W,2,08,1.1,3.6,M,-25.1,M,1.8,0000*43
$GPGSA,A,3,13,03,07,23,05,06,19,08,,,,,2.0,1.1,1.7*32
$GPRMC,224808.000,A,3748.7830,N,12217.8275,W,2.21,126.53,080512,,,D*7A
$GPVTG,126.53,T,,M,2.21,N,4.1,K,D*0F
$GPGGA,224809.000,3748.7828,N,12217.8270,W,2,08,1.1,3.0,M,-25.1,M,2.8,0000*4B
$GPGSA,A,3,13,03,07,23,05,06,19,08,,,,,2.0,1.1,1.7*32
$GPRMC,224809.000,A,3748.7828,N,12217.8270,W,2.26,118.89,080512,,,D*7A
$GPVTG,118.89,T,,M,2.26,N,4.2,K,D*01
$GPGGA,224810.000,3748.7825,N,12217.8266,W,2,08,1.1,2.1,M,-25.1,M,3.8,0000*48
$GPGSA,A,3,13,03,07,23,05,06,19,08,,,,,2.0,1.1,1.7*32
$GPRMC,224810.000,A,3748.7825,N,12217.8266,W,2.40,118.47,080512,,,D*7A
$GPVTG,118.47,T,,M,2.40,N,4.4,K,D*05
$GPGGA,224811.000,3748.7822,N,12217.8260,W,2,08,1.1,1.5,M,-25.1,M,1.8,0000*4D
$GPGSA,A,3,13,03,07,23,05,06,19,08,,,,,2.0,1.1,1.7*32
$GPGSV,3,1,12,07,65,014,23,13,59,130,31,08,47,298,23,10,34,240,29*74
$GPGSV,3,2,12,19,32,093,31,28,29,221,35,23,27,137,36,03,23,053,21*7F
$GPGSV,3,3,12,05,21,302,27,06,13,043,20,26,00,314,,16,00,043,*7B
$GPRMC,224811.000,A,3748.7822,N,12217.8260,W,2.09,124.43,080512,,,D*7C
$GPVTG,124.43,T,,M,2.09,N,3.9,K,D*09
$GPGGA,224812.000,3748.7819,N,12217.8255,W,2,08,1.1,1.0,M,-25.1,M,1.8,0000*45
$GPGSA,A,3,13,03,07,23,05,06,19,08,,,,,2.0,1.1,1.7*32
$GPRMC,224812.000,A,3748.7819,N,12217.8255,W,1.99,127.22,080512,,,D*7F
$GPVTG,127.22,T,,M,1.99,N,3.7,K,D*09
$GPGGA,224813.000,3748.7815,N,12217.8248,W,2,08,1.1,1.0,M,-25.1,M,2.8,0000*47
$GPGSA,A,3,13,03,07,23,05,06,19,08,,,,,2.0,1.1,1.7*32
$GPRMC,224813.000,A,3748.7815,N,12217.8248,W,1.93,121.13,080512,,,D*70
$GPVTG,121.13,T,,M,1.93,N,3.6,K,D*06
$GPGGA,224814.000,3748.7812,N,12217.8240,W,2,08,1.1,1.3,M,-25.1,M,1.8,0000*4F
$GPGSA,A,3,13,03,07,23,05,06,19,08,,,,,2.0,1.1,1.7*32
$GPRMC,224814.000,A,3748.7812,N,12217.8240,W,2.22,123.15,080512,,,D*75
$GPVTG,123.15,T,,M,2.22,N,4.1,K,D*0B
$GPGGA,224815.000,3748.7808,N,12217.8232,W,2,08,1.1,0.9,M,-25.1,M,1.8,0000*4B
$GPGSA,A,3,13,03,07,23,05,06,19,08,,,,,2.0,1.1,1.7*32
$GPRMC,224815.000,A,3748.7808,N,12217.8232,W,1.66,119.75,080512,,,D*76
$GPVTG,119.75,T,,M,1.66,N,3.1,K,D*00
$GPGGA,224816.000,3748.7805,N,12217.8224,W,2,08,1.1,0.5,M,-25.1,M,1.8,0000*4E
$GPGSA,A,3,13,03,07,23,05,06,19,08,,,,,2.0,1.1,1.7*32
$GPGSV,3,1,12,07,65,016,23,13,59,131,28,08,48,299,24,10,34,239,31*71
$GPGSV,3,2,12,19,32,092,31,28,30,222,36,23,26,137,36,03,22,053,21*76
$GPGSV,3,3,12,05,21,301,23,06,12,043,20,26,01,314,,48,44,197,36*7A
$GPRMC,224816.000,A,3748.7805,N,12217.8224,W,2.24,124.25,080512,,,D*71
$GPVTG,124.25,T,,M,2.24,N,4.1,K,D*09
$GPGGA,224817.000,3748.7800,N,12217.8218,W,2,08,1.1,0.1,M,-25.1,M,2.8,0000*42
$GPGSA,A,3,13,03,07,23,05,06,19,08,,,,,2.0,1.1,1.7*32
$GPRMC,224817.000,A,3748.7800,N,12217.8218,W,1.98,141.63,080512,,,D*7F
$GPVTG,141.63,T,,M,1.98,N,3.7,K,D*0D
$GPGGA,224818.000,3748.7793,N,12217.8211,W,2,08,1.1,0.3,M,-25.1,M,3.8,0000*42
$GPGSA,A,3,13,03,07,23,05,06,19,08,,,,,2.0,1.1,1.7*32
$GPRMC,224818.000,A,3748.7793,N,12217.8211,W,1.46,149.80,080512,,,D*7A
$GPVTG,149.80,T,,M,1.46,N,2.7,K,D*0A
$GPGGA,224819.000,3748.7788,N,12217.8204,W,2,08,1.1,0.1,M,-25.1,M,4.8,0000*48
$GPGSA,A,3,13,03,07,23,05,06,19,08,,,,,2.0,1.1,1.7*32
$GPRMC,224819.000,A,3748.7788,N,12217.8204,W,1.62,150.31,080512,,,D*71
$GPVTG,150.31,T,,M,1.62,N,3.0,K,D*08
$GPGGA,224820.000,3748.7784,N,12217.8201,W,2,08,1.1,-0.0,M,-25.1,M,5.8,0000*66
$GPGSA,A,3,13,03,07,23,05,06,19,08,,,,,2.0,1.1,1.7*32
$GPRMC,224820.000,A,3748.7784,N,12217.8201,W,1.48,186.16,080512,,,D*74
$GPVTG,186.16,T,,M,1.48,N,2.7,K,D*08
$GPGGA,224821.000,3748.7781,N,12217.8199,W,2,08,1.1,-0.2,M,-25.1,M,6.8,0000*61
$GPGSA,A,3,13,03,07,23,05,06,19,08,,,,,2.0,1.1,1.7*32
$GPGSV,3,1,12,07,65,016,24,13,59,131,30,08,48,299,23,10,34,239,34*7D
$GPGSV,3,2,12,19,32,092,31,28,30,222,34,23,26,137,37,03,22,053,21*75
$GPGSV,3,3,12,05,21,301,22,06,12,043,21,26,01,314,,48,44,197,35*79
$GPVTG,173.03,T,,M,1.18,N,2.2,K,D*06
$GPGGA,224822.000,3748.7778,N,12217.8192,W,2,08,1.1,-0.6,M,-25.1,M,1.8,0000*6C
$GPGSA,A,3,13,03,07,23,05,06,19,08,,,,,2.0,1.1,1.7*32
$GPRMC,224822.000,A,3748.7778,N,12217.8192,W,1.06,134.23,080512,,,D*79
$GPVTG,134.23,T,,M,1.06,N,2.0,K,D*0A
$GPGGA,224823.000,3748.7772,N,12217.8190,W,2,08,1.1,-2.0,M,-25.1,M,2.8,0000*62
$GPGSA,A,3,13,03,07,23,05,06,19,08,,,,,2.0,1.1,1.7*32
$GPRMC,224823.000,A,3748.7772,N,12217.8190,W,1.34,134.40,080512,,,D*74
$GPVTG,134.40,T,,M,1.34,N,2.5,K,D*0B
$GPGGA,224824.000,3748.7768,N,12217.8182,W,2,07,1.2,-1.6,M,-25.1,M,3.8,0000*65
$GPGSA,A,3,13,03,07,23,05,06,19,,,,,,2.1,1.2,1.7*38
$GPRMC,224824.000,A,3748.7768,N,12217.8182,W,1.11,120.60,080512,,,D*7B
$GPVTG,120.60,T,,M,1.11,N,2.1,K,D*0F
$GPGGA,224825.000,3748.7763,N,12217.8179,W,2,07,1.2,-1.7,M,-25.1,M,1.8,0000*68
$GPGSA,A,3,13,03,07,23,05,06,19,,,,,,2.1,1.2,1.7*38
$GPRMC,224825.000,A,3748.7763,N,12217.8179,W,1.25,138.62,080512,,,D*79
$GPVTG,138.62,T,,M,1.25,N,2.3,K,D*01
$GPGGA,224826.000,3748.7758,N,12217.8172,W,2,07,1.2,-1.7,M,-25.1,M,2.8,0000*6B
$GPGSA,A,3,13,03,07,23,05,06,19,,,,,,2.1,1.2,1.7*38
$GPGSV,3,1,12,07,65,016,23,13,59,131,32,08,48,299,,10,34,239,33*7E
$GPGSV,3,2,12,19,32,092,31,28,30,222,35,23,26,137,39,03,22,053,20*7B
$GPGSV,3,3,12,05,21,301,21,06,12,043,21,26,01,314,,48,44,197,35*7A
$GPRMC,224826.000,A,3748.7758,N,12217.8172,W,2.00,134.21,080512,,,D*76
$GPVTG,134.21,T,,M,2.00,N,3.7,K,D*0B
$GPGGA,224827.000,3748.7754,N,12217.8165,W,2,08,1.1,-1.4,M,-25.1,M,1.8,0000*6C
$GPGSA,A,3,13,03,07,23,05,06,19,08,,,,,2.0,1.1,1.7*32
$GPRMC,224827.000,A,3748.7754,N,12217.8165,W,1.88,143.25,080512,,,D*7A
$GPVTG,143.25,T,,M,1.88,N,3.5,K,D*0E
$GPGGA,224828.000,3748.7751,N,12217.8159,W,2,08,1.1,-1.1,M,-25.1,M,1.8,0000*6C
$GPGSA,A,3,13,03,07,23,05,06,19,08,,,,,2.0,1.1,1.7*32
$GPRMC,224828.000,A,3748.7751,N,12217.8159,W,1.61,154.85,080512,,,D*74
$GPVTG,154.85,T,,M,1.61,N,3.0,K,D*00
$GPGGA,224829.000,3748.7746,N,12217.8154,W,2,08,1.1,-1.6,M,-25.1,M,2.8,0000*62
$GPGSA,A,3,13,03,07,23,05,06,19,08,,,,,2.0,1.1,1.7*32
$GPRMC,224829.000,A,3748.7746,N,12217.8154,W,1.13,138.20,080512,,,D*7E
$GPVTG,138.20,T,,M,1.13,N,2.1,K,D*00
$GPGGA,224830.000,3748.7741,N,12217.8144,W,2,08,1.1,-1.5,M,-25.1,M,3.8,0000*6E
$GPGSA,A,3,13,03,07,23,05,06,19,08,,,,,2.0,1.1,1.7*32
$GPRMC,224830.000,A,3748.7741,N,12217.8144,W,1.69,131.84,080512,,,D*7A
$GPVTG,131.84,T,,M,1.69,N,3.1,K,D*0B
$GPGGA,224831.000,3748.7730,N,12217.8137,W,2,08,1.1,-1.1,M,-25.1,M,4.8,0000*6E
$GPGSA,A,3,13,03,07,23,05,06,19,08,,,,,2.0,1.1,1.7*32
$GPGSV,3,1,12,07,65,016,23,13,59,131,32,08,48,299,21,10,34,239,33*7D
$GPGSV,3,2,12,19,32,092,31,28,30,222,35,23,26,137,40,03,22,053,20*75
$GPGSV,3,3,12,05,21,301,21,06,12,043,28,26,01,314,,48,44,197,35*73
$GPRMC,224831.000,A,3748.7730,N,12217.8137,W,2.35,131.51,080512,,,D*7B
$GPVTG,131.51,T,,M,2.35,N,4.4,K,D*0B
$GPGGA,224832.000,3748.7721,N,12217.8127,W,2,08,1.1,0.7,M,-25.1,M,1.8,0000*43
$GPGSA,A,3,13,03,07,23,05,06,19,08,,,,,2.0,1.1,1.7*32
$GPRMC,224832.000,A,3748.7721,N,12217.8127,W,2.22,125.22,080512,,,D*7E
$GPVTG,125.22,T,,M,2.22,N,4.1,K,D*09
$GPGGA,224833.000,3748.7716,N,12217.8119,W,2,08,1.1,-0.3,M,-25.1,M,1.8,0000*62
$GPGSA,A,3,13,03,07,23,05,06,19,08,,,,,2.0,1.1,1.7*32
$GPRMC,224833.000,A,3748.7716,N,12217.8119,W,1.92,122.24,080512,,,D*7F
$GPVTG,122.24,T,,M,1.92,N,3.6,K,D*00
$GPGGA,224834.000,3748.7712,N,12217.8111,W,2,08,1.1,-1.2,M,-25.1,M,1.8,0000*69
$GPGSA,A,3,13,03,07,23,05,06,19,08,,,,,2.0,1.1,1.7*32
$GPRMC,224834.000,A,3748.7712,N,12217.8111,W,1.57,113.97,080512,,,D*77
$GPVTG,113.97,T,,M,1.57,N,2.9,K,D*0D
$GPGGA,224835.000,3748.7707,N,12217.8099,W,2,08,1.1,-1.2,M,-25.1,M,2.8,0000*6E
$GPGSA,A,3,13,03,07,23,05,06,19,08,,,,,2.0,1.1,1.7*32
$GPRMC,224835.000,A,3748.7707,N,12217.8099,W,2.36,120.63,080512,,,D*7C
$GPVTG,120.63,T,,M,2.36,N,4.4,K,D*09
$GPGGA,224836.000,3748.7704,N,12217.8087,W,2,08,1.1,-1.2,M,-25.1,M,3.8,0000*60
$GPGSA,A,3,13,03,07,23,05,06,19,08,,,,,2.0,1.1,1.7*32
$GPGSV,3,1,12,07,65,016,23,13,59,131,32,08,48,299,21,10,34,239,34*7A
$GPGSV,3,2,12,19,32,092,31,28,30,222,35,23,26,137,39,03,22,053,21*7A
$GPGSV,3,3,12,05,21,301,21,06,12,043,19,26,01,314,,48,44,197,35*71
$GPRMC,224836.000,A,3748.7704,N,12217.8087,W,2.03,135.28,080512,,,D*7E
$GPVTG,135.28,T,,M,2.03,N,3.8,K,D*0F
$GPGGA,224837.000,3748.7698,N,12217.8076,W,2,08,1.1,-1.2,M,-25.1,M,4.8,0000*6C
$GPGSA,A,3,13,03,07,23,05,06,19,08,,,,,2.0,1.1,1.7*32
$GPRMC,224837.000,A,3748.7698,N,12217.8076,W,1.81,131.73,080512,,,D*76
$GPVTG,131.73,T,,M,1.81,N,3.4,K,D*00
$GPGGA,224838.000,3748.7695,N,12217.8064,W,2,08,1.1,0.3,M,-25.1,M,5.8,0000*41
$GPGSA,A,3,13,03,07,23,05,06,19,08,,,,,2.0,1.1,1.7*32
$GPRMC,224838.000,A,3748.7695,N,12217.8064,W,2.00,137.91,080512,,,D*77
$GPVTG,137.91,T,,M,2.00,N,3.7,K,D*03
$GPGGA,224839.000,3748.7690,N,12217.8054,W,2,08,1.1,1.6,M,-25.1,M,1.8,0000*46
$GPGSA,A,3,13,03,07,23,05,06,19,08,,,,,2.0,1.1,1.7*32
$GPRMC,224839.000,A,3748.7690,N,12217.8054,W,1.96,137.13,080512,,,D*76
$GPVTG,137.13,T,,M,1.96,N,3.6,K,D*04
$GPGGA,224840.000,3748.7689,N,12217.8050,W,2,08,1.1,1.9,M,-25.1,M,2.8,0000*48
$GPGSA,A,3,13,03,07,23,05,06,19,08,,,,,2.0,1.1,1.7*32
$GPRMC,224840.000,A,3748.7689,N,12217.8050,W,1.74,133.18,080512,,,D*77
$GPVTG,133.18,T,,M,1.74,N,3.2,K,D*03
$GPGGA,224841.000,3748.7687,N,12217.8042,W,2,08,1.1,2.7,M,-25.1,M,1.8,0000*4A
$GPGSA,A,3,13,03,07,23,05,06,19,08,,,,,2.0,1.1,1.7*32
$GPGSV,3,1,12,07,65,016,23,13,59,131,33,08,48,299,22,10,34,239,34*78
$GPGSV,3,2,12,19,32,092,32,28,30,222,35,23,26,137,38,03,22,053,21*78
$GPGSV,3,3,12,05,21,301,22,06,12,043,20,26,01,314,,48,44,197,35*78
$GPVTG,132.28,T,,M,1.45,N,2.7,K,D*07
$GPGGA,224842.000,3748.7686,N,12217.8032,W,2,08,1.1,3.0,M,-25.1,M,2.8,0000*4A
$GPGSA,A,3,13,03,07,23,05,06,19,08,,,,,2.0,1.1,1.7*32
$GPRMC,224842.000,A,3748.7686,N,12217.8032,W,1.66,118.69,080512,,,D*72
$GPVTG,118.69,T,,M,1.66,N,3.1,K,D*0C
$GPGGA,224843.000,3748.7685,N,12217.8024,W,2,08,1.1,3.3,M,-25.1,M,3.8,0000*4D
$GPGSA,A,3,13,03,07,23,05,06,19,08,,,,,2.0,1.1,1.7*32
$GPRMC,224843.000,A,3748.7685,N,12217.8024,W,1.53,143.07,080512,,,D*77
$GPVTG,143.07,T,,M,1.53,N,2.8,K,D*04
$GPGGA,224844.000,3748.7680,N,12217.8020,W,2,08,1.1,2.9,M,-25.1,M,1.8,0000*42
$GPGSA,A,3,13,03,07,23,05,06,19,08,,,,,2.0,1.1,1.7*32
$GPRMC,224844.000,A,3748.7680,N,12217.8020,W,2.00,148.31,080512,,,D*7A
$GPVTG,148.31,T,,M,2.00,N,3.7,K,D*01
$GPGGA,224845.000,3748.7678,N,12217.8015,W,2,08,1.1,2.7,M,-25.1,M,1.8,0000*4C
$GPGSA,A,3,13,03,07,23,05,06,19,08,,,,,2.0,1.1,1.7*32
$GPRMC,224845.000,A,3748.7678,N,12217.8015,W,1.53,140.72,080512,,,D*70
$GPVTG,140.72,T,,M,1.53,N,2.8,K,D*05
$GPGGA,224846.000,3748.7677,N,12217.8009,W,2,08,1.1,2.6,M,-25.1,M,2.8,0000*4F
$GPGSA,A,3,13,03,07,23,05,06,19,08,,,,,2.0,1.1,1.7*32
$GPGSV,3,1,12,07,65,016,23,13,59,131,33,08,48,300,22,10,34,239,34*79
$GPGSV,3,2,12,19,32,092,32,28,30,222,35,23,26,137,39,03,22,052,30*78
$GPGSV,3,3,12,05,21,301,22,06,12,043,19,26,01,314,,48,44,197,34*73
$GPRMC,224846.000,A,3748.7677,N,12217.8009,W,1.30,145.37,080512,,,D*70
$GPVTG,145.37,T,,M,1.30,N,2.4,K,D*08
$GPGGA,224847.000,3748.7676,N,12217.8001,W,2,08,1.1,2.4,M,-25.1,M,3.8,0000*44
$GPGSA,A,3,13,03,07,23,05,06,19,08,,,,,2.0,1.1,1.7*32
$GPRMC,224847.000,A,3748.7676,N,12217.8001,W,2.09,122.94,080512,,,D*79
$GPVTG,122.94,T,,M,2.09,N,3.9,K,D*05
$GPGGA,224848.000,3748.7673,N,12217.7993,W,2,08,1.1,1.4,M,-25.1,M,4.8,0000*47
$GPGSA,A,3,13,03,07,23,05,06,19,08,,,,,2.0,1.1,1.7*32
$GPRMC,224848.000,A,3748.7673,N,12217.7993,W,1.65,142.79,080512,,,D*72
$GPVTG,142.79,T,,M,1.65,N,3.0,K,D*00
$GPGGA,224849.000,3748.7668,N,12217.7988,W,2,08,1.1,-0.3,M,-25.1,M,5.8,0000*6C
$GPGSA,A,3,13,03,07,23,05,06,19,08,,,,,2.0,1.1,1.7*32
$GPRMC,224849.000,A,3748.7668,N,12217.7988,W,1.86,140.61,080512,,,D*75
$GPVTG,140.61,T,,M,1.86,N,3.4,K,D*02
$GPGGA,224850.000,3748.7663,N,12217.7975,W,2,08,1.1,-0.8,M,-25.1,M,1.8,0000*62
$GPGSA,A,3,13,03,07,23,05,06,19,08,,,,,2.0,1.1,1.7*32
$GPRMC,224850.000,A,3748.7663,N,12217.7975,W,2.15,125.01,080512,,,D*78
$GPVTG,125.01,T,,M,2.15,N,4.0,K,D*0D
$GPGGA,224851.000,3748.7656,N,12217.7964,W,2,08,1.1,-1.6,M,-25.1,M,1.8,0000*6A
$GPGSA,A,3,13,03,07,23,05,06,19,08,,,,,2.0,1.1,1.7*32
$GPGSV,3,1,12,07,65,016,23,13,59,131,33,08,48,300,22,10,34,239,33*7E
$GPGSV,3,2,12,19,32,092,31,28,30,222,35,23,26,137,39,03,22,052,20*7A
$GPGSV,3,3,12,05,21,301,21,06,12,043,19,26,01,314,,48,44,197,35*71
$GPRMC,224851.000,A,3748.7656,N,12217.7964,W,2.24,133.94,080512,,,D*76
$GPVTG,133.94,T,,M,2.24,N,4.1,K,D*05
$GPGGA,224852.000,3748.7650,N,12217.7955,W,2,08,1.1,-1.9,M,-25.1,M,1.8,0000*62
$GPGSA,A,3,13,03,07,23,05,06,19,08,,,,,2.0,1.1,1.7*32
$GPRMC,224852.000,A,3748.7650,N,12217.7955,W,2.03,141.53,080512,,,D*7A
$GPVTG,141.53,T,,M,2.03,N,3.8,K,D*00
$GPGGA,224853.000,3748.7646,N,12217.7945,W,2,08,1.1,-2.3,M,-25.1,M,2.8,0000*6F
$GPGSA,A,3,13,03,07,23,05,06,19,08,,,,,2.0,1.1,1.7*32
$GPRMC,224853.000,A,3748.7646,N,12217.7945,W,1.99,139.00,080512,,,D*74
$GPVTG,139.00,T,,M,1.99,N,3.7,K,D*06
$GPGGA,224854.000,3748.7641,N,12217.7933,W,2,08,1.1,-1.3,M,-25.1,M,3.8,0000*6C
$GPGSA,A,3,13,03,07,23,05,06,19,08,,,,,2.0,1.1,1.7*32
$GPRMC,224854.000,A,3748.7641,N,12217.7933,W,2.31,128.09,080512,,,D*7D
$GPVTG,128.09,T,,M,2.31,N,4.3,K,D*0D
$GPGGA,224855.000,3748.7637,N,12217.7929,W,2,08,1.1,-1.6,M,-25.1,M,4.8,0000*65
$GPGSA,A,3,13,03,07,23,05,06,19,08,,,,,2.0,1.1,1.7*32
$GPRMC,224855.000,A,3748.7637,N,12217.7929,W,1.97,132.72,080512,,,D*7E
$GPVTG,132.72,T,,M,1.97,N,3.6,K,D*07
$GPGGA,224856.000,3748.7633,N,12217.7916,W,2,08,1.1,-1.2,M,-25.1,M,1.8,0000*6F
$GPGSA,A,3,13,03,07,23,05,06,19,08,,,,,2.0,1.1,1.7*32
$GPGSV,3,1,12,07,65,016,23,13,59,131,33,08,48,300,21,10,34,239,33*7D
$GPGSV,3,2,12,19,32,092,31,28,30,222,35,23,26,137,39,03,22,052,23*79
$GPGSV,3,3,12,05,21,301,22,06,12,043,19,26,01,314,,48,44,197,36*71
$GPRMC,224856.000,A,3748.7633,N,12217.7916,W,2.24,114.66,080512,,,D*7F
$GPVTG,114.66,T,,M,2.24,N,4.2,K,D*0E
$GPGGA,224857.000,3748.7632,N,12217.7905,W,2,08,1.1,-0.6,M,-25.1,M,1.8,0000*68
$GPGSA,A,3,13,03,07,23,05,06,19,08,,,,,2.0,1.1,1.7*32
$GPRMC,224857.000,A,3748.7632,N,12217.7905,W,2.58,121.23,080512,,,D*71
$GPVTG,121.23,T,,M,2.58,N,4.8,K,D*08
$GPGGA,224858.000,3748.7631,N,12217.7899,W,2,08,1.1,-1.1,M,-25.1,M,1.8,0000*66
$GPGSA,A,3,13,03,07,23,05,06,19,08,,,,,2.0,1.1,1.7*32
$GPRMC,224858.000,A,3748.7631,N,12217.7899,W,1.71,122.11,080512,,,D*73
$GPVTG,122.11,T,,M,1.71,N,3.2,K,D*0F
