$ADVER,3080,2.3
$GPRMC,224732.611,A,3748.7979,N,12217.8600,W,0.14,206.71,181212,,,A*77
$GPGGA,224733.611,3748.7979,N,12217.8600,W,1,04,2.7,-14.2,M,-25.1,M,,0000*7A
$GPGSA,A,3,19,14,22,18,,,,,,,,,4.7,2.7,3.8*3B
$GPGSV,3,1,12,14,76,166,32,22,68,019,38,19,43,280,31,18,37,065,38*73
$GPGSV,3,2,12,06,36,223,27,03,35,245,24,21,23,127,34,24,16,052,28*73
$GPGSV,3,3,12,11,15,311,,09,08,038,,32,07,264,,51,00,000,39*7F
$GPRMC,224733.611,A,3748.7979,N,12217.8600,W,0.11,189.80,181212,,,A*79
$GPVTG,189.80,T,,M,0.11,N,0.2,K,A*07
$GPGGA,224734.611,3748.7978,N,12217.8600,W,1,04,2.7,-14.1,M,-25.1,M,,0000*7F
$GPGSA,A,3,19,14,22,18,,,,,,,,,4.7,2.7,3.8*3B
$GPRMC,224734.611,A,3748.7978,N,12217.8600,W,0.11,195.36,181212,,,A*7F
$GPVTG,195.36,T,,M,0.11,N,0.2,K,A*07
$GPGGA,224735.000,3748.7978,N,12217.8600,W,1,04,2.7,-14.1,M,-25.1,M,,0000*78
$GPGSA,A,3,19,14,22,18,,,,,,,,,4.7,2.7,3.8*3B
$GPRMC,224735.000,A,3748.7978,N,12217.8600,W,0.01,40.52,181212,,,A*42
$GPVTG,40.52,T,,M,0.01,N,0.0,K,A*3F
$GPGGA,224736.000,3748.7978,N,12217.8600,W,1,04,2.7,-14.1,M,-25.1,M,,0000*7B
$GPGSA,A,3,19,14,22,18,,,,,,,,,4.7,2.7,3.8*3B
$GPRMC,224736.000,A,3748.7978,N,12217.8600,W,0.08,211.89,181212,,,A*78
$GPVTG,211.89,T,,M,0.08,N,0.1,K,A*07
$GPGGA,224737.000,3748.7978,N,12217.8600,W,1,04,2.7,-14.0,M,-25.1,M,,0000*7B
$GPGSA,A,3,19,14,22,18,,,,,,,,,4.7,2.7,3.8*3B
$GPRMC,224737.000,A,3748.7978,N,12217.8600,W,0.08,193.71,181212,,,A*77
$GPVTG,193.71,T,,M,0.08,N,0.2,K,A*0A
$GPGGA,224738.000,3748.7978,N,12217.8601,W,1,04,2.7,-14.0,M,-25.1,M,,0000*75
$GPGSA,A,3,19,14,22,18,,,,,,,,,4.7,2.7,3.8*3B
$GPGSV,3,1,12,14,76,166,32,22,68,019,38,19,43,280,32,18,37,065,38*70
$GPGSV,3,2,12,06,36,223,27,03,35,245,25,21,23,127,34,24,16,052,28*72
$GPGSV,3,3,12,11,15,311,25,09,08,038,25,32,07,264,,51,00,000,38*7E
$GPVTG,208.35,T,,M,0.07,N,0.1,K,A*07
$GPGGA,224739.000,3748.7978,N,12217.8601,W,1,04,2.7,-13.9,M,-25.1,M,,0000*7A
$GPGSA,A,3,19,14,22,18,,,,,,,,,4.7,2.7,3.8*3B
$GPRMC,224739.000,A,3748.7978,N,12217.8601,W,0.09,206.29,181212,,,A*7B
$GPVTG,206.29,T,,M,0.09,N,0.2,K,A*09
$GPGGA,224740.000,3748.7977,N,12217.8601,W,1,04,2.7,-13.8,M,-25.1,M,,0000*7A
$GPGSA,A,3,19,14,22,18,,,,,,,,,4.7,2.7,3.8*3B
$GPRMC,224740.000,A,3748.7977,N,12217.8601,W,0.07,212.54,181212,,,A*7B
$GPVTG,212.54,T,,M,0.07,N,0.1,K,A*0B
$GPGGA,224741.000,3748.7977,N,12217.8601,W,1,04,2.8,-13.8,M,-25.1,M,,0000*74
$GPGSA,A,3,19,14,22,18,,,,,,,,,4.7,2.8,3.8*34
$GPRMC,224741.000,A,3748.7977,N,12217.8601,W,0.08,277.82,181212,,,A*7D
$GPVTG,277.82,T,,M,0.08,N,0.1,K,A*0C
$GPGGA,224742.000,3748.7977,N,12217.8601,W,1,04,2.8,-13.6,M,-25.1,M,,0000*79
$GPGSA,A,3,19,14,22,18,,,,,,,,,4.7,2.8,3.8*34
$GPRMC,224742.000,A,3748.7977,N,12217.8601,W,0.06,217.71,181212,,,A*7A
$GPVTG,217.71,T,,M,0.06,N,0.1,K,A*08
$GPGGA,224743.000,3748.7977,N,12217.8600,W,1,04,2.8,-13.4,M,-25.1,M,,0000*7B
$GPGSA,A,3,19,14,22,18,,,,,,,,,4.7,2.8,3.8*34
$GPGSV,3,1,12,14,76,166,27,22,68,019,38,19,43,280,33,18,37,065,38*75
$GPGSV,3,2,12,06,36,223,31,03,35,245,34,21,23,127,34,24,16,052,27*7A
$GPGSV,3,3,12,11,15,311,17,09,08,038,25,32,07,264,,51,00,000,39*7E
$GPRMC,224743.000,A,3748.7977,N,12217.8600,W,0.14,192.49,181212,,,A*7C
$GPVTG,192.49,T,,M,0.14,N,0.3,K,A*0C
$GPGGA,224744.000,3748.7976,N,12217.8599,W,1,04,2.8,-13.1,M,-25.1,M,,0000*7B
$GPGSA,A,3,19,14,22,18,,,,,,,,,4.7,2.8,3.8*34
$GPRMC,224744.000,A,3748.7976,N,12217.8599,W,0.15,149.98,181212,,,A*72
$GPVTG,149.98,T,,M,0.15,N,0.3,K,A*07
$GPGGA,224745.000,3748.7976,N,12217.8599,W,1,04,2.8,-12.9,M,-25.1,M,,0000*73
$GPGSA,A,3,19,14,22,18,,,,,,,,,4.7,2.8,3.8*34
$GPRMC,224745.000,A,3748.7976,N,12217.8599,W,0.11,164.50,181212,,,A*7C
$GPVTG,164.50,T,,M,0.11,N,0.2,K,A*09
$GPGGA,224746.000,3748.7976,N,12217.8597,W,1,04,2.8,-12.6,M,-25.1,M,,0000*71
$GPGSA,A,3,19,14,22,18,,,,,,,,,4.7,2.8,3.8*34
$GPRMC,224746.000,A,3748.7976,N,12217.8597,W,0.07,172.17,181212,,,A*72
$GPVTG,172.17,T,,M,0.07,N,0.1,K,A*09
$GPGGA,224747.000,3748.7976,N,12217.8596,W,1,04,2.8,-12.2,M,-25.1,M,,0000*75
$GPGSA,A,3,19,14,22,18,,,,,,,,,4.7,2.8,3.8*34
$GPRMC,224747.000,A,3748.7976,N,12217.8596,W,0.09,191.78,181212,,,A*78
$GPVTG,191.78,T,,M,0.09,N,0.2,K,A*00
$GPGGA,224748.000,3748.7976,N,12217.8593,W,1,04,2.8,-11.6,M,-25.1,M,,0000*78
$GPGSA,A,3,19,14,22,18,,,,,,,,,4.7,2.8,3.8*34
$GPGSV,3,1,12,14,76,166,30,22,68,020,38,19,43,280,29,18,37,065,38*72
$GPGSV,3,2,12,06,36,223,33,03,35,245,35,21,23,127,34,24,16,052,27*79
$GPGSV,3,3,12,11,15,311,17,09,08,038,18,32,07,264,,01,00,310,*7D
$GPRMC,224748.000,A,3748.7976,N,12217.8593,W,0.11,133.75,181212,,,A*7E
$GPVTG,133.75,T,,M,0.11,N,0.2,K,A*0C
$GPGGA,224749.000,3748.7975,N,12217.8590,W,1,04,2.8,-10.8,M,-25.1,M,,0000*76
$GPGSA,A,3,19,14,22,18,,,,,,,,,4.7,2.8,3.8*34
$GPRMC,224749.000,A,3748.7975,N,12217.8590,W,0.09,157.70,181212,,,A*71
$GPVTG,157.70,T,,M,0.09,N,0.2,K,A*02
$GPGGA,224750.000,3748.7982,N,12217.8592,W,1,06,1.4,-9.2,M,-25.1,M,,0000*4B
$GPGSA,A,3,19,14,22,18,06,21,,,,,,,2.9,1.4,2.5*3A
$GPRMC,224750.000,A,3748.7982,N,12217.8592,W,0.07,209.17,181212,,,A*74
$GPVTG,209.17,T,,M,0.07,N,0.1,K,A*06
$GPGGA,224751.000,3748.7984,N,12217.8592,W,2,06,1.4,-8.5,M,-25.1,M,1.8,0000*6E
$GPGSA,A,3,19,14,22,18,06,21,,,,,,,2.9,1.4,2.5*3A
$GPRMC,224751.000,A,3748.7984,N,12217.8592,W,0.10,167.36,181212,,,D*78
$GPVTG,167.36,T,,M,0.10,N,0.2,K,D*0E
$GPGGA,224752.000,3748.7985,N,12217.8593,W,2,06,1.4,-8.1,M,-25.1,M,2.8,0000*6A
$GPGSA,A,3,19,14,22,18,06,21,,,,,,,2.9,1.4,2.5*3A
$GPRMC,224752.000,A,3748.7985,N,12217.8593,W,0.10,165.54,181212,,,D*7D
$GPVTG,165.54,T,,M,0.10,N,0.2,K,D*08
$GPGGA,224753.000,3748.7986,N,12217.8593,W,2,06,1.4,-7.8,M,-25.1,M,1.8,0000*6D
$GPGSA,A,3,19,14,22,18,06,21,,,,,,,2.9,1.4,2.5*3A
$GPGSV,3,1,12,14,76,166,31,22,68,020,37,19,43,280,25,18,37,065,38*70
$GPGSV,3,2,12,06,36,223,33,03,35,245,35,21,23,127,34,24,16,052,27*79
$GPGSV,3,3,12,11,15,311,16,09,08,038,18,32,07,264,,01,00,310,*7C
$GPVTG,171.80,T,,M,0.06,N,0.1,K,D*00
$GPGGA,224754.000,3748.7987,N,12217.8594,W,2,06,1.4,-7.6,M,-25.1,M,0.8,0000*63
$GPGSA,A,3,19,14,22,18,06,21,,,,,,,2.9,1.4,2.5*3A
$GPRMC,224754.000,A,3748.7987,N,12217.8594,W,0.05,175.56,181212,,,D*79
$GPVTG,175.56,T,,M,0.05,N,0.1,K,D*0C
$GPGGA,224755.000,3748.7988,N,12217.8594,W,2,06,1.4,-7.7,M,-25.1,M,1.8,0000*6D
$GPGSA,A,3,19,14,22,18,06,21,,,,,,,2.9,1.4,2.5*3A
$GPRMC,224755.000,A,3748.7988,N,12217.8594,W,0.05,76.95,181212,,,D*4A
$GPVTG,76.95,T,,M,0.05,N,0.1,K,D*31
$GPGGA,224756.000,3748.7987,N,12217.8593,W,2,06,1.4,-6.8,M,-25.1,M,1.8,0000*68
$GPGSA,A,3,19,14,22,18,06,21,,,,,,,2.9,1.4,2.5*3A
$GPRMC,224756.000,A,3748.7987,N,12217.8593,W,0.58,132.06,181212,,,D*72
$GPVTG,132.06,T,,M,0.58,N,1.1,K,D*03
$GPGGA,224757.000,3748.7986,N,12217.8592,W,2,06,1.4,-7.0,M,-25.1,M,2.8,0000*63
$GPGSA,A,3,19,14,22,18,06,21,,,,,,,2.9,1.4,2.5*3A
$GPRMC,224757.000,A,3748.7986,N,12217.8592,W,0.13,46.13,181212,,,D*4A
$GPVTG,46.13,T,,M,0.13,N,0.2,K,D*38
$GPGGA,224758.000,3748.7989,N,12217.8594,W,2,06,1.4,-7.9,M,-25.1,M,1.8,0000*6F
$GPGSA,A,3,19,14,22,18,06,21,,,,,,,2.9,1.4,2.5*3A
$GPGSV,3,1,12,14,76,166,22,22,68,020,19,19,43,280,30,18,37,065,30*72
$GPGSV,3,2,12,06,36,223,28,03,35,245,32,21,23,127,25,24,16,052,21*72
$GPGSV,3,3,12,11,15,311,32,09,08,038,28,32,07,264,,01,00,310,*79
$GPRMC,224758.000,A,3748.7989,N,12217.8594,W,0.26,346.21,181212,,,D*78
$GPVTG,346.21,T,,M,0.26,N,0.5,K,D*0B
$GPGGA,224759.000,3748.7990,N,12217.8595,W,2,06,1.4,-8.0,M,-25.1,M,2.8,0000*62
$GPGSA,A,3,19,14,22,18,06,21,,,,,,,2.9,1.4,2.5*3A
$GPRMC,224759.000,A,3748.7990,N,12217.8595,W,0.09,6.81,181212,,,D*70
$GPVTG,6.81,T,,M,0.09,N,0.2,K,D*0C
$GPGGA,224800.000,3748.7990,N,12217.8596,W,2,06,1.4,-8.6,M,-25.1,M,1.8,0000*67
$GPGSA,A,3,19,14,22,18,06,21,,,,,,,2.9,1.4,2.5*3A
$GPRMC,224800.000,A,3748.7990,N,12217.8596,W,0.29,119.87,181212,,,D*7B
$GPVTG,119.87,T,,M,0.29,N,0.5,K,D*00
$GPGGA,224801.000,3748.7987,N,12217.8596,W,2,06,1.4,-8.9,M,-25.1,M,2.8,0000*6C
$GPGSA,A,3,19,14,22,18,06,21,,,,,,,2.9,1.4,2.5*3A
$GPRMC,224801.000,A,3748.7987,N,12217.8596,W,1.43,129.02,181212,,,D*7F
$GPVTG,129.02,T,,M,1.43,N,2.6,K,D*02
$GPGGA,224802.000,3748.7992,N,12217.8596,W,2,06,1.4,-9.0,M,-25.1,M,3.8,0000*62
$GPGSA,A,3,19,14,22,18,06,21,,,,,,,2.9,1.4,2.5*3A
$GPRMC,224802.000,A,3748.7992,N,12217.8596,W,0.19,151.98,181212,,,D*7A
$GPVTG,151.98,T,,M,0.19,N,0.4,K,D*00
$GPGGA,224803.000,3748.7993,N,12217.8594,W,2,06,1.4,-8.9,M,-25.1,M,4.8,0000*6F
$GPGSA,A,3,19,14,22,18,06,21,,,,,,,2.9,1.4,2.5*3A
$GPGSV,3,1,12,14,76,166,18,22,68,020,26,19,43,280,27,18,37,065,30*71
$GPGSV,3,2,12,06,36,223,27,03,35,245,24,21,23,127,22,24,16,052,22*7E
$GPGSV,3,3,12,11,15,311,33,09,08,038,27,32,07,264,,01,00,310,*77
$GPRMC,224803.000,A,3748.7993,N,12217.8594,W,0.29,134.70,181212,,,D*7E
$GPVTG,134.70,T,,M,0.29,N,0.5,K,D*07
$GPGGA,224804.000,3748.7987,N,12217.8594,W,2,05,2.0,-7.0,M,-25.1,M,5.8,0000*6E
$GPGSA,A,3,14,22,18,06,21,,,,,,,,3.7,2.0,3.0*3E
$GPRMC,224804.000,A,3748.7987,N,12217.8594,W,0.48,225.99,181212,,,D*7F
$GPVTG,225.99,T,,M,0.48,N,0.9,K,D*08
$GPGGA,224805.000,3748.7982,N,12217.8597,W,2,05,2.0,-6.8,M,-25.1,M,6.8,0000*63
$GPGSA,A,3,14,22,18,06,21,,,,,,,,3.7,2.0,3.0*3E
$GPRMC,224805.000,A,3748.7982,N,12217.8597,W,0.46,182.38,181212,,,D*73
$GPVTG,182.38,T,,M,0.46,N,0.9,K,D*03
$GPGGA,224806.000,3748.7986,N,12217.8600,W,2,05,1.5,-8.2,M,-25.1,M,7.8,0000*6A
$GPGSA,A,3,19,14,18,06,21,,,,,,,,3.1,1.5,2.7*30
$GPRMC,224806.000,A,3748.7986,N,12217.8600,W,0.91,22.57,181212,,,D*41
$GPVTG,22.57,T,,M,0.91,N,1.7,K,D*34
$GPGGA,224807.000,3748.7991,N,12217.8599,W,2,06,1.4,-8.1,M,-25.1,M,8.8,0000*60
$GPGSA,A,3,19,14,22,18,06,21,,,,,,,2.9,1.4,2.5*3A
$GPRMC,224807.000,A,3748.7991,N,12217.8599,W,1.07,24.07,181212,,,D*48
$GPVTG,24.07,T,,M,1.07,N,2.0,K,D*3D
$GPGGA,224808.000,3748.7992,N,12217.8593,W,2,06,1.4,-7.7,M,-25.1,M,9.8,0000*6E
$GPGSA,A,3,19,14,22,18,06,21,,,,,,,2.9,1.4,2.5*3A
$GPGSV,3,1,12,14,76,166,27,22,68,020,27,19,43,280,30,18,37,065,33*79
$GPGSV,3,2,12,06,36,223,34,03,35,245,37,21,23,127,28,24,16,052,22*74
$GPGSV,3,3,12,11,15,311,26,09,08,038,24,32,07,264,,01,00,310,*70
$GPVTG,67.39,T,,M,1.63,N,3.0,K,D*34
$GPGGA,224809.000,3748.7990,N,12217.8585,W,2,06,1.4,-7.0,M,-25.1,M,10.8,0000*55
$GPGSA,A,3,19,14,22,18,06,21,,,,,,,2.9,1.4,2.5*3A
$GPRMC,224809.000,A,3748.7990,N,12217.8585,W,1.30,130.54,181212,,,D*7C
$GPVTG,130.54,T,,M,1.30,N,2.4,K,D*0F
$GPGGA,224810.000,3748.7989,N,12217.8578,W,2,06,1.4,-7.2,M,-25.1,M,11.8,0000*54
$GPGSA,A,3,19,14,22,18,06,21,,,,,,,2.9,1.4,2.5*3A
$GPRMC,224810.000,A,3748.7989,N,12217.8578,W,1.52,110.39,181212,,,D*73
$GPVTG,110.39,T,,M,1.52,N,2.8,K,D*0E
$GPGGA,224811.000,3748.7985,N,12217.8572,W,2,06,1.4,-7.7,M,-25.1,M,12.8,0000*55
$GPGSA,A,3,19,14,22,18,06,21,,,,,,,2.9,1.4,2.5*3A
$GPRMC,224811.000,A,3748.7985,N,12217.8572,W,1.47,125.56,181212,,,D*7F
$GPVTG,125.56,T,,M,1.47,N,2.7,K,D*0A
$GPGGA,224812.000,3748.7983,N,12217.8568,W,2,06,1.4,-8.7,M,-25.1,M,13.8,0000*55
$GPGSA,A,3,19,14,22,18,06,21,,,,,,,2.9,1.4,2.5*3A
$GPRMC,224812.000,A,3748.7983,N,12217.8568,W,1.27,132.44,181212,,,D*72
$GPVTG,132.44,T,,M,1.27,N,2.4,K,D*0A
$GPGGA,224813.000,3748.7978,N,12217.8563,W,2,06,1.4,-8.1,M,-25.1,M,1.8,0000*6E
$GPGSA,A,3,19,14,22,18,06,21,,,,,,,2.9,1.4,2.5*3A
$GPGSV,3,1,12,14,76,166,25,22,68,020,26,19,43,280,21,18,37,065,27*7F
$GPGSV,3,2,12,06,36,223,34,03,35,245,34,21,23,127,32,24,16,052,26*78
$GPGSV,3,3,12,11,15,311,22,09,08,038,28,32,07,264,,01,00,310,*78
$GPRMC,224813.000,A,3748.7978,N,12217.8563,W,1.72,139.22,181212,,,D*77
$GPVTG,139.22,T,,M,1.72,N,3.2,K,D*06
$GPGGA,224814.000,3748.7970,N,12217.8556,W,2,06,1.4,-6.7,M,-25.1,M,2.8,0000*6C
$GPGSA,A,3,19,14,22,18,06,21,,,,,,,2.9,1.4,2.5*3A
$GPRMC,224814.000,A,3748.7970,N,12217.8556,W,1.86,124.29,181212,,,D*72
$GPVTG,124.29,T,,M,1.86,N,3.4,K,D*0C
$GPGGA,224815.000,3748.7966,N,12217.8550,W,2,06,1.4,-7.0,M,-25.1,M,3.8,0000*6B
$GPGSA,A,3,19,14,22,18,06,21,,,,,,,2.9,1.4,2.5*3A
$GPRMC,224815.000,A,3748.7966,N,12217.8550,W,2.01,109.39,181212,,,D*70
$GPVTG,109.39,T,,M,2.01,N,3.7,K,D*0D
$GPGGA,224816.000,3748.7966,N,12217.8544,W,2,06,1.4,-7.6,M,-25.1,M,4.8,0000*6C
$GPGSA,A,3,19,14,22,18,06,21,,,,,,,2.9,1.4,2.5*3A
$GPRMC,224816.000,A,3748.7966,N,12217.8544,W,2.19,108.91,181212,,,D*7C
$GPVTG,108.91,T,,M,2.19,N,4.1,K,D*06
$GPGGA,224817.000,3748.7963,N,12217.8538,W,2,06,1.4,-7.4,M,-25.1,M,1.8,0000*64
$GPGSA,A,3,19,14,22,18,06,21,,,,,,,2.9,1.4,2.5*3A
$GPRMC,224817.000,A,3748.7963,N,12217.8538,W,1.92,124.29,181212,,,D*7E
$GPVTG,124.29,T,,M,1.92,N,3.6,K,D*0B
$GPGGA,224818.000,3748.7959,N,12217.8533,W,2,06,1.4,-7.3,M,-25.1,M,1.8,0000*6E
$GPGSA,A,3,19,14,22,18,06,21,,,,,,,2.9,1.4,2.5*3A
$GPGSV,3,1,12,14,76,166,30,22,68,020,25,19,43,280,24,18,37,065,32*79
$GPGSV,3,2,12,06,36,223,32,03,35,245,29,21,23,127,33,24,16,052,25*70
$GPGSV,3,3,12,11,15,311,22,09,08,038,26,32,07,264,,01,00,310,*76
$GPRMC,224818.000,A,3748.7959,N,12217.8533,W,1.71,132.14,181212,,,D*77
$GPVTG,132.14,T,,M,1.71,N,3.2,K,D*0B
$GPGGA,224819.000,3748.7954,N,12217.8527,W,2,06,1.4,-7.0,M,-25.1,M,1.8,0000*64
$GPGSA,A,3,19,14,22,18,06,21,,,,,,,2.9,1.4,2.5*3A
$GPRMC,224819.000,A,3748.7954,N,12217.8527,W,2.16,134.95,181212,,,D*73
$GPVTG,134.95,T,,M,2.16,N,4.0,K,D*03
$GPGGA,224820.000,3748.7948,N,12217.8521,W,2,06,1.4,-7.0,M,-25.1,M,2.8,0000*66
$GPGSA,A,3,19,14,22,18,06,21,,,,,,,2.9,1.4,2.5*3A
$GPRMC,224820.000,A,3748.7948,N,12217.8521,W,2.21,137.67,181212,,,D*78
$GPVTG,137.67,T,,M,2.21,N,4.1,K,D*08
$GPGGA,224821.000,3748.7943,N,12217.8515,W,2,06,1.4,-7.1,M,-25.1,M,3.8,0000*6B
$GPGSA,A,3,19,14,22,18,06,21,,,,,,,2.9,1.4,2.5*3A
$GPRMC,224821.000,A,3748.7943,N,12217.8515,W,2.08,128.39,181212,,,D*7B
$GPVTG,128.39,T,,M,2.08,N,3.8,K,D*08
$GPGGA,224822.000,3748.7939,N,12217.8508,W,2,06,1.4,-6.9,M,-25.1,M,4.8,0000*67
$GPGSA,A,3,19,14,22,18,06,21,,,,,,,2.9,1.4,2.5*3A
$GPRMC,224822.000,A,3748.7939,N,12217.8508,W,2.01,117.93,181212,,,D*7C
$GPVTG,117.93,T,,M,2.01,N,3.7,K,D*02
$GPGGA,224823.000,3748.7938,N,12217.8500,W,2,06,1.4,-7.3,M,-25.1,M,1.8,0000*61
$GPGSA,A,3,19,14,22,18,06,21,,,,,,,2.9,1.4,2.5*3A
$GPGSV,3,1,12,14,76,166,30,22,68,020,27,19,43,280,24,18,37,065,29*71
$GPGSV,3,2,12,06,36,223,32,03,35,245,30,21,23,127,33,24,16,052,19*77
$GPGSV,3,3,12,11,15,311,21,09,08,038,18,32,07,264,,01,00,310,*78
$GPRMC,224823.000,A,3748.7938,N,12217.8500,W,1.99,107.04,181212,,,D*79
$GPVTG,107.04,T,,M,1.99,N,3.7,K,D*0F
$GPGGA,224824.000,3748.7937,N,12217.8496,W,2,06,1.4,-7.4,M,-25.1,M,1.8,0000*60
$GPGSA,A,3,19,14,22,18,06,21,,,,,,,2.9,1.4,2.5*3A
$GPRMC,224824.000,A,3748.7937,N,12217.8496,W,1.45,101.09,181212,,,D*75
$GPVTG,101.09,T,,M,1.45,N,2.7,K,D*04
$GPGGA,224825.000,3748.7936,N,12217.8491,W,2,06,1.4,-7.1,M,-25.1,M,2.8,0000*61
$GPGSA,A,3,19,14,22,18,06,21,,,,,,,2.9,1.4,2.5*3A
$GPRMC,224825.000,A,3748.7936,N,12217.8491,W,1.38,114.60,181212,,,D*73
$GPVTG,114.60,T,,M,1.38,N,2.6,K,D*04
$GPGGA,224826.000,3748.7937,N,12217.8492,W,2,06,1.4,-9.3,M,-25.1,M,1.8,0000*6F
$GPGSA,A,3,19,14,22,18,06,21,,,,,,,2.9,1.4,2.5*3A
$GPRMC,224826.000,A,3748.7937,N,12217.8492,W,0.90,113.42,181212,,,D*76
$GPVTG,113.42,T,,M,0.90,N,1.7,K,D*02
$GPGGA,224827.000,3748.7940,N,12217.8494,W,2,06,1.4,-11.6,M,-25.1,M,2.8,0000*57
$GPGSA,A,3,19,14,22,18,06,21,,,,,,,2.9,1.4,2.5*3A
$GPRMC,224827.000,A,3748.7940,N,12217.8494,W,1.26,99.16,181212,,,D*4F
$GPVTG,99.16,T,,M,1.26,N,2.3,K,D*3B
$GPGGA,224828.000,3748.7939,N,12217.8488,W,2,06,1.4,-10.9,M,-25.1,M,3.8,0000*54
$GPGSA,A,3,19,14,22,18,06,21,,,,,,,2.9,1.4,2.5*3A
$GPGSV,3,1,12,14,76,166,21,22,68,020,19,19,43,280,24,18,37,065,27*72
$GPGSV,3,2,12,06,36,223,25,03,35,245,25,21,23,127,25,24,16,052,17*7C
$GPGSV,3,3,12,11,15,311,21,09,08,038,17,32,07,264,,01,00,310,*77
$GPRMC,224828.000,A,3748.7939,N,12217.8488,W,1.41,98.95,181212,,,D*48
$GPGGA,224829.000,3748.7935,N,12217.8482,W,2,06,1.5,-10.8,M,-25.1,M,4.8,0000*54
$GPGSA,A,3,19,14,22,18,06,21,,,,,,,2.9,1.5,2.5*3B
$GPRMC,224829.000,A,3748.7935,N,12217.8482,W,1.37,110.37,181212,,,D*77
$GPVTG,110.37,T,,M,1.37,N,2.5,K,D*0E
$GPGGA,224830.000,3748.7935,N,12217.8476,W,2,05,1.8,-12.1,M,-25.1,M,5.8,0000*53
$GPGSA,A,3,19,14,22,06,21,,,,,,,,3.3,1.8,2.8*39
$GPRMC,224830.000,A,3748.7935,N,12217.8476,W,1.10,65.43,181212,,,D*41
$GPVTG,65.43,T,,M,1.10,N,2.0,K,D*3E
$GPGGA,224831.000,3748.7939,N,12217.8471,W,2,06,1.5,-13.8,M,-25.1,M,6.8,0000*5C
$GPGSA,A,3,19,14,22,18,06,21,,,,,,,2.9,1.5,2.5*3B
$GPRMC,224831.000,A,3748.7939,N,12217.8471,W,1.91,49.78,181212,,,D*44
$GPVTG,49.78,T,,M,1.91,N,3.5,K,D*35
$GPGGA,224832.000,3748.7931,N,12217.8461,W,2,06,1.5,-13.8,M,-25.1,M,7.8,0000*57
$GPGSA,A,3,19,14,22,18,06,21,,,,,,,2.9,1.5,2.5*3B
$GPRMC,224832.000,A,3748.7931,N,12217.8461,W,1.67,93.38,181212,,,D*44
$GPVTG,93.38,T,,M,1.67,N,3.1,K,D*3B
$GPGGA,224833.000,3748.7924,N,12217.8451,W,2,06,1.5,-13.5,M,-25.1,M,8.8,0000*53
$GPGSA,A,3,19,14,22,18,06,21,,,,,,,2.9,1.5,2.5*3B
$GPGSV,3,1,12,14,76,166,29,22,68,020,22,19,43,280,23,18,37,065,23*71
$GPGSV,3,2,12,06,36,223,32,03,35,245,32,21,23,127,30,24,16,052,18*77
$GPGSV,3,3,12,11,15,311,21,09,08,038,22,32,07,264,,01,00,310,*71
$GPRMC,224833.000,A,3748.7924,N,12217.8451,W,2.27,110.21,181212,,,D*77
$GPVTG,110.21,T,,M,2.27,N,4.2,K,D*0A
$GPGGA,224834.000,3748.7928,N,12217.8440,W,2,06,1.5,-13.7,M,-25.1,M,9.8,0000*5B
$GPGSA,A,3,19,14,22,18,06,21,,,,,,,2.9,1.5,2.5*3B
$GPRMC,224834.000,A,3748.7928,N,12217.8440,W,2.10,107.20,181212,,,D*7F
$GPVTG,107.20,T,,M,2.10,N,3.9,K,D*05
$GPGGA,224835.000,3748.7934,N,12217.8431,W,2,06,1.5,-13.5,M,-25.1,M,1.8,0000*5B
$GPGSA,A,3,19,14,22,18,06,21,,,,,,,2.9,1.5,2.5*3B
$GPRMC,224835.000,A,3748.7934,N,12217.8431,W,1.78,102.31,181212,,,D*7D
$GPVTG,102.31,T,,M,1.78,N,3.3,K,D*07
$GPGGA,224836.000,3748.7926,N,12217.8420,W,2,06,1.5,-12.7,M,-25.1,M,1.8,0000*58
$GPGSA,A,3,19,14,22,18,06,21,,,,,,,2.9,1.5,2.5*3B
$GPRMC,224836.000,A,3748.7926,N,12217.8420,W,2.43,123.93,181212,,,D*7D
$GPVTG,123.93,T,,M,2.43,N,4.5,K,D*06
$GPGGA,224837.000,3748.7915,N,12217.8413,W,2,06,1.5,-11.8,M,-25.1,M,1.8,0000*55
$GPGSA,A,3,19,14,22,18,06,21,,,,,,,2.9,1.5,2.5*3B
$GPRMC,224837.000,A,3748.7915,N,12217.8413,W,2.80,127.04,181212,,,D*79
$GPVTG,127.04,T,,M,2.80,N,5.2,K,D*05
$GPGGA,224838.000,3748.7902,N,12217.8399,W,2,06,1.5,-9.2,M,-25.1,M,2.8,0000*69
$GPGSA,A,3,19,14,22,18,06,21,,,,,,,2.9,1.5,2.5*3B
$GPGSV,3,1,12,14,76,166,28,22,68,020,23,19,43,280,24,18,37,065,26*73
$GPGSV,3,2,12,06,36,223,33,03,35,245,32,21,23,127,28,24,16,052,21*75
$GPGSV,3,3,12,11,15,311,20,09,08,038,23,32,07,264,,01,00,310,*71
$GPRMC,224838.000,A,3748.7902,N,12217.8399,W,2.71,119.72,181212,,,D*77
$GPVTG,119.72,T,,M,2.71,N,5.0,K,D*05
$GPGGA,224839.000,3748.7897,N,12217.8386,W,2,06,1.5,-8.0,M,-25.1,M,3.8,0000*69
$GPGSA,A,3,19,14,22,18,06,21,,,,,,,2.9,1.5,2.5*3B
$GPRMC,224839.000,A,3748.7897,N,12217.8386,W,2.38,112.04,181212,,,D*72
$GPVTG,112.04,T,,M,2.38,N,4.4,K,D*07
$GPGGA,224840.000,3748.7890,N,12217.8377,W,2,06,1.5,-6.6,M,-25.1,M,1.8,0000*64
$GPGSA,A,3,19,14,22,18,06,21,,,,,,,2.9,1.5,2.5*3B
$GPRMC,224840.000,A,3748.7890,N,12217.8377,W,2.43,120.92,181212,,,D*77
$GPVTG,120.92,T,,M,2.43,N,4.5,K,D*04
$GPGGA,224841.000,3748.7888,N,12217.8366,W,2,06,1.5,-6.0,M,-25.1,M,2.8,0000*69
$GPGSA,A,3,19,14,22,18,06,21,,,,,,,2.9,1.5,2.5*3B
$GPRMC,224841.000,A,3748.7888,N,12217.8366,W,2.58,122.91,181212,,,D*74
$GPVTG,122.91,T,,M,2.58,N,4.8,K,D*02
$GPGGA,224842.000,3748.7884,N,12217.8358,W,2,06,1.5,-5.5,M,-25.1,M,3.8,0000*6C
$GPGSA,A,3,19,14,22,18,06,21,,,,,,,2.9,1.5,2.5*3B
$GPRMC,224842.000,A,3748.7884,N,12217.8358,W,2.56,125.53,181212,,,D*71
$GPVTG,125.53,T,,M,2.56,N,4.7,K,D*0A
$GPGGA,224843.000,3748.7882,N,12217.8350,W,2,06,1.5,-4.5,M,-25.1,M,1.8,0000*60
$GPGSA,A,3,19,14,22,18,06,21,,,,,,,2.9,1.5,2.5*3B
$GPGSV,3,1,12,14,76,166,26,22,68,020,27,19,43,280,22,18,37,065,27*7E
$GPGSV,3,2,12,06,36,223,30,03,35,245,27,21,23,127,29,24,16,052,09*79
$GPGSV,3,3,12,11,15,311,19,09,08,038,20,32,07,264,,01,00,310,*78
$GPRMC,224843.000,A,3748.7882,N,12217.8350,W,2.23,120.14,181212,,,D*7A
$GPVTG,120.14,T,,M,2.23,N,4.1,K,D*08
$GPGGA,224844.000,3748.7873,N,12217.8343,W,2,06,1.5,-3.1,M,-25.1,M,1.8,0000*68
$GPGSA,A,3,19,14,22,18,06,21,,,,,,,2.9,1.5,2.5*3B
$GPRMC,224844.000,A,3748.7873,N,12217.8343,W,2.38,125.26,181212,,,D*7F
$GPVTG,125.26,T,,M,2.38,N,4.4,K,D*03
$GPGGA,224845.000,3748.7866,N,12217.8335,W,2,06,1.5,-1.5,M,-25.1,M,2.8,0000*69
$GPGSA,A,3,19,14,22,18,06,21,,,,,,,2.9,1.5,2.5*3B
$GPRMC,224845.000,A,3748.7866,N,12217.8335,W,2.42,115.92,181212,,,D*7A
$GPVTG,115.92,T,,M,2.42,N,4.5,K,D*03
$GPGGA,224846.000,3748.7859,N,12217.8324,W,2,06,1.5,-0.5,M,-25.1,M,3.8,0000*66
$GPGSA,A,3,19,14,22,18,06,21,,,,,,,2.9,1.5,2.5*3B
$GPRMC,224846.000,A,3748.7859,N,12217.8324,W,2.87,116.85,181212,,,D*79
$GPVTG,116.85,T,,M,2.87,N,5.3,K,D*08
$GPGGA,224847.000,3748.7851,N,12217.8312,W,2,06,1.5,0.8,M,-25.1,M,1.8,0000*48
$GPGSA,A,3,19,14,22,18,06,21,,,,,,,2.9,1.5,2.5*3B
$GPRMC,224847.000,A,3748.7851,N,12217.8312,W,2.49,113.76,181212,,,D*7E
$GPVTG,113.76,T,,M,2.49,N,4.6,K,D*07
$GPGGA,224848.000,3748.7848,N,12217.8299,W,2,06,1.5,2.2,M,-25.1,M,2.8,0000*46
$GPGSA,A,3,19,14,22,18,06,21,,,,,,,2.9,1.5,2.5*3B
$GPGSV,3,1,12,14,76,165,20,22,68,021,23,19,43,280,27,18,37,065,25*79
$GPGSV,3,2,12,06,36,223,32,03,35,245,29,21,23,127,24,24,15,051,13*73
$GPGSV,3,3,12,11,15,311,19,09,08,038,20,32,07,265,24,01,00,310,*7F
$GPRMC,224848.000,A,3748.7848,N,12217.8299,W,2.70,112.98,181212,,,D*70
$GPGGA,224849.000,3748.7845,N,12217.8293,W,2,06,1.5,1.5,M,-25.1,M,3.8,0000*45
$GPGSA,A,3,19,14,22,18,06,21,,,,,,,2.9,1.5,2.5*3B
$GPRMC,224849.000,A,3748.7845,N,12217.8293,W,2.10,111.94,181212,,,D*7F
$GPVTG,111.94,T,,M,2.10,N,3.9,K,D*0D
$GPGGA,224850.000,3748.7836,N,12217.8281,W,2,06,1.5,3.1,M,-25.1,M,1.8,0000*4E
$GPGSA,A,3,19,14,22,18,06,21,,,,,,,2.9,1.5,2.5*3B
$GPRMC,224850.000,A,3748.7836,N,12217.8281,W,2.32,115.64,181212,,,D*7B
$GPVTG,115.64,T,,M,2.32,N,4.3,K,D*0B
$GPGGA,224851.000,3748.7832,N,12217.8273,W,2,06,1.5,2.3,M,-25.1,M,1.8,0000*45
$GPGSA,A,3,19,14,22,18,06,21,,,,,,,2.9,1.5,2.5*3B
$GPRMC,224851.000,A,3748.7832,N,12217.8273,W,2.77,112.27,181212,,,D*72
$GPVTG,112.27,T,,M,2.77,N,5.1,K,D*09
$GPGGA,224852.000,3748.7822,N,12217.8260,W,2,06,1.5,3.4,M,-25.1,M,2.8,0000*40
$GPGSA,A,3,19,14,22,18,06,21,,,,,,,2.9,1.5,2.5*3B
$GPRMC,224852.000,A,3748.7822,N,12217.8260,W,2.85,117.15,181212,,,D*7B
$GPVTG,117.15,T,,M,2.85,N,5.3,K,D*02
$GPGGA,224853.000,3748.7818,N,12217.8252,W,2,06,1.5,3.9,M,-25.1,M,3.8,0000*45
$GPGSA,A,3,19,14,22,18,06,21,,,,,,,2.9,1.5,2.5*3B
$GPGSV,3,1,12,14,76,165,26,22,68,021,24,19,43,280,26,18,37,065,25*79
$GPGSV,3,2,12,06,36,223,32,03,35,245,31,21,23,127,34,24,15,051,14*7C
$GPGSV,3,3,12,11,15,311,20,09,08,038,20,32,07,265,31,01,00,310,*71
$GPRMC,224853.000,A,3748.7818,N,12217.8252,W,2.66,119.36,181212,,,D*70
$GPVTG,119.36,T,,M,2.66,N,4.9,K,D*0B
$GPGGA,224854.000,3748.7812,N,12217.8245,W,2,06,1.5,3.6,M,-25.1,M,4.8,0000*46
$GPGSA,A,3,19,14,22,18,06,21,,,,,,,2.9,1.5,2.5*3B
$GPRMC,224854.000,A,3748.7812,N,12217.8245,W,2.65,129.10,181212,,,D*7F
$GPVTG,129.10,T,,M,2.65,N,4.9,K,D*0F
$GPGGA,224855.000,3748.7806,N,12217.8235,W,2,06,1.5,3.2,M,-25.1,M,5.8,0000*40
$GPGSA,A,3,19,14,22,18,06,21,,,,,,,2.9,1.5,2.5*3B
$GPRMC,224855.000,A,3748.7806,N,12217.8235,W,2.60,116.18,181212,,,D*7D
$GPVTG,116.18,T,,M,2.60,N,4.8,K,D*0F
$GPGGA,224856.000,3748.7796,N,12217.8229,W,2,06,1.5,2.7,M,-25.1,M,6.8,0000*4F
$GPGSA,A,3,19,14,22,18,06,21,,,,,,,2.9,1.5,2.5*3B
$GPRMC,224856.000,A,3748.7796,N,12217.8229,W,3.02,130.75,181212,,,D*7F
$GPVTG,130.75,T,,M,3.02,N,5.6,K,D*0A
$GPGGA,224857.000,3748.7791,N,12217.8222,W,2,06,1.5,2.2,M,-25.1,M,7.8,0000*46
$GPGSA,A,3,19,14,22,18,06,21,,,,,,,2.9,1.5,2.5*3B
$GPRMC,224857.000,A,3748.7791,N,12217.8222,W,2.73,121.62,181212,,,D*73
$GPVTG,121.62,T,,M,2.73,N,5.1,K,D*0C
$GPGGA,224858.000,3748.7786,N,12217.8214,W,2,06,1.5,1.7,M,-25.1,M,8.8,0000*43
$GPGSA,A,3,19,14,22,18,06,21,,,,,,,2.9,1.5,2.5*3B
$GPGSV,3,1,12,14,76,165,26,22,68,021,24,19,43,280,25,18,37,065,24*7B
$GPGSV,3,2,12,06,36,223,32,03,35,245,32,21,23,127,30,24,15,051,16*79
$GPGSV,3,3,12,11,15,311,20,09,08,038,20,32,07,265,23,01,00,310,*72
$GPRMC,224858.000,A,3748.7786,N,12217.8214,W,2.65,124.01,181212,,,D*78
$GPVTG,124.01,T,,M,2.65,N,4.9,K,D*02
$GPGGA,224859.000,3748.7780,N,12217.8207,W,2,06,1.5,1.1,M,-25.1,M,9.8,0000*41
$GPGSA,A,3,19,14,22,18,06,21,,,,,,,2.9,1.5,2.5*3B
$GPRMC,224859.000,A,3748.7780,N,12217.8207,W,2.65,129.24,181212,,,D*77
$GPVTG,129.24,T,,M,2.65,N,4.9,K,D*08
$GPGGA,224900.000,3748.7771,N,12217.8204,W,2,06,1.5,1.2,M,-25.1,M,1.8,0000*4A
$GPGSA,A,3,19,14,22,18,06,21,,,,,,,2.9,1.5,2.5*3B
$GPRMC,224900.000,A,3748.7771,N,12217.8204,W,2.56,130.46,181212,,,D*7B
$GPVTG,130.46,T,,M,2.56,N,4.7,K,D*0A
$GPGGA,224901.000,3748.7771,N,12217.8198,W,2,06,1.5,1.3,M,-25.1,M,2.8,0000*4F
$GPGSA,A,3,19,14,22,18,06,21,,,,,,,2.9,1.5,2.5*3B
$GPRMC,224901.000,A,3748.7771,N,12217.8198,W,2.39,110.70,181212,,,D*72
$GPVTG,110.70,T,,M,2.39,N,4.4,K,D*07
$GPGGA,224902.000,3748.7774,N,12217.8191,W,2,06,1.5,-1.6,M,-25.1,M,3.8,0000*69
$GPGSA,A,3,19,14,22,18,06,21,,,,,,,2.9,1.5,2.5*3B
$GPRMC,224902.000,A,3748.7774,N,12217.8191,W,2.22,110.22,181212,,,D*70
$GPVTG,110.22,T,,M,2.22,N,4.1,K,D*0F
$GPGGA,224903.000,3748.7772,N,12217.8183,W,2,06,1.5,-3.4,M,-25.1,M,4.8,0000*6A
$GPGSA,A,3,19,14,22,18,06,21,,,,,,,2.9,1.5,2.5*3B
$GPGSV,3,1,12,14,76,165,24,22,68,021,24,19,43,280,26,18,37,065,26*78
$GPGSV,3,2,12,06,36,223,33,03,35,245,32,21,23,127,33,24,15,051,17*7A
$GPGSV,3,3,12,11,15,311,20,09,08,038,19,32,07,265,22,01,00,310,*79
$GPVTG,114.10,T,,M,1.98,N,3.7,K,D*09
$GPGGA,224904.000,3748.7770,N,12217.8178,W,2,06,1.5,-4.2,M,-25.1,M,5.8,0000*6B
$GPGSA,A,3,19,14,22,18,06,21,,,,,,,2.9,1.5,2.5*3B
$GPRMC,224904.000,A,3748.7770,N,12217.8178,W,1.97,109.82,181212,,,D*7A
$GPVTG,109.82,T,,M,1.97,N,3.7,K,D*01
$GPGGA,224905.000,3748.7762,N,12217.8173,W,2,06,1.5,-4.0,M,-25.1,M,1.8,0000*64
$GPGSA,A,3,19,14,22,18,06,21,,,,,,,2.9,1.5,2.5*3B
$GPRMC,224905.000,A,3748.7762,N,12217.8173,W,2.60,126.80,181212,,,D*77
$GPVTG,126.80,T,,M,2.60,N,4.8,K,D*0D
$GPGGA,224906.000,3748.7756,N,12217.8163,W,2,06,1.5,-4.1,M,-25.1,M,1.8,0000*60
$GPGSA,A,3,19,14,22,18,06,21,,,,,,,2.9,1.5,2.5*3B
$GPRMC,224906.000,A,3748.7756,N,12217.8163,W,2.49,110.00,181212,,,D*74
$GPVTG,110.00,T,,M,2.49,N,4.6,K,D*05
$GPGGA,224907.000,3748.7754,N,12217.8155,W,2,06,1.5,-4.9,M,-25.1,M,1.8,0000*6E
$GPGSA,A,3,19,14,22,18,06,21,,,,,,,2.9,1.5,2.5*3B
$GPRMC,224907.000,A,3748.7754,N,12217.8155,W,2.32,113.50,181212,,,D*78
$GPVTG,113.50,T,,M,2.32,N,4.3,K,D*0A
$GPGGA,224908.000,3748.7752,N,12217.8146,W,2,06,1.5,-5.7,M,-25.1,M,2.8,0000*69
$GPGSA,A,3,19,14,22,18,06,21,,,,,,,2.9,1.5,2.5*3B
$GPGSV,3,1,12,14,76,165,26,22,68,021,24,19,43,280,27,18,37,065,25*78
$GPGSV,3,2,12,06,36,223,33,03,35,245,32,21,23,127,33,24,15,051,17*7A
$GPGSV,3,3,12,11,15,311,20,09,08,038,19,32,07,265,19,01,00,310,*71
$GPRMC,224908.000,A,3748.7752,N,12217.8146,W,2.49,118.31,181212,,,D*73
$GPVTG,118.31,T,,M,2.49,N,4.6,K,D*0F
$GPGGA,224909.000,3748.7748,N,12217.8140,W,2,06,1.5,-6.2,M,-25.1,M,3.8,0000*62
$GPGSA,A,3,19,14,22,18,06,21,,,,,,,2.9,1.5,2.5*3B
$GPRMC,224909.000,A,3748.7748,N,12217.8140,W,2.36,124.80,181212,,,D*72
$GPVTG,124.80,T,,M,2.36,N,4.4,K,D*00
$GPGGA,224910.000,3748.7741,N,12217.8131,W,2,06,1.5,-6.0,M,-25.1,M,4.8,0000*60
$GPGSA,A,3,19,14,22,18,06,21,,,,,,,2.9,1.5,2.5*3B
$GPRMC,224910.000,A,3748.7741,N,12217.8131,W,2.42,128.57,181212,,,D*70
$GPVTG,128.57,T,,M,2.42,N,4.5,K,D*04
$GPGGA,224911.000,3748.7735,N,12217.8124,W,2,06,1.5,-6.4,M,-25.1,M,1.8,0000*67
$GPGSA,A,3,19,14,22,18,06,21,,,,,,,2.9,1.5,2.5*3B
$GPRMC,224911.000,A,3748.7735,N,12217.8124,W,2.50,121.94,181212,,,D*73
$GPVTG,121.94,T,,M,2.50,N,4.6,K,D*02
$GPGGA,224912.000,3748.7730,N,12217.8116,W,2,06,1.5,-6.9,M,-25.1,M,1.8,0000*6D
$GPGSA,A,3,19,14,22,18,06,21,,,,,,,2.9,1.5,2.5*3B
$GPRMC,224912.000,A,3748.7730,N,12217.8116,W,2.82,120.81,181212,,,D*7E
$GPVTG,120.81,T,,M,2.82,N,5.2,K,D*0D
$GPGGA,224913.000,3748.7725,N,12217.8106,W,2,06,1.5,-7.0,M,-25.1,M,1.8,0000*61
$GPGSA,A,3,19,14,22,18,06,21,,,,,,,2.9,1.5,2.5*3B
$GPGSV,3,1,12,14,76,165,26,22,68,021,24,19,43,280,27,18,37,065,24*79
$GPGSV,3,2,12,06,36,223,33,03,35,245,32,21,23,127,33,24,15,051,19*74
$GPGSV,3,3,12,11,15,311,20,09,08,038,24,32,07,265,19,01,00,310,*7F
$GPRMC,224913.000,A,3748.7725,N,12217.8106,W,2.73,113.70,181212,,,D*7A
$GPVTG,113.70,T,,M,2.73,N,5.1,K,D*0E
$GPGGA,224914.000,3748.7721,N,12217.8097,W,2,06,1.5,-7.4,M,-25.1,M,1.8,0000*6F
$GPGSA,A,3,19,14,22,18,06,21,,,,,,,2.9,1.5,2.5*3B
$GPRMC,224914.000,A,3748.7721,N,12217.8097,W,2.82,118.79,181212,,,D*7C
$GPVTG,118.79,T,,M,2.82,N,5.2,K,D*01
$GPGGA,224915.000,3748.7718,N,12217.8088,W,2,06,1.5,-7.8,M,-25.1,M,2.8,0000*65
$GPGSA,A,3,19,14,22,18,06,21,,,,,,,2.9,1.5,2.5*3B
$GPRMC,224915.000,A,3748.7718,N,12217.8088,W,2.72,116.17,181212,,,D*70
$GPVTG,116.17,T,,M,2.72,N,5.0,K,D*0A
$GPGGA,224916.000,3748.7714,N,12217.8079,W,2,06,1.5,-8.1,M,-25.1,M,3.8,0000*63
$GPGSA,A,3,19,14,22,18,06,21,,,,,,,2.9,1.5,2.5*3B
$GPRMC,224916.000,A,3748.7714,N,12217.8079,W,2.44,113.14,181212,,,D*72
$GPVTG,113.14,T,,M,2.44,N,4.5,K,D*0D
$GPGGA,224917.000,3748.7708,N,12217.8070,W,2,06,1.5,-7.4,M,-25.1,M,1.8,0000*6E
$GPGSA,A,3,19,14,22,18,06,21,,,,,,,2.9,1.5,2.5*3B
$GPRMC,224917.000,A,3748.7708,N,12217.8070,W,2.67,118.63,181212,,,D*7D
$GPVTG,118.63,T,,M,2.67,N,5.0,K,D*03
$GPGGA,224918.000,3748.7703,N,12217.8062,W,2,06,1.5,-7.1,M,-25.1,M,1.8,0000*6C
$GPGSA,A,3,19,14,22,18,06,21,,,,,,,2.9,1.5,2.5*3B
$GPGSV,3,1,12,14,76,164,26,22,68,021,24,19,43,279,27,18,36,065,21*7A
$GPGSV,3,2,12,06,35,223,32,03,35,244,32,21,22,128,33,11,16,311,20*71
$GPGSV,3,3,12,24,15,051,19,09,08,038,25,32,07,265,19,01,00,311,*74
$GPRMC,224918.000,A,3748.7703,N,12217.8062,W,2.50,118.82,181212,,,D*71
$GPVTG,118.82,T,,M,2.50,N,4.6,K,D*0F
$GPGGA,224919.000,3748.7702,N,12217.8055,W,2,06,1.5,-7.7,M,-25.1,M,1.8,0000*6E
$GPGSA,A,3,19,14,22,18,06,21,,,,,,,2.9,1.5,2.5*3B
$GPRMC,224919.000,A,3748.7702,N,12217.8055,W,2.87,115.04,181212,,,D*7C
$GPVTG,115.04,T,,M,2.87,N,5.3,K,D*02
$GPGGA,224920.000,3748.7697,N,12217.8047,W,2,06,1.5,-7.8,M,-25.1,M,2.8,0000*66
$GPGSA,A,3,19,14,22,18,06,21,,,,,,,2.9,1.5,2.5*3B
$GPRMC,224920.000,A,3748.7697,N,12217.8047,W,2.64,123.03,181212,,,D*77
$GPVTG,123.03,T,,M,2.64,N,4.9,K,D*06
$GPGGA,224921.000,3748.7694,N,12217.8041,W,2,06,1.5,-9.8,M,-25.1,M,3.8,0000*6D
$GPGSA,A,3,19,14,22,18,06,21,,,,,,,2.9,1.5,2.5*3B
$GPRMC,224921.000,A,3748.7694,N,12217.8041,W,2.55,119.02,181212,,,D*79
$GPVTG,119.02,T,,M,2.55,N,4.7,K,D*02
$GPGGA,224922.000,3748.7694,N,12217.8030,W,2,06,1.5,-9.8,M,-25.1,M,4.8,0000*6F
$GPGSA,A,3,19,14,22,18,06,21,,,,,,,2.9,1.5,2.5*3B
$GPRMC,224922.000,A,3748.7694,N,12217.8030,W,2.37,107.72,181212,,,D*70
$GPVTG,107.72,T,,M,2.37,N,4.4,K,D*0D
$GPGGA,224923.000,3748.7692,N,12217.8020,W,2,06,1.5,-10.2,M,-25.1,M,1.8,0000*5E
$GPGSA,A,3,19,14,22,18,06,21,,,,,,,2.9,1.5,2.5*3B
$GPGSV,3,1,12,14,76,164,27,22,68,021,24,19,43,279,28,18,36,065,28*7D
$GPGSV,3,2,12,06,35,223,33,03,35,244,32,21,22,128,34,11,16,311,21*76
$GPGSV,3,3,12,24,15,051,18,09,08,038,23,32,07,265,19,01,00,311,*73
$GPVTG,106.03,T,,M,2.58,N,4.8,K,D*0F
$GPGGA,224924.000,3748.7687,N,12217.8011,W,2,06,1.5,-9.7,M,-25.1,M,1.8,0000*62
$GPGSA,A,3,19,14,22,18,06,21,,,,,,,2.9,1.5,2.5*3B
$GPRMC,224924.000,A,3748.7687,N,12217.8011,W,2.77,118.46,181212,,,D*7A
$GPVTG,118.46,T,,M,2.77,N,5.1,K,D*04
$GPGGA,224925.000,3748.7679,N,12217.8002,W,2,06,1.5,-8.8,M,-25.1,M,1.8,0000*6E
$GPGSA,A,3,19,14,22,18,06,21,,,,,,,2.9,1.5,2.5*3B
$GPRMC,224925.000,A,3748.7679,N,12217.8002,W,2.67,125.93,181212,,,D*7F
$GPVTG,125.93,T,,M,2.67,N,4.9,K,D*0A
$GPGGA,224926.000,3748.7673,N,12217.7992,W,2,06,1.5,-8.3,M,-25.1,M,2.8,0000*60
$GPGSA,A,3,19,14,22,18,06,21,,,,,,,2.9,1.5,2.5*3B
$GPRMC,224926.000,A,3748.7673,N,12217.7992,W,2.78,121.46,181212,,,D*7B
$GPVTG,121.46,T,,M,2.78,N,5.1,K,D*01
$GPGGA,224927.000,3748.7666,N,12217.7981,W,2,06,1.5,-7.6,M,-25.1,M,3.8,0000*6C
$GPGSA,A,3,19,14,22,18,06,21,,,,,,,2.9,1.5,2.5*3B
$GPRMC,224927.000,A,3748.7666,N,12217.7981,W,2.80,130.24,181212,,,D*7F
$GPVTG,130.24,T,,M,2.80,N,5.2,K,D*01
$GPGGA,224928.000,3748.7661,N,12217.7972,W,2,06,1.5,-7.3,M,-25.1,M,1.8,0000*6F
$GPGSA,A,3,19,14,22,18,06,21,,,,,,,2.9,1.5,2.5*3B
$GPGSV,3,1,12,14,76,164,27,22,68,021,24,19,43,279,28,18,36,065,22*77
$GPGSV,3,2,12,06,35,223,32,03,35,244,31,21,22,128,34,11,16,311,21*74
$GPGSV,3,3,12,24,15,051,18,09,08,038,20,32,07,265,25,01,00,311,*7F
$GPRMC,224928.000,A,3748.7661,N,12217.7972,W,2.94,120.84,181212,,,D*75
$GPVTG,120.84,T,,M,2.94,N,5.4,K,D*09
$GPGGA,224929.000,3748.7659,N,12217.7963,W,2,06,1.5,-7.2,M,-25.1,M,1.8,0000*64
$GPGSA,A,3,19,14,22,18,06,21,,,,,,,2.9,1.5,2.5*3B
$GPRMC,224929.000,A,3748.7659,N,12217.7963,W,2.97,127.64,181212,,,D*75
$GPVTG,127.64,T,,M,2.97,N,5.5,K,D*02
$GPGGA,224930.000,3748.7650,N,12217.7956,W,2,06,1.5,-7.0,M,-25.1,M,1.8,0000*61
$GPGSA,A,3,19,14,22,18,06,21,,,,,,,2.9,1.5,2.5*3B
$GPRMC,224930.000,A,3748.7650,N,12217.7956,W,2.87,121.48,181212,,,D*7B
$GPVTG,121.48,T,,M,2.87,N,5.3,K,D*0D
$GPGGA,224931.000,3748.7647,N,12217.7944,W,2,06,1.5,-5.6,M,-25.1,M,1.8,0000*61
$GPGSA,A,3,19,14,22,18,06,21,,,,,,,2.9,1.5,2.5*3B
$GPRMC,224931.000,A,3748.7647,N,12217.7944,W,2.96,107.70,181212,,,D*70
$GPVTG,107.70,T,,M,2.96,N,5.5,K,D*04
$GPGGA,224932.000,3748.7642,N,12217.7935,W,2,06,1.5,-4.9,M,-25.1,M,1.8,0000*6F
$GPGSA,A,3,19,14,22,18,06,21,,,,,,,2.9,1.5,2.5*3B
$GPRMC,224932.000,A,3748.7642,N,12217.7935,W,3.02,119.97,181212,,,D*7A
$GPVTG,119.97,T,,M,3.02,N,5.6,K,D*0D
$GPGGA,224933.000,3748.7634,N,12217.7925,W,2,06,1.5,-4.2,M,-25.1,M,1.8,0000*65
$GPGSA,A,3,19,14,22,18,06,21,,,,,,,2.9,1.5,2.5*3B
$GPGSV,3,1,12,14,76,164,27,22,68,021,23,19,43,279,24,18,36,065,21*7F
$GPGSV,3,2,12,06,35,223,33,03,35,244,32,21,22,128,33,11,16,311,21*71
$GPGSV,3,3,12,24,15,051,19,09,08,038,18,32,07,265,27,01,00,311,*77
$GPRMC,224933.000,A,3748.7634,N,12217.7925,W,2.95,115.82,181212,,,D*7C
$GPVTG,115.82,T,,M,2.95,N,5.5,K,D*09
$GPGGA,224934.000,3748.7625,N,12217.7914,W,2,06,1.5,-3.2,M,-25.1,M,2.8,0000*64
$GPGSA,A,3,19,14,22,18,06,21,,,,,,,2.9,1.5,2.5*3B
$GPRMC,224934.000,A,3748.7625,N,12217.7914,W,2.91,117.67,181212,,,D*74
$GPVTG,117.67,T,,M,2.91,N,5.4,K,D*05
$GPGGA,224935.000,3748.7615,N,12217.7904,W,2,06,1.5,-1.4,M,-25.1,M,1.8,0000*60
$GPGSA,A,3,19,14,22,18,06,21,,,,,,,2.9,1.5,2.5*3B
$GPRMC,224935.000,A,3748.7615,N,12217.7904,W,2.51,123.40,181212,,,D*79
$GPVTG,123.40,T,,M,2.51,N,4.7,K,D*09
$GPGGA,224936.000,3748.7606,N,12217.7891,W,2,06,1.5,0.9,M,-25.1,M,1.8,0000*4D
$GPGSA,A,3,19,14,22,18,06,21,,,,,,,2.9,1.5,2.5*3B
$GPRMC,224936.000,A,3748.7606,N,12217.7891,W,2.59,114.39,181212,,,D*77
$GPVTG,114.39,T,,M,2.59,N,4.8,K,D*04
$GPGGA,224937.000,3748.7602,N,12217.7882,W,2,06,1.5,1.4,M,-25.1,M,1.8,0000*46
$GPGSA,A,3,19,14,22,18,06,21,,,,,,,2.9,1.5,2.5*3B
$GPRMC,224937.000,A,3748.7602,N,12217.7882,W,2.94,114.27,181212,,,D*7E
$GPVTG,114.27,T,,M,2.94,N,5.4,K,D*07
$GPGGA,224938.000,3748.7597,N,12217.7870,W,2,06,1.5,3.3,M,-25.1,M,2.8,0000*4D
$GPGSA,A,3,19,14,22,18,06,21,,,,,,,2.9,1.5,2.5*3B
$GPGSV,3,1,12,14,76,164,27,22,68,021,24,19,43,279,23,18,36,065,24*7A
$GPGSV,3,2,12,06,35,223,32,03,35,244,31,21,22,128,33,11,16,311,20*72
$GPRMC,224938.000,A,3748.7597,N,12217.7870,W,3.15,116.60,181212,,,D*7A
$GPVTG,116.60,T,,M,3.15,N,5.8,K,D*02
$GPGGA,224939.000,3748.7591,N,12217.7862,W,2,06,1.5,5.7,M,-25.1,M,1.8,0000*48
$GPGSA,A,3,19,14,22,18,06,21,,,,,,,2.9,1.5,2.5*3B
$GPRMC,224939.000,A,3748.7591,N,12217.7862,W,3.16,127.34,181212,,,D*7E
$GPVTG,127.34,T,,M,3.16,N,5.9,K,D*03
$GPGGA,224940.000,3748.7592,N,12217.7858,W,2,06,1.5,4.2,M,-25.1,M,2.8,0000*4B
$GPGSA,A,3,19,14,22,18,06,21,,,,,,,2.9,1.5,2.5*3B
$GPRMC,224940.000,A,3748.7592,N,12217.7858,W,2.75,129.25,181212,,,D*70
$GPVTG,129.25,T,,M,2.75,N,5.1,K,D*01
$GPGGA,224941.000,3748.7592,N,12217.7858,W,2,06,1.5,1.8,M,-25.1,M,1.8,0000*46
$GPGSA,A,3,19,14,22,18,06,21,,,,,,,2.9,1.5,2.5*3B
$GPRMC,224941.000,A,3748.7592,N,12217.7858,W,2.57,124.52,181212,,,D*7C
$GPVTG,124.52,T,,M,2.57,N,4.8,K,D*04
$GPGGA,224942.000,3748.7592,N,12217.7857,W,2,06,1.5,-0.2,M,-25.1,M,1.8,0000*6C
$GPGSA,A,3,19,14,22,18,06,21,,,,,,,2.9,1.5,2.5*3B
$GPRMC,224942.000,A,3748.7592,N,12217.7857,W,2.44,136.50,181212,,,D*73
$GPVTG,136.50,T,,M,2.44,N,4.5,K,D*0A
$GPGGA,224943.000,3748.7593,N,12217.7856,W,2,06,1.5,-2.8,M,-25.1,M,1.8,0000*65
$GPGSA,A,3,19,14,22,18,06,21,,,,,,,2.9,1.5,2.5*3B
$GPGSV,3,1,12,14,76,164,26,22,68,021,23,19,43,279,29,18,36,065,16*77
$GPGSV,3,2,12,06,35,223,33,03,35,244,33,21,22,128,27,11,16,311,21*75
$GPGSV,3,3,12,24,15,051,16,09,08,038,15,32,07,265,20,01,00,311,*72
$GPRMC,224943.000,A,3748.7593,N,12217.7856,W,2.49,125.56,181212,,,D*7B
$GPVTG,125.56,T,,M,2.49,N,4.6,K,D*00
$GPGGA,224944.000,3748.7593,N,12217.7850,W,2,06,1.5,-2.7,M,-25.1,M,2.8,0000*68
$GPGSA,A,3,19,14,22,18,06,21,,,,,,,2.9,1.5,2.5*3B
$GPRMC,224944.000,A,3748.7593,N,12217.7850,W,1.75,111.79,181212,,,D*7C
$GPVTG,111.79,T,,M,1.75,N,3.2,K,D*05
$GPGGA,224945.000,3748.7598,N,12217.7841,W,2,06,1.5,-4.0,M,-25.1,M,3.8,0000*62
$GPGSA,A,3,19,14,22,18,06,21,,,,,,,2.9,1.5,2.4*3A
$GPRMC,224945.000,A,3748.7598,N,12217.7841,W,2.15,101.36,181212,,,D*79
$GPVTG,101.36,T,,M,2.15,N,4.0,K,D*0F
$GPGGA,224946.000,3748.7596,N,12217.7835,W,2,06,1.5,-5.3,M,-25.1,M,4.8,0000*69
$GPGSA,A,3,19,14,22,18,06,21,,,,,,,2.9,1.5,2.4*3A
$GPRMC,224946.000,A,3748.7596,N,12217.7835,W,2.42,123.40,181212,,,D*74
$GPVTG,123.40,T,,M,2.42,N,4.5,K,D*09
$GPGGA,224947.000,3748.7597,N,12217.7827,W,2,06,1.5,-6.2,M,-25.1,M,1.8,0000*6D
$GPGSA,A,3,19,14,22,18,06,21,,,,,,,2.9,1.5,2.4*3A
$GPRMC,224947.000,A,3748.7597,N,12217.7827,W,2.36,121.23,181212,,,D*73
$GPVTG,121.23,T,,M,2.36,N,4.4,K,D*0C
$GPGGA,224948.000,3748.7594,N,12217.7819,W,2,06,1.5,-7.3,M,-25.1,M,1.8,0000*6C
$GPGSA,A,3,19,14,22,18,06,21,,,,,,,2.9,1.5,2.4*3A
$GPGSV,3,1,12,14,76,164,26,22,68,021,22,19,43,279,29,18,36,065,19*79
$GPGSV,3,2,12,06,35,223,33,03,35,244,33,21,22,128,34,11,16,311,21*77
$GPGSV,3,3,12,24,15,051,15,09,08,038,15,32,07,265,26,01,00,311,*77
$GPRMC,224948.000,A,3748.7594,N,12217.7819,W,2.74,107.31,181212,,,D*73
$GPVTG,107.31,T,,M,2.74,N,5.1,K,D*09
$GPGGA,224949.000,3748.7592,N,12217.7806,W,2,06,1.5,-7.3,M,-25.1,M,1.8,0000*65
$GPGSA,A,3,19,14,22,18,06,21,,,,,,,2.9,1.5,2.4*3A
$GPRMC,224949.000,A,3748.7592,N,12217.7806,W,2.50,100.92,181212,,,D*72
$GPVTG,100.92,T,,M,2.50,N,4.6,K,D*07
$GPGGA,224950.000,3748.7591,N,12217.7795,W,2,06,1.5,-7.5,M,-25.1,M,2.8,0000*6E
$GPGSA,A,3,19,14,22,18,06,21,,,,,,,2.9,1.5,2.4*3A
$GPRMC,224950.000,A,3748.7591,N,12217.7795,W,2.30,96.74,181212,,,D*4C
$GPVTG,96.74,T,,M,2.30,N,4.3,K,D*32
$GPGGA,224951.000,3748.7587,N,12217.7784,W,2,06,1.5,-7.2,M,-25.1,M,3.8,0000*6E
$GPGSA,A,3,19,14,22,18,06,21,,,,,,,2.9,1.5,2.4*3A
$GPRMC,224951.000,A,3748.7587,N,12217.7784,W,2.51,113.60,181212,,,D*74
$GPVTG,113.60,T,,M,2.51,N,4.7,K,D*08
$GPGGA,224952.000,3748.7583,N,12217.7777,W,2,06,1.5,-8.0,M,-25.1,M,4.8,0000*6F
$GPGSA,A,3,19,14,22,18,06,21,,,,,,,2.9,1.5,2.4*3A
$GPRMC,224952.000,A,3748.7583,N,12217.7777,W,2.53,120.10,181212,,,D*7A
$GPVTG,120.10,T,,M,2.53,N,4.7,K,D*0D
$GPGGA,224953.000,3748.7580,N,12217.7773,W,2,06,1.5,-9.4,M,-25.1,M,1.8,0000*69
$GPGSA,A,3,19,14,22,18,06,21,,,,,,,2.9,1.5,2.4*3A
$GPGSV,3,1,12,14,76,164,27,22,68,021,22,19,43,279,28,18,36,065,20*73
$GPGSV,3,2,12,06,35,223,26,03,35,244,33,21,22,128,35,11,16,311,20*73
$GPGSV,3,3,12,24,15,051,15,09,08,038,16,32,07,265,25,01,00,311,*77
$GPRMC,224953.000,A,3748.7580,N,12217.7773,W,2.60,128.03,181212,,,D*76
$GPVTG,128.03,T,,M,2.60,N,4.8,K,D*08
$GPGGA,224954.000,3748.7578,N,12217.7766,W,2,06,1.5,-9.9,M,-25.1,M,1.8,0000*60
$GPGSA,A,3,19,14,22,18,06,21,,,,,,,2.9,1.5,2.4*3A
$GPRMC,224954.000,A,3748.7578,N,12217.7766,W,2.40,110.73,181212,,,D*7C
$GPVTG,110.73,T,,M,2.40,N,4.5,K,D*0B
$GPGGA,224955.000,3748.7573,N,12217.7758,W,2,06,1.5,-10.3,M,-25.1,M,2.8,0000*56
$GPGSA,A,3,19,14,22,18,06,21,,,,,,,2.9,1.5,2.4*3A
$GPRMC,224955.000,A,3748.7573,N,12217.7758,W,2.58,109.77,181212,,,D*7E
$GPVTG,109.77,T,,M,2.58,N,4.8,K,D*03
$GPGGA,224956.000,3748.7567,N,12217.7748,W,2,06,1.5,-9.5,M,-25.1,M,3.8,0000*6E
$GPGSA,A,3,19,14,22,18,06,21,,,,,,,2.9,1.5,2.4*3A
$GPRMC,224956.000,A,3748.7567,N,12217.7748,W,2.25,109.33,181212,,,D*73
$GPVTG,109.33,T,,M,2.25,N,4.2,K,D*03
$GPGGA,224957.000,3748.7554,N,12217.7740,W,2,06,1.5,-9.0,M,-25.1,M,4.8,0000*65
$GPGSA,A,3,19,14,22,18,06,21,,,,,,,2.9,1.5,2.4*3A
$GPRMC,224957.000,A,3748.7554,N,12217.7740,W,2.47,121.66,181212,,,D*74
$GPVTG,121.66,T,,M,2.47,N,4.6,K,D*09
$GPGGA,224958.000,3748.7545,N,12217.7732,W,2,06,1.5,-8.3,M,-25.1,M,5.8,0000*6C
$GPGSA,A,3,19,14,22,18,06,21,,,,,,,2.9,1.5,2.4*3A
$GPGSV,3,1,12,14,76,164,27,22,68,021,22,19,43,279,27,18,36,065,19*76
$GPGSV,3,2,12,06,35,223,34,03,35,244,29,21,22,128,35,11,16,311,16*7E
$GPGSV,3,3,12,24,15,051,17,09,08,038,17,32,07,265,26,01,00,311,*77
$GPVTG,125.51,T,,M,2.62,N,4.9,K,D*01
$GPGGA,224959.000,3748.7537,N,12217.7722,W,2,06,1.5,-7.7,M,-25.1,M,1.8,0000*66
$GPGSA,A,3,19,14,22,18,06,21,,,,,,,2.9,1.5,2.4*3A
$GPRMC,224959.000,A,3748.7537,N,12217.7722,W,2.90,126.11,181212,,,D*76
$GPVTG,126.11,T,,M,2.90,N,5.4,K,D*07
$GPGGA,225000.000,3748.7532,N,12217.7709,W,2,06,1.5,-6.8,M,-25.1,M,1.8,0000*60
$GPGSA,A,3,19,14,22,18,06,21,,,,,,,2.9,1.5,2.4*3A
$GPRMC,225000.000,A,3748.7532,N,12217.7709,W,2.90,128.51,181212,,,D*74
$GPVTG,128.51,T,,M,2.90,N,5.4,K,D*0D
$GPGGA,225001.000,3748.7529,N,12217.7697,W,2,06,1.5,-6.3,M,-25.1,M,1.8,0000*66
$GPGSA,A,3,19,14,22,18,06,21,,,,,,,2.9,1.5,2.4*3A
$GPRMC,225001.000,A,3748.7529,N,12217.7697,W,2.77,116.83,181212,,,D*72
$GPVTG,116.83,T,,M,2.77,N,5.1,K,D*03
$GPGGA,225002.000,3748.7530,N,12217.7687,W,2,06,1.5,-6.8,M,-25.1,M,1.8,0000*67
$GPGSA,A,3,19,14,22,18,06,21,,,,,,,2.9,1.5,2.4*3A
$GPRMC,225002.000,A,3748.7530,N,12217.7687,W,2.50,100.71,181212,,,D*77
$GPVTG,100.71,T,,M,2.50,N,4.6,K,D*0A
$GPGGA,225003.000,3748.7532,N,12217.7680,W,2,06,1.5,-7.6,M,-25.1,M,2.8,0000*6F
$GPGSA,A,3,19,14,22,18,06,21,,,,,,,2.9,1.5,2.4*3A
$GPGSV,3,1,12,14,76,164,27,22,68,021,22,19,43,279,22,18,36,065,19*73
$GPGSV,3,2,12,06,35,223,32,03,35,244,30,21,22,128,35,11,16,311,17*71
$GPGSV,3,3,12,24,15,051,17,09,08,038,21,32,07,265,26,01,00,311,*72
$GPRMC,225003.000,A,3748.7532,N,12217.7680,W,2.10,101.53,181212,,,D*76
$GPVTG,101.53,T,,M,2.10,N,3.9,K,D*07
$GPGGA,225004.000,3748.7530,N,12217.7673,W,2,06,1.5,-8.1,M,-25.1,M,3.8,0000*6F
$GPGSA,A,3,19,14,22,18,06,21,,,,,,,2.9,1.5,2.4*3A
$GPRMC,225004.000,A,3748.7530,N,12217.7673,W,2.11,106.51,181212,,,D*7B
$GPVTG,106.51,T,,M,2.11,N,3.9,K,D*03
$GPGGA,225005.000,3748.7526,N,12217.7666,W,2,06,1.5,-8.6,M,-25.1,M,1.8,0000*68
$GPGSA,A,3,19,14,22,18,06,21,,,,,,,2.9,1.5,2.4*3A
$GPRMC,225005.000,A,3748.7526,N,12217.7666,W,2.17,103.85,181212,,,D*73
$GPVTG,103.85,T,,M,2.17,N,4.0,K,D*07
$GPGGA,225006.000,3748.7529,N,12217.7655,W,2,06,1.5,-8.5,M,-25.1,M,2.8,0000*64
$GPGSA,A,3,19,14,22,18,06,21,,,,,,,2.9,1.5,2.4*3A
$GPRMC,225006.000,A,3748.7529,N,12217.7655,W,2.68,87.32,181212,,,D*46
$GPVTG,87.32,T,,M,2.68,N,5.0,K,D*3F
$GPGGA,225007.000,3748.7525,N,12217.7647,W,2,06,1.5,-8.4,M,-25.1,M,1.8,0000*68
$GPGSA,A,3,19,14,22,18,06,21,,,,,,,2.9,1.5,2.4*3A
$GPRMC,225007.000,A,3748.7525,N,12217.7647,W,2.45,102.18,181212,,,D*73
$GPVTG,102.18,T,,M,2.45,N,4.5,K,D*00
$GPGGA,225008.000,3748.7522,N,12217.7639,W,2,06,1.5,-8.3,M,-25.1,M,2.8,0000*6D
$GPGSA,A,3,19,14,22,18,06,21,,,,,,,2.9,1.5,2.4*3A
$GPGSV,3,1,12,14,76,164,27,22,68,021,21,19,43,279,24,18,36,065,18*77
$GPGSV,3,2,12,06,35,223,33,03,35,244,31,21,22,128,34,11,16,311,18*7F
$GPGSV,3,3,12,24,15,051,18,09,08,038,20,32,07,265,23,01,00,311,*79
$GPRMC,225008.000,A,3748.7522,N,12217.7639,W,2.37,106.65,181212,,,D*79
$GPVTG,106.65,T,,M,2.37,N,4.4,K,D*0A
$GPGGA,225009.000,3748.7516,N,12217.7628,W,2,06,1.5,-8.2,M,-25.1,M,1.8,0000*69
$GPGSA,A,3,19,14,22,18,06,21,,,,,,,2.9,1.5,2.4*3A
$GPRMC,225009.000,A,3748.7516,N,12217.7628,W,2.47,105.09,181212,,,D*71
$GPVTG,105.09,T,,M,2.47,N,4.6,K,D*06
$GPGGA,225010.000,3748.7509,N,12217.7617,W,2,06,1.5,-8.5,M,-25.1,M,2.8,0000*67
$GPGSA,A,3,19,14,22,18,06,21,,,,,,,2.9,1.5,2.4*3A
$GPRMC,225010.000,A,3748.7509,N,12217.7617,W,2.61,116.79,181212,,,D*7A
$GPVTG,116.79,T,,M,2.61,N,4.8,K,D*09
$GPGGA,225011.000,3748.7503,N,12217.7606,W,2,06,1.5,-8.4,M,-25.1,M,1.8,0000*6E
$GPGSA,A,3,19,14,22,18,06,21,,,,,,,2.9,1.5,2.4*3A
$GPRMC,225011.000,A,3748.7503,N,12217.7606,W,2.64,123.95,181212,,,D*70
$GPVTG,123.95,T,,M,2.64,N,4.9,K,D*09
$GPGGA,225012.000,3748.7495,N,12217.7597,W,2,06,1.5,-8.6,M,-25.1,M,1.8,0000*6A
$GPGSA,A,3,19,14,22,18,06,21,,,,,,,2.9,1.5,2.4*3A
$GPRMC,225012.000,A,3748.7495,N,12217.7597,W,2.60,129.60,181212,,,D*72
$GPVTG,129.60,T,,M,2.60,N,4.8,K,D*0C
$GPGGA,225013.000,3748.7482,N,12217.7587,W,2,06,1.5,-8.0,M,-25.1,M,2.8,0000*69
$GPGSA,A,3,19,14,22,18,06,21,,,,,,,2.9,1.5,2.4*3A
$GPGSV,3,1,12,14,76,164,27,22,68,021,24,19,43,279,25,18,36,065,19*72
$GPGSV,3,2,12,06,35,223,31,03,35,244,32,21,22,128,31,11,16,311,18*7B
$GPGSV,3,3,12,24,15,051,19,09,08,038,20,32,07,265,27,01,00,311,*7C
$GPRMC,225013.000,A,3748.7482,N,12217.7587,W,2.78,114.67,181212,,,D*74
$GPVTG,114.67,T,,M,2.78,N,5.1,K,D*04
$GPGGA,225014.000,3748.7474,N,12217.7576,W,2,06,1.5,-7.6,M,-25.1,M,3.8,0000*61
$GPGSA,A,3,19,14,22,18,06,21,,,,,,,2.9,1.5,2.4*3A
$GPRMC,225014.000,A,3748.7474,N,12217.7576,W,2.73,110.51,181212,,,D*7E
$GPVTG,110.51,T,,M,2.73,N,5.1,K,D*0E
$GPGGA,225015.000,3748.7461,N,12217.7568,W,2,06,1.5,-6.2,M,-25.1,M,4.8,0000*69
$GPGSA,A,3,19,14,22,18,06,21,,,,,,,2.9,1.5,2.4*3A
$GPRMC,225015.000,A,3748.7461,N,12217.7568,W,2.53,116.05,181212,,,D*71
$GPVTG,116.05,T,,M,2.53,N,4.7,K,D*0C
$GPGGA,225016.000,3748.7452,N,12217.7563,W,2,06,1.5,-5.2,M,-25.1,M,1.8,0000*67
$GPGSA,A,3,19,14,22,18,06,21,,,,,,,2.9,1.5,2.4*3A
$GPRMC,225016.000,A,3748.7452,N,12217.7563,W,2.59,118.46,181212,,,D*7A
$GPVTG,118.46,T,,M,2.59,N,4.8,K,D*00
$GPGGA,225017.000,3748.7439,N,12217.7553,W,2,06,1.5,-3.1,M,-25.1,M,1.8,0000*6D
$GPGSA,A,3,19,14,22,18,06,21,,,,,,,2.9,1.5,2.4*3A
$GPRMC,225017.000,A,3748.7439,N,12217.7553,W,2.36,123.49,181212,,,D*7B
$GPVTG,123.49,T,,M,2.36,N,4.4,K,D*02
$GPGGA,225018.000,3748.7433,N,12217.7548,W,2,06,1.5,-1.8,M,-25.1,M,1.8,0000*69
$GPGSA,A,3,19,14,22,18,06,21,,,,,,,2.9,1.5,2.4*3A
$GPGSV,3,1,12,14,76,164,27,22,68,021,23,19,43,279,26,18,36,065,25*79
$GPGSV,3,2,12,06,35,223,31,03,35,244,32,21,22,128,21,11,16,311,19*7B
$GPGSV,3,3,12,24,15,051,19,09,08,038,20,32,07,265,22,01,00,311,*79
$GPRMC,225018.000,A,3748.7433,N,12217.7548,W,1.80,129.28,181212,,,D*77
$GPGGA,225019.000,3748.7432,N,12217.7540,W,2,06,1.5,-1.8,M,-25.1,M,1.8,0000*61
$GPGSA,A,3,19,14,22,18,06,21,,,,,,,2.9,1.5,2.4*3A
$GPRMC,225019.000,A,3748.7432,N,12217.7540,W,2.16,126.82,181212,,,D*7C
$GPVTG,126.82,T,,M,2.16,N,4.0,K,D*06
$GPGGA,225020.000,3748.7431,N,12217.7536,W,2,06,1.5,-2.2,M,-25.1,M,2.8,0000*63
$GPGSA,A,3,19,14,22,18,06,21,,,,,,,2.9,1.5,2.4*3A
$GPRMC,225020.000,A,3748.7431,N,12217.7536,W,2.38,122.40,181212,,,D*72
$GPVTG,122.40,T,,M,2.38,N,4.4,K,D*04
$GPGGA,225021.000,3748.7425,N,12217.7529,W,2,06,1.5,-1.3,M,-25.1,M,3.8,0000*6A
$GPGSA,A,3,19,14,22,18,06,21,,,,,,,2.9,1.5,2.4*3A
$GPRMC,225021.000,A,3748.7425,N,12217.7529,W,3.00,121.46,181212,,,D*77
$GPVTG,121.46,T,,M,3.00,N,5.6,K,D*08
$GPGGA,225022.000,3748.7423,N,12217.7521,W,2,06,1.5,-0.8,M,-25.1,M,4.8,0000*6A
$GPGSA,A,3,19,14,22,18,06,21,,,,,,,2.9,1.5,2.4*3A
$GPRMC,225022.000,A,3748.7423,N,12217.7521,W,2.90,120.98,181212,,,D*70
$GPVTG,120.98,T,,M,2.90,N,5.4,K,D*00
$GPGGA,225023.000,3748.7419,N,12217.7511,W,2,06,1.5,-1.0,M,-25.1,M,5.8,0000*69
$GPGSA,A,3,19,14,22,18,06,21,,,,,,,2.9,1.5,2.4*3A
$GPGSV,3,1,12,14,76,164,22,22,68,021,24,19,43,279,26,18,36,065,24*7A
$GPGSV,3,2,12,06,35,223,32,03,35,244,32,21,22,128,29,11,16,311,19*70
$GPGSV,3,3,12,24,15,051,19,09,08,038,19,32,07,265,23,01,00,311,*72
$GPRMC,225023.000,A,3748.7419,N,12217.7511,W,2.62,113.27,181212,,,D*72
$GPVTG,113.27,T,,M,2.62,N,4.8,K,D*04
$GPGGA,225024.000,3748.7414,N,12217.7502,W,2,06,1.5,-1.7,M,-25.1,M,6.8,0000*65
$GPGSA,A,3,19,14,22,18,06,21,,,,,,,2.9,1.5,2.4*3A
$GPRMC,225024.000,A,3748.7414,N,12217.7502,W,2.54,121.04,181212,,,D*7F
$GPVTG,121.04,T,,M,2.54,N,4.7,K,D*0E
$GPGGA,225025.000,3748.7407,N,12217.7497,W,2,06,1.5,-2.3,M,-25.1,M,7.8,0000*6D
$GPGSA,A,3,19,14,22,18,06,21,,,,,,,2.9,1.5,2.4*3A
$GPRMC,225025.000,A,3748.7407,N,12217.7497,W,2.50,116.16,181212,,,D*72
$GPVTG,116.16,T,,M,2.50,N,4.6,K,D*0C
$GPGGA,225026.000,3748.7398,N,12217.7485,W,2,06,1.5,-1.0,M,-25.1,M,8.8,0000*63
$GPGSA,A,3,19,14,22,18,06,21,,,,,,,2.9,1.5,2.4*3A
$GPRMC,225026.000,A,3748.7398,N,12217.7485,W,2.37,115.05,181212,,,D*73
$GPVTG,115.05,T,,M,2.37,N,4.4,K,D*0E
$GPGGA,225027.000,3748.7393,N,12217.7480,W,2,06,1.5,0.6,M,-25.1,M,9.8,0000*47
$GPGSA,A,3,19,14,22,18,06,21,,,,,,,2.9,1.5,2.4*3A
$GPRMC,225027.000,A,3748.7393,N,12217.7480,W,2.57,110.18,181212,,,D*73
$GPVTG,110.18,T,,M,2.57,N,4.8,K,D*0D
$GPGGA,225028.000,3748.7383,N,12217.7472,W,2,06,1.5,5.1,M,-25.1,M,10.8,0000*7E
$GPGSA,A,3,19,14,22,18,06,21,,,,,,,2.9,1.5,2.4*3A
$GPGSV,3,1,12,14,76,164,25,22,68,021,24,19,43,279,26,18,36,065,24*7D
$GPGSV,3,2,12,06,35,223,32,03,35,244,32,21,22,128,22,11,16,311,20*71
$GPGSV,3,3,12,24,15,051,19,09,08,038,19,32,07,265,23,01,00,311,*72
$GPRMC,225028.000,A,3748.7383,N,12217.7472,W,1.81,124.45,181212,,,D*77
$GPVTG,124.45,T,,M,1.81,N,3.4,K,D*01
$GPGGA,225029.000,3748.7379,N,12217.7460,W,2,06,1.5,6.7,M,-25.1,M,11.8,0000*7D
$GPGSA,A,3,19,14,22,18,06,21,,,,,,,2.9,1.5,2.4*3A
$GPRMC,225029.000,A,3748.7379,N,12217.7460,W,2.48,115.10,181212,,,D*74
$GPVTG,115.10,T,,M,2.48,N,4.6,K,D*00
$GPGGA,225030.000,3748.7372,N,12217.7453,W,2,06,1.5,8.3,M,-25.1,M,12.8,0000*77
$GPGSA,A,3,19,14,22,18,06,21,,,,,,,2.9,1.5,2.4*3A
$GPRMC,225030.000,A,3748.7372,N,12217.7453,W,3.02,118.85,181212,,,D*79
$GPVTG,118.85,T,,M,3.02,N,5.6,K,D*0F
$GPGGA,225031.000,3748.7371,N,12217.7446,W,2,06,1.5,7.4,M,-25.1,M,13.8,0000*78
$GPGSA,A,3,19,14,22,18,06,21,,,,,,,2.9,1.5,2.4*3A
$GPRMC,225031.000,A,3748.7371,N,12217.7446,W,2.26,107.06,181212,,,D*7D
$GPVTG,107.06,T,,M,2.26,N,4.2,K,D*08
$GPGGA,225032.000,3748.7363,N,12217.7434,W,2,06,1.5,7.9,M,-25.1,M,14.8,0000*77
$GPGSA,A,3,19,14,22,18,06,21,,,,,,,2.9,1.5,2.4*3A
$GPRMC,225032.000,A,3748.7363,N,12217.7434,W,2.36,108.97,181212,,,D*7E
$GPVTG,108.97,T,,M,2.36,N,4.4,K,D*08
$GPGGA,225033.000,3748.7355,N,12217.7423,W,2,06,1.5,7.5,M,-25.1,M,1.8,0000*4D
$GPGSA,A,3,19,14,22,18,06,21,,,,,,,2.9,1.5,2.4*3A
$GPGSV,3,1,12,14,76,164,24,22,68,021,21,19,43,279,26,18,36,065,25*78
$GPGSV,3,2,12,06,35,223,33,03,35,244,32,21,22,128,22,11,16,311,21*71
$GPRMC,225033.000,A,3748.7355,N,12217.7423,W,2.77,124.20,181212,,,D*7B
$GPVTG,124.20,T,,M,2.77,N,5.1,K,D*0B
$GPGGA,225034.000,3748.7349,N,12217.7413,W,2,06,1.5,6.0,M,-25.1,M,2.8,0000*43
$GPGSA,A,3,19,14,22,18,06,21,,,,,,,2.9,1.5,2.4*3A
$GPRMC,225034.000,A,3748.7349,N,12217.7413,W,3.16,129.24,181212,,,D*7D
$GPVTG,129.24,T,,M,3.16,N,5.9,K,D*0C
$GPGGA,225035.000,3748.7343,N,12217.7400,W,2,06,1.5,5.9,M,-25.1,M,1.8,0000*43
$GPGSA,A,3,19,14,22,18,06,21,,,,,,,2.9,1.5,2.4*3A
$GPRMC,225035.000,A,3748.7343,N,12217.7400,W,3.13,129.64,181212,,,D*75
$GPVTG,129.64,T,,M,3.13,N,5.8,K,D*0C
$GPGGA,225036.000,3748.7341,N,12217.7393,W,2,06,1.5,4.6,M,-25.1,M,2.8,0000*42
$GPGSA,A,3,19,14,22,18,06,21,,,,,,,2.9,1.5,2.4*3A
$GPRMC,225036.000,A,3748.7341,N,12217.7393,W,2.14,110.31,181212,,,D*75
$GPVTG,110.31,T,,M,2.14,N,4.0,K,D*09
$GPGGA,225037.000,3748.7335,N,12217.7386,W,2,06,1.5,4.7,M,-25.1,M,3.8,0000*44
$GPGSA,A,3,19,14,22,18,06,21,,,,,,,2.9,1.5,2.4*3A
$GPRMC,225037.000,A,3748.7335,N,12217.7386,W,1.74,123.03,181212,,,D*77
$GPVTG,123.03,T,,M,1.74,N,3.2,K,D*08
$GPGGA,225038.000,3748.7333,N,12217.7378,W,2,06,1.5,4.2,M,-25.1,M,4.8,0000*4E
$GPGSA,A,3,19,14,22,18,06,21,,,,,,,2.9,1.5,2.4*3A
$GPGSV,3,1,12,14,76,164,24,22,68,021,22,19,43,279,24,18,36,065,25*79
$GPGSV,3,2,12,06,35,223,33,03,35,244,33,21,22,128,22,11,16,311,20*71
$GPGSV,3,3,12,24,15,051,18,09,08,038,19,32,07,265,24,01,00,311,*74
$GPRMC,225038.000,A,3748.7333,N,12217.7378,W,2.51,120.17,181212,,,D*7D
$GPVTG,120.17,T,,M,2.51,N,4.7,K,D*08
$GPGGA,225039.000,3748.7330,N,12217.7369,W,2,06,1.5,3.5,M,-25.1,M,5.8,0000*4D
$GPGSA,A,3,19,14,22,18,06,21,,,,,,,2.9,1.5,2.4*3A
$GPRMC,225039.000,A,3748.7330,N,12217.7369,W,2.59,122.56,181212,,,D*70
$GPVTG,122.56,T,,M,2.59,N,4.8,K,D*08
$GPGGA,225040.000,3748.7328,N,12217.7362,W,2,06,1.5,2.0,M,-25.1,M,6.8,0000*46
$GPGSA,A,3,19,14,22,18,06,21,,,,,,,2.8,1.5,2.4*3B
$GPRMC,225040.000,A,3748.7328,N,12217.7362,W,2.22,120.59,181212,,,D*7D
$GPVTG,120.59,T,,M,2.22,N,4.1,K,D*00
$GPGGA,225041.000,3748.7320,N,12217.7355,W,2,06,1.5,1.4,M,-25.1,M,7.8,0000*4D
$GPGSA,A,3,19,14,22,18,06,21,,,,,,,2.8,1.5,2.4*3B
$GPRMC,225041.000,A,3748.7320,N,12217.7355,W,2.10,115.25,181212,,,D*7C
$GPVTG,115.25,T,,M,2.10,N,3.9,K,D*03
$GPGGA,225042.000,3748.7320,N,12217.7349,W,2,06,1.5,0.4,M,-25.1,M,8.8,0000*4D
$GPGSA,A,3,19,14,22,18,06,21,,,,,,,2.8,1.5,2.4*3B
$GPRMC,225042.000,A,3748.7320,N,12217.7349,W,2.14,114.85,181212,,,D*7D
$GPVTG,114.85,T,,M,2.14,N,4.0,K,D*02
$GPGGA,225043.000,3748.7315,N,12217.7342,W,2,06,1.5,-0.3,M,-25.1,M,9.8,0000*6A
$GPGSA,A,3,19,14,22,18,06,21,,,,,,,2.8,1.5,2.4*3B
$GPGSV,3,1,12,14,76,164,24,22,68,021,22,19,43,279,25,18,36,065,20*7D
$GPGSV,3,2,12,06,35,223,33,03,35,244,32,21,22,128,32,11,16,311,21*70
$GPGSV,3,3,12,24,15,051,18,09,08,038,18,32,07,265,23,01,00,311,*72
$GPRMC,225043.000,A,3748.7315,N,12217.7342,W,2.38,127.81,181212,,,D*7B
$GPVTG,127.81,T,,M,2.38,N,4.4,K,D*0C
$GPGGA,225044.000,3748.7305,N,12217.7330,W,2,06,1.5,0.8,M,-25.1,M,10.8,0000*77
$GPGSA,A,3,19,14,22,18,06,21,,,,,,,2.8,1.5,2.4*3B
$GPRMC,225044.000,A,3748.7305,N,12217.7330,W,2.65,127.13,181212,,,D*7B
$GPVTG,127.13,T,,M,2.65,N,4.9,K,D*02
$GPGGA,225045.000,3748.7301,N,12217.7318,W,2,06,1.5,1.8,M,-25.1,M,11.8,0000*78
$GPGSA,A,3,19,14,22,18,06,21,,,,,,,2.8,1.5,2.4*3B
$GPRMC,225045.000,A,3748.7301,N,12217.7318,W,2.50,113.38,181212,,,D*7C
$GPVTG,113.38,T,,M,2.50,N,4.6,K,D*05
$GPGGA,225046.000,3748.7299,N,12217.7307,W,2,06,1.5,1.9,M,-25.1,M,12.8,0000*77
$GPGSA,A,3,19,14,22,18,06,21,,,,,,,2.8,1.5,2.4*3B
$GPRMC,225046.000,A,3748.7299,N,12217.7307,W,2.31,114.98,181212,,,D*7B
$GPVTG,114.98,T,,M,2.31,N,4.3,K,D*0A
$GPGGA,225047.000,3748.7298,N,12217.7301,W,2,06,1.5,0.4,M,-25.1,M,13.8,0000*7C
$GPGSA,A,3,19,14,22,18,06,21,,,,,,,2.8,1.5,2.4*3B
$GPRMC,225047.000,A,3748.7298,N,12217.7301,W,2.52,123.92,181212,,,D*76
$GPVTG,123.92,T,,M,2.52,N,4.7,K,D*05
$GPGGA,225048.000,3748.7292,N,12217.7292,W,2,06,1.5,0.1,M,-25.1,M,14.8,0000*70
$GPGSA,A,3,19,14,22,18,06,21,,,,,,,2.8,1.5,2.4*3B
$GPGSV,3,1,12,14,76,164,24,22,68,021,22,19,43,279,23,18,36,065,22*79
$GPGSV,3,2,12,06,35,223,34,03,35,244,33,21,22,128,33,11,16,311,19*7C
$GPGSV,3,3,12,24,15,051,18,09,08,038,19,32,07,265,23,01,00,311,*73
$GPRMC,225048.000,A,3748.7292,N,12217.7292,W,2.71,116.57,181212,,,D*76
$GPVTG,116.57,T,,M,2.71,N,5.0,K,D*0D
$GPGGA,225049.000,3748.7289,N,12217.7283,W,2,06,1.5,0.1,M,-25.1,M,15.8,0000*7A
$GPGSA,A,3,19,14,22,18,06,21,,,,,,,2.8,1.5,2.4*3B
$GPRMC,225049.000,A,3748.7289,N,12217.7283,W,2.48,121.39,181212,,,D*7B
$GPVTG,121.39,T,,M,2.48,N,4.6,K,D*0C
$GPGGA,225050.000,3748.7279,N,12217.7273,W,2,06,1.5,0.4,M,-25.1,M,16.8,0000*74
$GPGSA,A,3,19,14,22,18,06,21,,,,,,,2.8,1.5,2.4*3B
$GPRMC,225050.000,A,3748.7279,N,12217.7273,W,2.78,124.90,181212,,,D*76
$GPVTG,124.90,T,,M,2.78,N,5.2,K,D*0C
$GPGGA,225051.000,3748.7273,N,12217.7267,W,2,06,1.5,-0.6,M,-25.1,M,17.8,0000*54
$GPGSA,A,3,19,14,22,18,06,21,,,,,,,2.8,1.5,2.4*3B
$GPRMC,225051.000,A,3748.7273,N,12217.7267,W,2.63,127.18,181212,,,D*71
$GPVTG,127.18,T,,M,2.63,N,4.9,K,D*0F
$GPGGA,225052.000,3748.7267,N,12217.7259,W,2,06,1.5,-0.6,M,-25.1,M,18.8,0000*50
$GPGSA,A,3,19,14,22,18,06,21,,,,,,,2.8,1.5,2.4*3B
$GPRMC,225052.000,A,3748.7267,N,12217.7259,W,2.94,118.51,181212,,,D*73
$GPVTG,118.51,T,,M,2.94,N,5.4,K,D*0A
$GPGGA,225053.000,3748.7266,N,12217.7250,W,2,06,1.5,-0.4,M,-25.1,M,1.8,0000*63
$GPGSA,A,3,19,14,22,18,06,21,,,,,,,2.8,1.5,2.4*3B
$GPGSV,3,1,12,14,76,164,25,22,68,021,23,19,43,279,29,18,36,065,22*73
$GPGSV,3,2,12,06,35,223,33,03,35,244,33,21,22,128,33,11,16,311,19*7B
$GPGSV,3,3,12,24,15,051,18,09,08,038,19,32,07,265,22,01,00,311,*72
$GPVTG,118.76,T,,M,2.98,N,5.5,K,D*02
$GPGGA,225054.000,3748.7268,N,12217.7243,W,2,06,1.5,-1.1,M,-25.1,M,1.8,0000*6C
$GPGSA,A,3,19,14,22,18,06,21,,,,,,,2.8,1.5,2.4*3B
$GPRMC,225054.000,A,3748.7268,N,12217.7243,W,2.63,116.03,181212,,,D*70
$GPVTG,116.03,T,,M,2.63,N,4.9,K,D*07
$GPGGA,225055.000,3748.7271,N,12217.7236,W,2,06,1.5,-2.0,M,-25.1,M,2.8,0000*66
$GPGSA,A,3,19,14,22,18,06,21,,,,,,,2.8,1.5,2.4*3B
$GPRMC,225055.000,A,3748.7271,N,12217.7236,W,2.62,112.23,181212,,,D*7C
$GPVTG,112.23,T,,M,2.62,N,4.9,K,D*00
$GPGGA,225056.000,3748.7270,N,12217.7227,W,2,07,1.4,-2.6,M,-25.1,M,3.8,0000*63
$GPGSA,A,3,19,14,22,18,06,03,21,,,,,,2.8,1.4,2.4*39
$GPRMC,225056.000,A,3748.7270,N,12217.7227,W,2.71,106.24,181212,,,D*7E
$GPVTG,106.24,T,,M,2.71,N,5.0,K,D*08
$GPGGA,225057.000,3748.7269,N,12217.7218,W,2,07,1.4,-3.0,M,-25.1,M,1.8,0000*63
$GPGSA,A,3,19,14,22,18,06,03,21,,,,,,2.8,1.4,2.4*39
$GPRMC,225057.000,A,3748.7269,N,12217.7218,W,2.28,105.87,181212,,,D*7D
$GPVTG,105.87,T,,M,2.28,N,4.2,K,D*0D
$GPGGA,225058.000,3748.7268,N,12217.7210,W,2,07,1.4,-3.4,M,-25.1,M,2.8,0000*62
$GPGSA,A,3,19,14,22,18,06,03,21,,,,,,2.8,1.4,2.4*39
$GPGSV,3,1,12,14,77,162,26,22,67,023,23,19,43,278,27,18,36,066,22*76
$GPGSV,3,2,12,06,35,222,34,03,35,244,33,21,22,128,33,11,16,311,19*7D
$GPGSV,3,3,12,24,15,050,18,09,08,037,19,32,08,265,23,01,01,311,*73
$GPRMC,225058.000,A,3748.7268,N,12217.7210,W,2.26,106.78,181212,,,D*76
$GPVTG,106.78,T,,M,2.26,N,4.2,K,D*00
$GPGGA,225059.000,3748.7266,N,12217.7201,W,2,07,1.4,-3.1,M,-25.1,M,1.8,0000*6B
$GPGSA,A,3,19,14,22,18,06,03,21,,,,,,2.8,1.4,2.4*39
$GPRMC,225059.000,A,3748.7266,N,12217.7201,W,2.57,108.89,181212,,,D*7F
$GPVTG,108.89,T,,M,2.57,N,4.8,K,D*0C
$GPGGA,225100.000,3748.7266,N,12217.7193,W,2,07,1.4,-3.6,M,-25.1,M,1.8,0000*69
$GPGSA,A,3,19,14,22,18,06,03,21,,,,,,2.8,1.4,2.4*39
$GPRMC,225100.000,A,3748.7266,N,12217.7193,W,2.63,109.35,181212,,,D*7B
$GPVTG,109.35,T,,M,2.63,N,4.9,K,D*0C
$GPGGA,225101.000,3748.7268,N,12217.7186,W,2,07,1.4,-4.8,M,-25.1,M,2.8,0000*68
$GPGSA,A,3,19,14,22,18,06,03,21,,,,,,2.8,1.4,2.4*39
$GPRMC,225101.000,A,3748.7268,N,12217.7186,W,2.44,102.34,181212,,,D*7F
$GPVTG,102.34,T,,M,2.44,N,4.5,K,D*0F
$GPGGA,225102.000,3748.7263,N,12217.7178,W,2,07,1.4,-4.8,M,-25.1,M,3.8,0000*60
$GPGSA,A,3,19,14,22,18,06,03,21,,,,,,2.8,1.4,2.4*39
$GPRMC,225102.000,A,3748.7263,N,12217.7178,W,2.84,94.25,181212,,,D*44
$GPVTG,94.25,T,,M,2.84,N,5.3,K,D*3A
$GPGGA,225103.000,3748.7269,N,12217.7167,W,2,07,1.4,-6.6,M,-25.1,M,4.8,0000*6E
$GPGSA,A,3,19,14,22,18,06,03,21,,,,,,2.8,1.4,2.4*39
$GPGSV,3,1,12,14,77,162,26,22,67,023,24,19,43,278,21,18,36,066,32*76
$GPGSV,3,2,12,06,35,222,30,03,35,244,26,21,22,128,29,11,16,311,20*7C
$GPGSV,3,3,12,24,15,050,26,09,08,037,19,32,08,265,21,01,01,311,*7C
$GPRMC,225103.000,A,3748.7269,N,12217.7167,W,2.54,72.19,181212,,,D*4B
$GPVTG,72.19,T,,M,2.54,N,4.7,K,D*35
$GPGGA,225104.000,3748.7278,N,12217.7159,W,2,07,1.4,-7.1,M,-25.1,M,5.8,0000*63
$GPGSA,A,3,19,14,22,18,06,03,21,,,,,,2.8,1.4,2.4*39
$GPRMC,225104.000,A,3748.7278,N,12217.7159,W,2.62,43.84,181212,,,D*42
$GPVTG,43.84,T,,M,2.62,N,4.9,K,D*38
$GPGGA,225105.000,3748.7284,N,12217.7150,W,2,07,1.4,-6.1,M,-25.1,M,1.8,0000*6D
$GPGSA,A,3,19,14,22,18,06,03,21,,,,,,2.8,1.4,2.4*39
$GPRMC,225105.000,A,3748.7284,N,12217.7150,W,2.42,42.76,181212,,,D*47
$GPVTG,42.76,T,,M,2.42,N,4.5,K,D*3A
$GPGGA,225106.000,3748.7290,N,12217.7143,W,2,05,1.7,-5.8,M,-25.1,M,1.8,0000*62
$GPGSA,A,3,19,14,22,18,21,,,,,,,,3.0,1.7,2.5*37
$GPRMC,225106.000,A,3748.7290,N,12217.7143,W,2.83,32.61,181212,,,D*4F
$GPVTG,32.61,T,,M,2.83,N,5.2,K,D*30
$GPGGA,225107.000,3748.7295,N,12217.7138,W,2,05,1.7,-5.2,M,-25.1,M,1.8,0000*60
$GPGSA,A,3,19,14,22,18,21,,,,,,,,3.0,1.7,2.5*37
$GPRMC,225107.000,A,3748.7295,N,12217.7138,W,2.51,18.40,181212,,,D*43
$GPVTG,18.40,T,,M,2.51,N,4.6,K,D*31
$GPGGA,225108.000,3748.7302,N,12217.7136,W,2,06,1.5,-5.9,M,-25.1,M,1.8,0000*64
$GPGSA,A,3,19,14,22,18,06,21,,,,,,,2.8,1.5,2.4*3B
$GPGSV,3,1,12,14,77,162,26,22,67,023,29,19,43,278,19,18,36,066,35*77
$GPGSV,3,2,12,06,35,222,16,03,35,244,17,21,22,128,31,11,16,311,19*79
$GPGSV,3,3,12,24,15,050,35,09,08,037,23,32,08,265,11,01,01,311,*74
$GPRMC,225108.000,A,3748.7302,N,12217.7136,W,2.33,16.62,181212,,,D*47
$GPVTG,16.62,T,,M,2.33,N,4.3,K,D*3E
$GPGGA,225109.000,3748.7314,N,12217.7136,W,2,07,1.4,-8.3,M,-25.1,M,2.8,0000*66
$GPGSA,A,3,19,14,22,18,06,03,21,,,,,,2.8,1.4,2.4*39
$GPRMC,225109.000,A,3748.7314,N,12217.7136,W,2.81,13.68,181212,,,D*47
$GPVTG,13.68,T,,M,2.81,N,5.2,K,D*38
$GPGGA,225110.000,3748.7324,N,12217.7134,W,2,07,1.4,-9.6,M,-25.1,M,3.8,0000*6A
$GPGSA,A,3,19,14,22,18,06,03,21,,,,,,2.8,1.4,2.4*39
$GPRMC,225110.000,A,3748.7324,N,12217.7134,W,2.81,11.33,181212,,,D*42
$GPVTG,11.33,T,,M,2.81,N,5.2,K,D*34
$GPGGA,225111.000,3748.7335,N,12217.7129,W,2,07,1.4,-10.5,M,-25.1,M,1.8,0000*5E
$GPGSA,A,3,19,14,22,18,06,03,21,,,,,,2.8,1.4,2.4*39
