$ADVER,3080,2.3
$GPRMC,192921.511,A,3748.7374,N,12217.9242,W,1.51,182.98,210611,,,A*76
$GPGGA,192922.511,3748.7370,N,12217.9217,W,1,04,5.2,10.2,M,-25.1,M,,0000*52
$GPGSA,A,3,06,10,07,08,,,,,,,,,7.2,5.2,5.0*3D
$GPRMC,192922.511,A,3748.7370,N,12217.9217,W,1.64,188.65,210611,,,A*7F
$GPVTG,188.65,T,,M,1.64,N,3.0,K,A*0F
$GPGGA,192923.511,3748.7363,N,12217.9202,W,1,04,5.2,8.2,M,-25.1,M,,0000*6C
$GPGSA,A,3,06,10,07,08,,,,,,,,,7.2,5.2,5.0*3D
$GPRMC,192923.511,A,3748.7363,N,12217.9202,W,1.86,182.54,210611,,,A*7C
$GPVTG,182.54,T,,M,1.86,N,3.4,K,A*0F
$GPGGA,192924.000,3748.7361,N,12217.9206,W,1,04,5.2,8.6,M,-25.1,M,,0000*6C
$GPGSA,A,3,06,10,07,08,,,,,,,,,7.2,5.2,5.0*3D
$GPRMC,192924.000,A,3748.7361,N,12217.9206,W,1.65,186.05,210611,,,A*75
$GPVTG,186.05,T,,M,1.65,N,3.1,K,A*07
$GPGGA,192925.000,3748.7356,N,12217.9218,W,1,04,5.2,9.5,M,-25.1,M,,0000*64
$GPGSA,A,3,06,10,07,08,,,,,,,,,7.2,5.2,5.0*3D
$GPGSV,3,1,12,07,53,285,33,10,41,292,36,08,29,264,39,06,19,075,24*7D
$GPGSV,3,2,12,13,75,029,25,23,53,107,26,16,30,045,23,03,25,090,18*72
$GPGSV,3,3,12,05,03,326,,28,01,208,,32,00,160,,04,00,255,*7A
$GPRMC,192925.000,A,3748.7356,N,12217.9218,W,1.82,185.80,210611,,,A*78
$GPVTG,185.80,T,,M,1.82,N,3.4,K,A*05
$GPGGA,192926.000,3748.7350,N,12217.9222,W,1,04,5.2,9.5,M,-25.1,M,,0000*68
$GPGSA,A,3,06,10,07,08,,,,,,,,,7.2,5.2,5.0*3D
$GPRMC,192926.000,A,3748.7350,N,12217.9222,W,1.86,181.07,210611,,,A*7B
$GPVTG,181.07,T,,M,1.86,N,3.4,K,A*0A
$GPGGA,192927.000,3748.7345,N,12217.9230,W,1,04,5.2,9.9,M,-25.1,M,,0000*62
$GPGSA,A,3,06,10,07,08,,,,,,,,,7.2,5.2,5.0*3D
$GPRMC,192927.000,A,3748.7345,N,12217.9230,W,1.83,184.94,210611,,,A*77
$GPVTG,184.94,T,,M,1.83,N,3.4,K,A*00
$GPGGA,192928.000,3748.7339,N,12217.9232,W,1,04,5.2,9.6,M,-25.1,M,,0000*6B
$GPGSA,A,3,06,10,07,08,,,,,,,,,7.2,5.2,5.0*3D
$GPRMC,192928.000,A,3748.7339,N,12217.9232,W,1.81,177.43,210611,,,A*75
$GPVTG,177.43,T,,M,1.81,N,3.4,K,A*04
$GPGGA,192929.000,3748.7334,N,12217.9234,W,1,04,5.2,9.2,M,-25.1,M,,0000*65
$GPGSA,A,3,06,10,07,08,,,,,,,,,7.2,5.2,5.0*3D
$GPRMC,192929.000,A,3748.7334,N,12217.9234,W,1.91,188.29,210611,,,A*72
$GPVTG,188.29,T,,M,1.91,N,3.5,K,A*08
$GPGGA,192930.000,3748.7329,N,12217.9242,W,1,04,5.2,9.6,M,-25.1,M,,0000*64
$GPGSA,A,3,06,10,07,08,,,,,,,,,7.2,5.2,5.0*3D
$GPGSV,3,1,12,07,53,285,35,10,41,292,37,08,29,264,39,06,19,075,24*7A
$GPGSV,3,2,12,13,75,029,26,23,53,107,26,16,30,045,22,03,25,090,22*79
$GPGSV,3,3,12,05,03,326,,28,01,208,,32,00,160,,04,00,255,*7A
$GPRMC,192930.000,A,3748.7329,N,12217.9242,W,1.78,208.98,210611,,,A*71
$GPVTG,208.98,T,,M,1.78,N,3.3,K,A*08
$GPGGA,192931.000,3748.7325,N,12217.9250,W,1,04,5.2,9.9,M,-25.1,M,,0000*65
$GPGSA,A,3,06,10,07,08,,,,,,,,,7.2,5.2,5.0*3D
$GPRMC,192931.000,A,3748.7325,N,12217.9250,W,1.69,210.03,210611,,,A*74
$GPVTG,210.03,T,,M,1.69,N,3.1,K,A*01
$GPGGA,192932.000,3748.7320,N,12217.9258,W,1,04,5.2,10.1,M,-25.1,M,,0000*5B
$GPGSA,A,3,06,10,07,08,,,,,,,,,7.2,5.2,5.0*3D
$GPRMC,192932.000,A,3748.7320,N,12217.9258,W,1.61,198.72,210611,,,A*77
$GPVTG,198.72,T,,M,1.61,N,3.0,K,A*0D
$GPGGA,192933.000,3748.7315,N,12217.9262,W,1,04,5.2,10.1,M,-25.1,M,,0000*55
$GPGSA,A,3,06,10,07,08,,,,,,,,,7.2,5.2,5.0*3D
$GPRMC,192933.000,A,3748.7315,N,12217.9262,W,1.80,182.46,210611,,,A*7A
$GPVTG,182.46,T,,M,1.80,N,3.3,K,A*0D
$GPGGA,192934.000,3748.7309,N,12217.9264,W,1,04,5.2,10.0,M,-25.1,M,,0000*58
$GPGSA,A,3,06,10,07,08,,,,,,,,,7.3,5.2,5.0*3C
$GPRMC,192934.000,A,3748.7309,N,12217.9264,W,2.03,173.10,210611,,,A*73
$GPVTG,173.10,T,,M,2.03,N,3.8,K,A*03
$GPGGA,192935.000,3748.7303,N,12217.9266,W,1,04,5.2,9.7,M,-25.1,M,,0000*6E
$GPGSA,A,3,06,10,07,08,,,,,,,,,7.3,5.2,5.0*3C
$GPGSV,3,1,12,07,53,285,36,10,41,292,37,08,29,264,39,06,19,075,24*79
$GPGSV,3,2,12,13,75,029,26,23,53,107,26,16,30,045,21,03,25,090,23*7B
$GPGSV,3,3,12,05,03,326,,28,01,208,,32,00,160,,04,00,255,*7A
$GPVTG,187.74,T,,M,1.88,N,3.5,K,A*07
$GPGGA,192936.000,3748.7298,N,12217.9271,W,1,04,5.2,9.7,M,-25.1,M,,0000*68
$GPGSA,A,3,06,10,07,08,,,,,,,,,7.3,5.2,5.0*3C
$GPRMC,192936.000,A,3748.7298,N,12217.9271,W,1.80,189.66,210611,,,A*70
$GPVTG,189.66,T,,M,1.80,N,3.3,K,A*04
$GPGGA,192937.000,3748.7293,N,12217.9278,W,1,04,5.2,9.9,M,-25.1,M,,0000*65
$GPGSA,A,3,06,10,07,08,,,,,,,,,7.3,5.2,5.0*3C
$GPRMC,192937.000,A,3748.7293,N,12217.9278,W,1.75,188.27,210611,,,A*7D
$GPVTG,188.27,T,,M,1.75,N,3.2,K,A*0B
$GPGGA,192938.000,3748.7288,N,12217.9285,W,1,04,5.2,10.4,M,-25.1,M,,0000*57
$GPGSA,A,3,06,10,07,08,,,,,,,,,7.3,5.2,5.0*3C
$GPRMC,192938.000,A,3748.7288,N,12217.9285,W,1.82,197.04,210611,,,A*7D
$GPVTG,197.04,T,,M,1.82,N,3.4,K,A*0A
$GPGGA,192939.000,3748.7282,N,12217.9290,W,1,04,5.2,10.5,M,-25.1,M,,0000*59
$GPGSA,A,3,06,10,07,08,,,,,,,,,7.3,5.2,5.0*3C
$GPRMC,192939.000,A,3748.7282,N,12217.9290,W,1.89,185.02,210611,,,A*7C
$GPVTG,185.02,T,,M,1.89,N,3.5,K,A*05
$GPGGA,192940.000,3748.7276,N,12217.9292,W,1,04,5.2,10.4,M,-25.1,M,,0000*5F
$GPGSA,A,3,06,10,07,08,,,,,,,,,7.3,5.2,5.1*3D
$GPGSV,3,1,12,07,53,285,36,10,41,292,37,08,29,264,39,06,19,075,21*7C
$GPGSV,3,2,12,13,75,029,25,23,53,107,26,16,30,045,21,03,25,090,23*78
$GPGSV,3,3,12,05,03,326,,28,01,208,,32,00,160,,04,00,255,*7A
$GPRMC,192940.000,A,3748.7276,N,12217.9292,W,1.92,183.44,210611,,,A*75
$GPVTG,183.44,T,,M,1.92,N,3.6,K,A*08
$GPGGA,192941.000,3748.7273,N,12217.9295,W,1,04,5.2,10.6,M,-25.1,M,,0000*5E
$GPGSA,A,3,06,10,07,08,,,,,,,,,7.3,5.2,5.1*3D
$GPRMC,192941.000,A,3748.7273,N,12217.9295,W,1.86,181.80,210611,,,A*79
$GPVTG,181.80,T,,M,1.86,N,3.4,K,A*05
$GPGGA,192942.000,3748.7265,N,12217.9297,W,1,04,5.2,10.3,M,-25.1,M,,0000*5D
$GPGSA,A,3,06,10,07,08,,,,,,,,,7.3,5.2,5.1*3D
$GPRMC,192942.000,A,3748.7265,N,12217.9297,W,2.17,178.85,210611,,,A*77
$GPVTG,178.85,T,,M,2.17,N,4.0,K,A*0E
$GPGGA,192943.000,3748.7255,N,12217.9298,W,1,04,5.2,11.2,M,-25.1,M,,0000*50
$GPGSA,A,3,06,10,07,08,,,,,,,,,7.3,5.2,5.1*3D
$GPRMC,192943.000,A,3748.7255,N,12217.9298,W,2.16,167.49,210611,,,A*75
$GPVTG,167.49,T,,M,2.16,N,4.0,K,A*01
$GPGGA,192944.000,3748.7249,N,12217.9302,W,1,04,5.3,11.2,M,-25.1,M,,0000*59
$GPGSA,A,3,06,10,07,08,,,,,,,,,7.3,5.3,5.1*3C
$GPRMC,192944.000,A,3748.7249,N,12217.9302,W,1.98,186.04,210611,,,A*7E
$GPVTG,186.04,T,,M,1.98,N,3.7,K,A*02
$GPGGA,192945.000,3748.7244,N,12217.9309,W,1,04,5.3,11.6,M,-25.1,M,,0000*5A
$GPGSA,A,3,06,10,07,08,,,,,,,,,7.3,5.3,5.1*3C
$GPGSV,3,1,12,07,53,285,33,10,41,292,37,08,29,264,37,06,19,075,21*77
$GPGSV,3,2,12,13,75,029,25,23,53,107,26,16,30,045,21,03,25,090,23*78
$GPGSV,3,3,12,05,03,326,,28,01,208,,32,00,160,,04,00,255,*7A
$GPRMC,192945.000,A,3748.7244,N,12217.9309,W,2.17,209.13,210611,,,A*7F
$GPVTG,209.13,T,,M,2.17,N,4.0,K,A*04
$GPGGA,192946.000,3748.7237,N,12217.9315,W,1,04,5.3,12.1,M,-25.1,M,,0000*54
$GPGSA,A,3,06,10,07,08,,,,,,,,,7.3,5.3,5.1*3C
$GPRMC,192946.000,A,3748.7237,N,12217.9315,W,1.94,200.86,210611,,,A*78
$GPVTG,200.86,T,,M,1.94,N,3.6,K,A*08
$GPGGA,192947.000,3748.7230,N,12217.9319,W,1,04,5.3,12.5,M,-25.1,M,,0000*5A
$GPGSA,A,3,06,10,07,08,,,,,,,,,7.3,5.3,5.1*3C
$GPRMC,192947.000,A,3748.7230,N,12217.9319,W,1.89,188.88,210611,,,A*73
$GPVTG,188.88,T,,M,1.89,N,3.5,K,A*0A
$GPGGA,192948.000,3748.7223,N,12217.9326,W,1,04,5.3,13.2,M,-25.1,M,,0000*5D
$GPGSA,A,3,06,10,07,08,,,,,,,,,7.3,5.3,5.1*3C
$GPRMC,192948.000,A,3748.7223,N,12217.9326,W,2.11,189.68,210611,,,A*7F
$GPVTG,189.68,T,,M,2.11,N,3.9,K,A*0B
$GPGGA,192949.000,3748.7217,N,12217.9330,W,1,04,5.3,13.6,M,-25.1,M,,0000*58
$GPGSA,A,3,06,10,07,08,,,,,,,,,7.3,5.3,5.1*3C
$GPRMC,192949.000,A,3748.7217,N,12217.9330,W,2.07,185.41,210611,,,A*7E
$GPVTG,185.41,T,,M,2.07,N,3.8,K,A*0A
$GPGGA,192950.000,3748.7210,N,12217.9336,W,1,04,5.3,14.2,M,-25.1,M,,0000*52
$GPGSA,A,3,06,10,07,08,,,,,,,,,7.3,5.3,5.1*3C
$GPGSV,3,1,12,07,53,285,35,10,41,292,37,08,29,264,37,06,19,075,21*71
$GPGSV,3,2,12,13,75,029,25,23,53,107,26,16,30,045,30,03,25,090,22*79
$GPGSV,3,3,12,05,03,326,,28,01,208,20,32,00,160,,04,00,255,*78
$GPRMC,192950.000,A,3748.7210,N,12217.9336,W,2.19,180.88,210611,,,A*78
$GPGGA,192951.000,3748.7202,N,12217.9338,W,1,04,5.3,14.5,M,-25.1,M,,0000*59
$GPGSA,A,3,06,10,07,08,,,,,,,,,7.3,5.3,5.1*3C
$GPRMC,192951.000,A,3748.7202,N,12217.9338,W,2.23,181.65,210611,,,A*7F
$GPVTG,181.65,T,,M,2.23,N,4.1,K,A*00
$GPGGA,192952.000,3748.7195,N,12217.9346,W,1,04,5.3,15.3,M,-25.1,M,,0000*59
$GPGSA,A,3,06,10,07,08,,,,,,,,,7.3,5.3,5.1*3C
$GPRMC,192952.000,A,3748.7195,N,12217.9346,W,2.48,202.18,210611,,,A*77
$GPVTG,202.18,T,,M,2.48,N,4.6,K,A*08
$GPGGA,192953.000,3748.7188,N,12217.9354,W,1,04,5.3,16.0,M,-25.1,M,,0000*57
$GPGSA,A,3,06,10,07,08,,,,,,,,,7.3,5.3,5.1*3C
$GPRMC,192953.000,A,3748.7188,N,12217.9354,W,2.41,210.16,210611,,,A*7D
$GPVTG,210.16,T,,M,2.41,N,4.5,K,A*0F
$GPGGA,192954.000,3748.7181,N,12217.9361,W,1,04,5.3,16.6,M,-25.1,M,,0000*59
$GPGSA,A,3,06,10,07,08,,,,,,,,,7.3,5.3,5.1*3C
$GPRMC,192954.000,A,3748.7181,N,12217.9361,W,2.10,204.12,210611,,,A*70
$GPVTG,204.12,T,,M,2.10,N,3.9,K,A*01
$GPGGA,192955.000,3748.7174,N,12217.9368,W,1,04,5.3,17.2,M,-25.1,M,,0000*5E
$GPGSA,A,3,06,10,07,08,,,,,,,,,7.3,5.3,5.1*3C
$GPGSV,3,1,12,07,53,285,36,10,41,292,36,08,29,264,38,06,19,075,21*7C
$GPGSV,3,2,12,13,75,029,25,23,53,107,25,16,30,045,18,03,25,090,22*70
$GPGSV,3,3,12,05,03,326,,28,01,208,19,32,00,160,,04,00,255,*72
$GPRMC,192955.000,A,3748.7174,N,12217.9368,W,2.10,195.02,210611,,,A*78
$GPVTG,195.02,T,,M,2.10,N,3.9,K,A*0B
$GPGGA,192956.000,3748.7167,N,12217.9374,W,1,04,5.3,17.7,M,-25.1,M,,0000*57
$GPGSA,A,3,06,10,07,08,,,,,,,,,7.3,5.3,5.1*3C
$GPRMC,192956.000,A,3748.7167,N,12217.9374,W,2.37,204.22,210611,,,A*78
$GPVTG,204.22,T,,M,2.37,N,4.4,K,A*0D
$GPGGA,192957.000,3748.7160,N,12217.9378,W,1,04,5.3,18.1,M,-25.1,M,,0000*54
$GPGSA,A,3,06,10,07,08,,,,,,,,,7.3,5.3,5.1*3C
$GPRMC,192957.000,A,3748.7160,N,12217.9378,W,2.15,196.43,210611,,,A*7D
$GPVTG,196.43,T,,M,2.15,N,4.0,K,A*06
$GPGGA,192958.000,3748.7153,N,12217.9380,W,1,04,5.3,18.3,M,-25.1,M,,0000*5E
$GPGSA,A,3,06,10,07,08,,,,,,,,,7.3,5.3,5.1*3C
$GPRMC,192958.000,A,3748.7153,N,12217.9380,W,2.18,195.87,210611,,,A*73
$GPVTG,195.87,T,,M,2.18,N,4.0,K,A*00
$GPGGA,192959.000,3748.7145,N,12217.9383,W,1,04,5.3,18.5,M,-25.1,M,,0000*5D
$GPGSA,A,3,06,10,07,08,,,,,,,,,7.3,5.3,5.1*3C
$GPRMC,192959.000,A,3748.7145,N,12217.9383,W,2.25,187.24,210611,,,A*72
$GPVTG,187.24,T,,M,2.25,N,4.2,K,A*06
$GPGGA,193000.000,3748.7138,N,12217.9385,W,1,04,5.3,18.5,M,-25.1,M,,0000*55
$GPGSA,A,3,06,10,07,08,,,,,,,,,7.4,5.3,5.1*3B
$GPGSV,3,1,12,07,53,285,35,10,41,292,36,08,29,264,38,06,19,075,20*7E
$GPGSV,3,2,12,13,75,029,24,23,53,107,24,16,30,045,18,03,25,090,23*71
$GPGSV,3,3,12,05,03,326,,28,01,208,19,32,00,160,,04,00,255,*72
$GPRMC,193000.000,A,3748.7138,N,12217.9385,W,2.56,182.47,210611,,,A*7E
$GPVTG,182.47,T,,M,2.56,N,4.7,K,A*07
$GPGGA,193001.000,3748.7130,N,12217.9388,W,1,04,5.3,18.6,M,-25.1,M,,0000*52
$GPGSA,A,3,06,10,07,08,,,,,,,,,7.4,5.3,5.1*3B
$GPRMC,193001.000,A,3748.7130,N,12217.9388,W,2.78,177.40,210611,,,A*7B
$GPVTG,177.40,T,,M,2.78,N,5.1,K,A*01
$GPGGA,193002.000,3748.7121,N,12217.9386,W,1,04,5.3,18.2,M,-25.1,M,,0000*5B
$GPGSA,A,3,06,10,07,08,,,,,,,,,7.4,5.3,5.1*3B
$GPRMC,193002.000,A,3748.7121,N,12217.9386,W,2.78,174.30,210611,,,A*72
$GPVTG,174.30,T,,M,2.78,N,5.2,K,A*06
$GPGGA,193003.000,3748.7113,N,12217.9382,W,1,04,5.3,17.7,M,-25.1,M,,0000*55
$GPGSA,A,3,06,10,07,08,,,,,,,,,7.4,5.3,5.1*3B
$GPRMC,193003.000,A,3748.7113,N,12217.9382,W,2.65,181.49,210611,,,A*7E
$GPVTG,181.49,T,,M,2.65,N,4.9,K,A*04
$GPGGA,193004.000,3748.7107,N,12217.9389,W,1,04,5.3,18.2,M,-25.1,M,,0000*56
$GPGSA,A,3,06,10,07,08,,,,,,,,,7.4,5.3,5.1*3B
$GPRMC,193004.000,A,3748.7107,N,12217.9389,W,2.22,202.94,210611,,,A*7C
$GPVTG,202.94,T,,M,2.22,N,4.1,K,A*07
$GPGGA,193005.000,3748.7100,N,12217.9388,W,1,04,5.3,17.7,M,-25.1,M,,0000*5B
$GPGSA,A,3,06,10,07,08,,,,,,,,,7.4,5.3,5.1*3B
$GPGSV,3,1,12,07,53,285,36,10,41,292,37,08,29,264,39,06,19,075,22*7F
$GPGSV,3,2,12,13,75,029,24,23,53,107,23,16,30,045,18,03,25,090,22*77
$GPGSV,3,3,12,05,03,326,,28,01,208,18,32,00,160,,04,00,255,*73
$GPRMC,193005.000,A,3748.7100,N,12217.9388,W,2.14,198.39,210611,,,A*79
$GPGGA,193006.000,3748.7094,N,12217.9390,W,1,04,5.3,17.5,M,-25.1,M,,0000*5F
$GPGSA,A,3,06,10,07,08,,,,,,,,,7.4,5.3,5.1*3B
$GPRMC,193006.000,A,3748.7094,N,12217.9390,W,2.12,189.42,210611,,,A*75
$GPVTG,189.42,T,,M,2.12,N,3.9,K,A*00
$GPGGA,193007.000,3748.7087,N,12217.9391,W,1,04,5.3,17.3,M,-25.1,M,,0000*5B
$GPGSA,A,3,06,10,07,08,,,,,,,,,7.4,5.3,5.1*3B
$GPRMC,193007.000,A,3748.7087,N,12217.9391,W,2.18,203.17,210611,,,A*7C
$GPVTG,203.17,T,,M,2.18,N,4.0,K,A*05
$GPGGA,193008.000,3748.7080,N,12217.9388,W,1,04,5.4,16.7,M,-25.1,M,,0000*59
$GPGSA,A,3,06,10,07,08,,,,,,,,,7.4,5.4,5.1*3C
$GPRMC,193008.000,A,3748.7080,N,12217.9388,W,2.05,192.76,210611,,,A*7C
$GPVTG,192.76,T,,M,2.05,N,3.8,K,A*0A
$GPGGA,193009.000,3748.7074,N,12217.9393,W,1,04,5.4,16.8,M,-25.1,M,,0000*56
$GPGSA,A,3,06,10,07,08,,,,,,,,,7.4,5.4,5.1*3C
$GPRMC,193009.000,A,3748.7074,N,12217.9393,W,2.15,185.25,210611,,,A*7D
$GPVTG,185.25,T,,M,2.15,N,4.0,K,A*04
$GPGGA,193010.000,3748.7068,N,12217.9396,W,1,04,5.4,16.8,M,-25.1,M,,0000*56
$GPGSA,A,3,06,10,07,08,,,,,,,,,7.4,5.4,5.1*3C
$GPGSV,3,1,12,07,53,285,36,10,41,292,37,08,29,264,39,06,19,075,21*7C
$GPGSV,3,2,12,13,75,029,25,23,53,107,24,16,30,045,19,03,25,090,19*78
$GPGSV,3,3,12,05,03,326,,28,01,208,18,32,00,160,,04,00,255,*73
$GPRMC,193010.000,A,3748.7068,N,12217.9396,W,2.08,189.21,210611,,,A*79
$GPVTG,189.21,T,,M,2.08,N,3.8,K,A*0F
$GPGGA,193011.000,3748.7062,N,12217.9398,W,1,04,5.4,16.8,M,-25.1,M,,0000*53
$GPGSA,A,3,06,10,07,08,,,,,,,,,7.4,5.4,5.1*3C
$GPRMC,193011.000,A,3748.7062,N,12217.9398,W,2.22,201.51,210611,,,A*70
$GPVTG,201.51,T,,M,2.22,N,4.1,K,A*0D
$GPGGA,193012.000,3748.7054,N,12217.9398,W,1,04,5.4,16.4,M,-25.1,M,,0000*59
$GPGSA,A,3,06,10,07,08,,,,,,,,,7.4,5.4,5.1*3C
$GPRMC,193012.000,A,3748.7054,N,12217.9398,W,2.24,178.99,210611,,,A*79
$GPVTG,178.99,T,,M,2.24,N,4.1,K,A*02
$GPGGA,193013.000,3748.7047,N,12217.9392,W,1,04,5.4,15.7,M,-25.1,M,,0000*50
$GPGSA,A,3,06,10,07,08,,,,,,,,,7.4,5.4,5.1*3C
$GPRMC,193013.000,A,3748.7047,N,12217.9392,W,2.41,161.07,210611,,,A*7C
$GPVTG,161.07,T,,M,2.41,N,4.5,K,A*0A
$GPGGA,193014.000,3748.7040,N,12217.9386,W,1,04,5.4,14.9,M,-25.1,M,,0000*5A
$GPGSA,A,3,06,10,07,08,,,,,,,,,7.4,5.4,5.1*3C
$GPRMC,193014.000,A,3748.7040,N,12217.9386,W,2.50,157.71,210611,,,A*7D
$GPVTG,157.71,T,,M,2.50,N,4.6,K,A*0D
$GPGGA,193015.000,3748.7037,N,12217.9387,W,1,04,5.4,14.6,M,-25.1,M,,0000*55
$GPGSA,A,3,06,10,07,08,,,,,,,,,7.4,5.4,5.1*3C
$GPGSV,3,1,12,07,53,285,36,10,41,292,37,08,29,264,39,06,19,075,22*7F
$GPGSV,3,2,12,13,75,029,25,23,53,107,15,16,30,045,21,03,25,090,21*7A
$GPGSV,3,3,12,05,03,326,,28,01,208,16,32,00,160,,04,00,255,*7D
$GPRMC,193015.000,A,3748.7037,N,12217.9387,W,1.94,158.67,210611,,,A*7E
$GPVTG,158.67,T,,M,1.94,N,3.6,K,A*09
$GPGGA,193016.000,3748.7035,N,12217.9392,W,1,04,5.4,14.5,M,-25.1,M,,0000*53
$GPGSA,A,3,06,10,07,08,,,,,,,,,7.4,5.4,5.1*3C
$GPRMC,193016.000,A,3748.7035,N,12217.9392,W,1.33,188.62,210611,,,A*7E
$GPVTG,188.62,T,,M,1.33,N,2.5,K,A*0E
$GPGGA,193017.000,3748.7034,N,12217.9399,W,1,04,5.4,14.5,M,-25.1,M,,0000*58
$GPGSA,A,3,06,10,07,08,,,,,,,,,7.4,5.4,5.1*3C
$GPRMC,193017.000,A,3748.7034,N,12217.9399,W,1.35,236.18,210611,,,A*78
$GPVTG,236.18,T,,M,1.35,N,2.5,K,A*03
$GPGGA,193018.000,3748.7031,N,12217.9401,W,1,04,5.4,13.8,M,-25.1,M,,0000*5E
$GPGSA,A,3,06,10,07,08,,,,,,,,,7.4,5.4,5.1*3C
$GPRMC,193018.000,A,3748.7031,N,12217.9401,W,1.08,208.79,210611,,,A*70
$GPVTG,208.79,T,,M,1.08,N,2.0,K,A*02
$GPGGA,193019.000,3748.7028,N,12217.9404,W,1,04,5.4,13.4,M,-25.1,M,,0000*5E
$GPGSA,A,3,06,10,07,08,,,,,,,,,7.4,5.4,5.1*3C
$GPRMC,193019.000,A,3748.7028,N,12217.9404,W,1.28,183.74,210611,,,A*73
$GPVTG,183.74,T,,M,1.28,N,2.4,K,A*09
$GPGGA,193020.000,3748.7025,N,12217.9410,W,1,04,5.4,13.3,M,-25.1,M,,0000*5B
$GPGSA,A,3,06,10,07,08,,,,,,,,,7.4,5.4,5.1*3C
$GPGSV,3,1,12,07,53,285,37,10,41,292,37,08,29,264,39,06,19,075,21*7D
$GPGSV,3,2,12,13,75,029,26,23,53,107,20,16,30,045,30,03,25,090,21*7F
$GPGSV,3,3,12,05,03,326,,28,01,208,16,32,00,160,,04,00,255,*7D
$GPRMC,193020.000,A,3748.7025,N,12217.9410,W,1.69,212.24,210611,,,A*7A
$GPGGA,193021.000,3748.7022,N,12217.9416,W,1,04,5.4,13.0,M,-25.1,M,,0000*58
$GPGSA,A,3,06,10,07,08,,,,,,,,,7.4,5.4,5.1*3C
$GPRMC,193021.000,A,3748.7022,N,12217.9416,W,1.61,206.91,210611,,,A*79
$GPVTG,206.91,T,,M,1.61,N,3.0,K,A*04
$GPGGA,193022.000,3748.7018,N,12217.9422,W,1,04,5.4,13.0,M,-25.1,M,,0000*55
$GPGSA,A,3,06,10,07,08,,,,,,,,,7.4,5.4,5.1*3C
$GPRMC,193022.000,A,3748.7018,N,12217.9422,W,1.62,201.53,210611,,,A*7E
$GPVTG,201.53,T,,M,1.62,N,3.0,K,A*0E
$GPGGA,193023.000,3748.7014,N,12217.9427,W,1,04,5.4,12.8,M,-25.1,M,,0000*54
$GPGSA,A,3,06,10,07,08,,,,,,,,,7.4,5.4,5.1*3C
$GPRMC,193023.000,A,3748.7014,N,12217.9427,W,1.79,207.74,210611,,,A*7F
$GPVTG,207.74,T,,M,1.79,N,3.3,K,A*04
$GPGGA,193024.000,3748.7009,N,12217.9431,W,1,04,5.4,12.6,M,-25.1,M,,0000*56
$GPGSA,A,3,06,10,07,08,,,,,,,,,7.4,5.4,5.1*3C
$GPRMC,193024.000,A,3748.7009,N,12217.9431,W,1.76,206.24,210611,,,A*78
$GPVTG,206.24,T,,M,1.76,N,3.3,K,A*0F
$GPGGA,193025.000,3748.7004,N,12217.9435,W,1,04,5.4,12.4,M,-25.1,M,,0000*5C
$GPGSA,A,3,06,10,07,08,,,,,,,,,7.5,5.4,5.1*3D
$GPGSV,3,1,12,07,53,285,37,10,41,292,38,08,29,264,38,06,19,075,20*72
$GPGSV,3,2,12,13,75,029,26,23,53,107,27,16,30,045,16,03,25,090,20*7D
$GPGSV,3,3,12,05,03,326,,28,01,208,,32,00,160,,04,00,255,*7A
$GPRMC,193025.000,A,3748.7004,N,12217.9435,W,1.82,210.34,210611,,,A*7D
$GPVTG,210.34,T,,M,1.82,N,3.4,K,A*05
$GPGGA,193026.000,3748.7000,N,12217.9442,W,1,04,5.4,12.4,M,-25.1,M,,0000*5B
$GPGSA,A,3,06,10,07,08,,,,,,,,,7.5,5.4,5.1*3D
$GPRMC,193026.000,A,3748.7000,N,12217.9442,W,1.81,216.76,210611,,,A*79
$GPVTG,216.76,T,,M,1.81,N,3.3,K,A*01
$GPGGA,193027.000,3748.6995,N,12217.9445,W,1,03,8.9,12.4,M,-25.1,M,,0000*5E
$GPGSA,A,2,10,07,08,,,,,,,,,,8.9,8.9,1.0*3C
$GPRMC,193027.000,A,3748.6995,N,12217.9445,W,1.78,215.63,210611,,,A*7A
$GPVTG,215.63,T,,M,1.78,N,3.3,K,N*0F
$GPGGA,193028.000,3748.6989,N,12217.9448,W,1,03,8.9,12.4,M,-25.1,M,,0000*51
$GPGSA,A,2,10,07,08,,,,,,,,,,8.9,8.9,1.0*3C
$GPRMC,193028.000,A,3748.6989,N,12217.9448,W,1.65,212.73,210611,,,A*7F
$GPVTG,212.73,T,,M,1.65,N,3.1,K,N*07
$GPGGA,193029.000,3748.6985,N,12217.9452,W,1,03,8.9,12.3,M,-25.1,M,,0000*50
$GPGSA,A,2,10,07,08,,,,,,,,,,8.9,8.9,1.0*3C
$GPRMC,193029.000,A,3748.6985,N,12217.9452,W,1.57,214.89,210611,,,A*7B
$GPVTG,214.89,T,,M,1.57,N,2.9,K,N*0C
$GPGGA,193030.000,3748.6980,N,12217.9457,W,1,04,5.4,12.4,M,-25.1,M,,0000*58
$GPGSA,A,3,06,10,07,08,,,,,,,,,7.5,5.4,5.1*3D
$GPGSV,3,1,12,07,53,285,36,10,41,292,38,08,29,264,39,06,19,075,12*73
$GPGSV,3,2,12,13,75,029,25,23,53,107,26,16,30,045,18,03,25,090,*73
$GPGSV,3,3,12,05,03,326,,28,01,208,,32,00,160,,04,00,255,*7A
$GPRMC,193030.000,A,3748.6980,N,12217.9457,W,1.55,205.13,210611,,,A*72
$GPVTG,205.13,T,,M,1.55,N,2.9,K,A*02
$GPGGA,193031.000,3748.6976,N,12217.9461,W,1,04,5.5,12.3,M,-25.1,M,,0000*53
$GPGSA,A,3,06,10,07,08,,,,,,,,,7.5,5.5,5.1*3C
$GPRMC,193031.000,A,3748.6976,N,12217.9461,W,1.72,188.64,210611,,,A*7C
$GPVTG,188.64,T,,M,1.72,N,3.2,K,A*0B
$GPGGA,193032.000,3748.6971,N,12217.9466,W,1,04,5.5,12.3,M,-25.1,M,,0000*50
$GPGSA,A,3,06,10,07,08,,,,,,,,,7.5,5.5,5.1*3C
$GPRMC,193032.000,A,3748.6971,N,12217.9466,W,1.74,177.96,210611,,,A*74
$GPVTG,177.96,T,,M,1.74,N,3.2,K,A*00
$GPGGA,193033.000,3748.6965,N,12217.9462,W,1,04,5.5,11.8,M,-25.1,M,,0000*58
$GPGSA,A,3,06,10,07,08,,,,,,,,,7.5,5.5,5.1*3C
$GPRMC,193033.000,A,3748.6965,N,12217.9462,W,2.19,160.38,210611,,,A*7E
$GPVTG,160.38,T,,M,2.19,N,4.1,K,A*0E
$GPGGA,193034.000,3748.6958,N,12217.9460,W,1,04,5.5,11.5,M,-25.1,M,,0000*5E
$GPGSA,A,3,06,10,07,08,,,,,,,,,7.5,5.5,5.1*3C
$GPRMC,193034.000,A,3748.6958,N,12217.9460,W,2.54,152.25,210611,,,A*71
$GPVTG,152.25,T,,M,2.54,N,4.7,K,A*0C
$GPGGA,193035.000,3748.6963,N,12217.9467,W,1,04,5.5,10.2,M,-25.1,M,,0000*56
$GPGSA,A,3,06,10,07,08,,,,,,,,,7.5,5.5,5.1*3C
$GPGSV,3,1,12,07,53,285,28,10,41,292,26,08,29,264,25,06,19,075,15*79
$GPGSV,3,2,12,13,75,029,25,23,53,107,26,16,30,045,19,03,25,090,*72
$GPGSV,3,3,12,05,03,326,,28,01,208,,32,00,160,,04,00,255,*7A
$GPRMC,193035.000,A,3748.6963,N,12217.9467,W,2.05,139.49,210611,,,A*7C
$GPVTG,139.49,T,,M,2.05,N,3.8,K,A*07
$GPGGA,193036.000,3748.6952,N,12217.9463,W,1,03,8.9,9.4,M,-25.1,M,,0000*6B
$GPGSA,A,2,10,07,08,,,,,,,,,,9.0,8.9,1.0*34
$GPRMC,193036.000,A,3748.6952,N,12217.9463,W,3.20,159.78,210611,,,A*7B
$GPVTG,159.78,T,,M,3.20,N,5.9,K,A*02
$GPGGA,193037.000,3748.6947,N,12217.9459,W,1,03,8.9,8.6,M,-25.1,M,,0000*64
$GPGSA,A,2,10,07,08,,,,,,,,,,9.0,8.9,1.0*34
$GPRMC,193037.000,A,3748.6947,N,12217.9459,W,3.15,150.62,210611,,,A*73
$GPVTG,150.62,T,,M,3.15,N,5.8,K,A*07
$GPGGA,193038.000,3748.6943,N,12217.9454,W,1,03,8.9,7.7,M,-25.1,M,,0000*6C
$GPGSA,A,2,10,07,08,,,,,,,,,,9.0,8.9,1.0*34
$GPRMC,193038.000,A,3748.6943,N,12217.9454,W,3.10,144.30,210611,,,A*72
$GPVTG,144.30,T,,M,3.10,N,5.7,K,A*0F
$GPGGA,193039.000,3748.6943,N,12217.9461,W,1,04,5.5,7.5,M,-25.1,M,,0000*6F
$GPGSA,A,3,06,10,07,08,,,,,,,,,7.5,5.5,5.1*3C
$GPRMC,193039.000,A,3748.6943,N,12217.9461,W,3.12,147.72,210611,,,A*72
$GPVTG,147.72,T,,M,3.12,N,5.8,K,A*07
$GPGGA,193040.000,3748.6937,N,12217.9456,W,1,03,8.9,6.7,M,-25.1,M,,0000*63
$GPGSA,A,2,10,07,08,,,,,,,,,,9.0,8.9,1.0*34
$GPGSV,3,1,12,07,53,285,36,10,41,292,38,08,29,264,41,06,19,075,15*7B
$GPGSV,3,2,12,13,75,029,25,23,53,107,26,16,30,045,20,03,25,090,*78
$GPGSV,3,3,12,05,03,326,,28,01,208,,32,00,160,,04,00,255,*7A
$GPRMC,193040.000,A,3748.6937,N,12217.9456,W,3.20,146.93,210611,,,A*74
$GPVTG,146.93,T,,M,3.20,N,5.9,K,A*09
$GPGGA,193041.000,3748.6930,N,12217.9451,W,1,03,8.9,5.8,M,-25.1,M,,0000*6E
$GPGSA,A,2,10,07,08,,,,,,,,,,9.0,8.9,1.0*34
$GPRMC,193041.000,A,3748.6930,N,12217.9451,W,3.27,151.59,210611,,,A*72
$GPVTG,151.59,T,,M,3.27,N,6.1,K,A*05
$GPGGA,193042.000,3748.6924,N,12217.9447,W,1,03,8.9,5.0,M,-25.1,M,,0000*67
$GPGSA,A,2,10,07,08,,,,,,,,,,9.0,8.9,1.0*34
$GPRMC,193042.000,A,3748.6924,N,12217.9447,W,2.83,155.86,210611,,,A*7A
$GPVTG,155.86,T,,M,2.83,N,5.2,K,A*0C
$GPGGA,193043.000,3748.6917,N,12217.9444,W,1,03,8.9,4.4,M,-25.1,M,,0000*60
$GPGSA,A,2,10,07,08,,,,,,,,,,9.0,8.9,1.0*34
$GPRMC,193043.000,A,3748.6917,N,12217.9444,W,2.58,156.22,210611,,,A*73
$GPVTG,156.22,T,,M,2.58,N,4.8,K,A*0C
$GPGGA,193044.000,3748.6911,N,12217.9441,W,1,03,8.9,3.7,M,-25.1,M,,0000*60
$GPGSA,A,2,10,07,08,,,,,,,,,,9.0,8.9,1.0*34
$GPRMC,193044.000,A,3748.6911,N,12217.9441,W,2.35,162.84,210611,,,A*77
$GPVTG,162.84,T,,M,2.35,N,4.4,K,A*00
$GPGGA,193045.000,3748.6905,N,12217.9440,W,1,03,8.9,3.0,M,-25.1,M,,0000*62
$GPGSA,A,2,10,07,08,,,,,,,,,,9.0,8.9,1.0*34
$GPGSV,3,1,12,07,53,285,36,10,41,292,39,08,29,264,40,06,19,075,16*78
$GPGSV,3,2,12,13,75,029,26,23,53,107,25,16,30,045,21,03,25,090,*79
$GPGSV,3,3,12,05,03,326,,28,01,208,,32,00,160,,04,00,255,*7A
$GPVTG,172.59,T,,M,2.03,N,3.8,K,A*0F
$GPGGA,193046.000,3748.6901,N,12217.9446,W,1,04,5.5,2.8,M,-25.1,M,,0000*6C
$GPGSA,A,3,06,10,07,08,,,,,,,,,7.5,5.5,5.1*3C
$GPRMC,193046.000,A,3748.6901,N,12217.9446,W,1.92,178.35,210611,,,A*7C
$GPVTG,178.35,T,,M,1.92,N,3.6,K,A*0A
$GPGGA,193047.000,3748.6897,N,12217.9448,W,1,04,5.5,2.2,M,-25.1,M,,0000*67
$GPGSA,A,3,06,10,07,08,,,,,,,,,7.5,5.5,5.1*3C
$GPRMC,193047.000,A,3748.6897,N,12217.9448,W,1.86,172.49,210611,,,A*79
$GPVTG,172.49,T,,M,1.86,N,3.4,K,A*0C
$GPGGA,193048.000,3748.6893,N,12217.9452,W,1,04,5.5,1.7,M,-25.1,M,,0000*61
$GPGSA,A,3,06,10,07,08,,,,,,,,,7.5,5.5,5.1*3C
$GPRMC,193048.000,A,3748.6893,N,12217.9452,W,1.74,196.04,210611,,,A*77
$GPVTG,196.04,T,,M,1.74,N,3.2,K,A*04
$GPGGA,193049.000,3748.6890,N,12217.9456,W,1,04,5.5,1.2,M,-25.1,M,,0000*62
$GPGSA,A,3,06,10,07,08,,,,,,,,,7.6,5.5,5.1*3F
$GPRMC,193049.000,A,3748.6890,N,12217.9456,W,1.23,183.18,210611,,,A*7A
$GPVTG,183.18,T,,M,1.23,N,2.3,K,A*0F
$GPGGA,193050.000,3748.6886,N,12217.9460,W,1,04,5.5,0.7,M,-25.1,M,,0000*6C
$GPGSA,A,3,06,10,07,08,,,,,,,,,7.6,5.5,5.1*3F
$GPGSV,3,1,12,13,75,032,26,07,53,286,37,23,53,108,25,10,41,291,38*78
$GPGSV,3,2,12,16,30,045,24,08,29,265,40,03,25,090,21,06,19,074,21*7E
$GPGSV,3,3,12,05,03,326,,28,02,208,,32,00,160,,04,00,255,*79
$GPRMC,193050.000,A,3748.6886,N,12217.9460,W,1.91,168.95,210611,,,A*79
$GPVTG,168.95,T,,M,1.91,N,3.5,K,A*01
$GPGGA,193051.000,3748.6882,N,12217.9463,W,1,04,5.5,0.2,M,-25.1,M,,0000*6F
$GPGSA,A,3,06,10,07,08,,,,,,,,,7.6,5.5,5.1*3F
$GPRMC,193051.000,A,3748.6882,N,12217.9463,W,2.06,167.88,210611,,,A*71
$GPVTG,167.88,T,,M,2.06,N,3.8,K,A*02
$GPGGA,193052.000,3748.6878,N,12217.9466,W,1,04,5.5,-0.2,M,-25.1,M,,0000*41
$GPGSA,A,3,06,10,07,08,,,,,,,,,7.6,5.5,5.1*3F
$GPRMC,193052.000,A,3748.6878,N,12217.9466,W,1.81,182.82,210611,,,A*7F
$GPVTG,182.82,T,,M,1.81,N,3.4,K,A*03
$GPGGA,193053.000,3748.6874,N,12217.9471,W,1,04,5.6,-0.6,M,-25.1,M,,0000*4D
$GPGSA,A,3,06,10,07,08,,,,,,,,,7.6,5.6,5.1*3C
$GPRMC,193053.000,A,3748.6874,N,12217.9471,W,1.78,191.53,210611,,,A*7C
$GPVTG,191.53,T,,M,1.78,N,3.3,K,A*0C
$GPGGA,193054.000,3748.6870,N,12217.9477,W,1,04,5.6,-0.9,M,-25.1,M,,0000*47
$GPGSA,A,3,06,10,07,08,,,,,,,,,7.6,5.6,5.1*3C
$GPRMC,193054.000,A,3748.6870,N,12217.9477,W,1.75,188.11,210611,,,A*7A
$GPVTG,188.11,T,,M,1.75,N,3.2,K,A*0E
$GPGGA,193055.000,3748.6866,N,12217.9484,W,1,04,5.6,-0.8,M,-25.1,M,,0000*4C
$GPGSA,A,3,06,10,07,08,,,,,,,,,7.6,5.6,5.1*3C
$GPGSV,3,1,12,13,75,032,26,07,53,286,36,23,53,108,26,10,41,291,38*7A
$GPGSV,3,2,12,16,30,045,24,08,29,265,38,03,25,090,22,06,19,074,22*71
$GPGSV,3,3,12,05,03,326,,28,02,208,19,32,00,160,,04,00,255,*71
$GPRMC,193055.000,A,3748.6866,N,12217.9484,W,1.80,175.96,210611,,,A*77
$GPVTG,175.96,T,,M,1.80,N,3.3,K,A*08
$GPGGA,193056.000,3748.6862,N,12217.9490,W,1,04,5.6,-0.9,M,-25.1,M,,0000*4F
$GPGSA,A,3,06,10,07,08,,,,,,,,,7.6,5.6,5.1*3C
$GPRMC,193056.000,A,3748.6862,N,12217.9490,W,1.81,180.06,210611,,,A*77
$GPVTG,180.06,T,,M,1.81,N,3.4,K,A*0D
$GPGGA,193057.000,3748.6857,N,12217.9496,W,1,04,5.6,-0.9,M,-25.1,M,,0000*4E
$GPGSA,A,3,06,10,07,08,,,,,,,,,7.6,5.6,5.1*3C
$GPRMC,193057.000,A,3748.6857,N,12217.9496,W,1.85,192.45,210611,,,A*76
$GPVTG,192.45,T,,M,1.85,N,3.4,K,A*0D
$GPGGA,193058.000,3748.6853,N,12217.9501,W,1,04,5.6,-1.1,M,-25.1,M,,0000*43
$GPGSA,A,3,06,10,07,08,,,,,,,,,7.6,5.6,5.1*3C
$GPRMC,193058.000,A,3748.6853,N,12217.9501,W,1.72,208.29,210611,,,A*70
$GPVTG,208.29,T,,M,1.72,N,3.2,K,A*09
$GPGGA,193059.000,3748.6848,N,12217.9507,W,1,04,5.6,-1.3,M,-25.1,M,,0000*4C
$GPGSA,A,3,06,10,07,08,,,,,,,,,7.6,5.6,5.1*3C
$GPRMC,193059.000,A,3748.6848,N,12217.9507,W,1.84,203.60,210611,,,A*72
$GPVTG,203.60,T,,M,1.84,N,3.4,K,A*00
$GPGGA,193100.000,3748.6842,N,12217.9510,W,1,04,5.6,-1.8,M,-25.1,M,,0000*46
$GPGSA,A,3,06,10,07,08,,,,,,,,,7.6,5.6,5.2*3F
$GPGSV,3,1,12,13,75,032,26,07,53,286,36,23,53,108,26,10,41,291,37*75
$GPGSV,3,2,12,16,30,045,19,08,29,265,34,03,25,090,21,06,19,074,21*73
$GPGSV,3,3,12,05,03,326,,28,02,208,20,32,00,160,,04,00,255,*7B
$GPVTG,188.62,T,,M,1.94,N,3.6,K,A*01
$GPGGA,193101.000,3748.6836,N,12217.9513,W,1,04,5.6,-2.1,M,-25.1,M,,0000*4D
$GPGSA,A,3,06,10,07,08,,,,,,,,,7.6,5.6,5.2*3F
$GPRMC,193101.000,A,3748.6836,N,12217.9513,W,1.90,185.55,210611,,,A*7C
$GPVTG,185.55,T,,M,1.90,N,3.5,K,A*0F
$GPGGA,193102.000,3748.6831,N,12217.9516,W,1,04,5.6,-2.5,M,-25.1,M,,0000*48
$GPGSA,A,3,06,10,07,08,,,,,,,,,7.6,5.6,5.2*3F
$GPRMC,193102.000,A,3748.6831,N,12217.9516,W,1.82,187.11,210611,,,A*7C
$GPVTG,187.11,T,,M,1.82,N,3.4,K,A*0F
$GPGGA,193103.000,3748.6825,N,12217.9520,W,1,04,5.6,-2.7,M,-25.1,M,,0000*4B
$GPGSA,A,3,06,10,07,08,,,,,,,,,7.6,5.6,5.2*3F
$GPRMC,193103.000,A,3748.6825,N,12217.9520,W,1.87,195.24,210611,,,A*7D
$GPVTG,195.24,T,,M,1.87,N,3.5,K,A*0E
$GPGGA,193104.000,3748.6820,N,12217.9524,W,1,04,5.6,-3.0,M,-25.1,M,,0000*4B
$GPGSA,A,3,06,10,07,08,,,,,,,,,7.6,5.6,5.2*3F
$GPRMC,193104.000,A,3748.6820,N,12217.9524,W,1.77,199.82,210611,,,A*74
$GPVTG,199.82,T,,M,1.77,N,3.3,K,A*07
$GPGGA,193105.000,3748.6815,N,12217.9528,W,1,04,5.6,-3.3,M,-25.1,M,,0000*43
$GPGSA,A,3,06,10,07,08,,,,,,,,,7.6,5.6,5.2*3F
$GPGSV,3,1,12,13,75,032,26,07,53,286,37,23,53,108,22,10,41,291,37*70
$GPGSV,3,2,12,16,30,045,19,08,29,265,36,03,25,090,21,06,19,074,20*70
$GPGSV,3,3,12,05,03,326,,28,02,208,20,32,00,160,,04,00,255,*7B
$GPRMC,193105.000,A,3748.6815,N,12217.9528,W,1.94,207.29,210611,,,A*77
$GPVTG,207.29,T,,M,1.94,N,3.6,K,A*0A
$GPGGA,193106.000,3748.6809,N,12217.9533,W,1,04,5.6,-3.6,M,-25.1,M,,0000*42
$GPGSA,A,3,06,10,07,08,,,,,,,,,7.6,5.6,5.2*3F
$GPRMC,193106.000,A,3748.6809,N,12217.9533,W,1.80,202.73,210611,,,A*7C
$GPVTG,202.73,T,,M,1.80,N,3.3,K,A*00
$GPGGA,193107.000,3748.6803,N,12217.9538,W,1,04,5.6,-3.6,M,-25.1,M,,0000*42
$GPGSA,A,3,06,10,07,08,,,,,,,,,7.6,5.6,5.2*3F
$GPRMC,193107.000,A,3748.6803,N,12217.9538,W,1.76,197.19,210611,,,A*76
$GPVTG,197.19,T,,M,1.76,N,3.3,K,A*0A
$GPGGA,193108.000,3748.6798,N,12217.9543,W,1,04,5.6,-3.7,M,-25.1,M,,0000*4D
$GPGSA,A,3,06,10,07,08,,,,,,,,,7.6,5.6,5.2*3F
$GPRMC,193108.000,A,3748.6798,N,12217.9543,W,1.78,203.40,210611,,,A*74
$GPVTG,203.40,T,,M,1.78,N,3.3,K,A*06
$GPGGA,193109.000,3748.6792,N,12217.9548,W,1,04,5.6,-3.6,M,-25.1,M,,0000*4C
$GPGSA,A,3,06,10,07,08,,,,,,,,,7.6,5.6,5.2*3F
$GPRMC,193109.000,A,3748.6792,N,12217.9548,W,1.84,195.36,210611,,,A*7A
$GPVTG,195.36,T,,M,1.84,N,3.4,K,A*0F
$GPGGA,193110.000,3748.6786,N,12217.9553,W,1,04,5.6,-3.6,M,-25.1,M,,0000*4B
$GPGSA,A,3,06,10,07,08,,,,,,,,,7.6,5.6,5.2*3F
$GPGSV,3,1,12,13,75,032,25,07,53,286,36,23,53,108,24,10,41,291,37*74
$GPGSV,3,2,12,16,30,045,20,08,29,265,36,03,25,089,20,06,19,074,19*79
$GPGSV,3,3,12,05,03,325,,28,02,208,19,32,00,160,,04,00,254,*73
$GPRMC,193110.000,A,3748.6786,N,12217.9553,W,1.83,182.38,210611,,,A*72
$GPVTG,182.38,T,,M,1.83,N,3.4,K,A*00
$GPGGA,193111.000,3748.6780,N,12217.9558,W,1,04,5.6,-3.6,M,-25.1,M,,0000*47
$GPGSA,A,3,06,10,07,08,,,,,,,,,7.6,5.6,5.2*3F
$GPRMC,193111.000,A,3748.6780,N,12217.9558,W,2.00,178.83,210611,,,A*73
$GPVTG,178.83,T,,M,2.00,N,3.7,K,A*0E
$GPGGA,193112.000,3748.6774,N,12217.9559,W,1,04,5.6,-3.9,M,-25.1,M,,0000*41
$GPGSA,A,3,06,10,07,08,,,,,,,,,7.7,5.6,5.2*3E
$GPRMC,193112.000,A,3748.6774,N,12217.9559,W,2.19,168.09,210611,,,A*71
$GPVTG,168.09,T,,M,2.19,N,4.1,K,A*04
$GPGGA,193113.000,3748.6767,N,12217.9562,W,1,04,5.6,-4.0,M,-25.1,M,,0000*44
$GPGSA,A,3,06,10,07,08,,,,,,,,,7.7,5.6,5.2*3E
$GPRMC,193113.000,A,3748.6767,N,12217.9562,W,2.44,171.51,210611,,,A*77
$GPVTG,171.51,T,,M,2.44,N,4.5,K,A*0D
$GPGGA,193114.000,3748.6759,N,12217.9565,W,2,04,5.7,-4.2,M,-25.1,M,1.8,0000*6E
$GPGSA,A,3,06,10,07,08,,,,,,,,,7.7,5.7,5.2*3F
$GPRMC,193114.000,A,3748.6759,N,12217.9565,W,2.36,173.43,210611,,,D*7B
$GPVTG,173.43,T,,M,2.36,N,4.4,K,D*0D
$GPGGA,193115.000,3748.6751,N,12217.9570,W,2,04,5.7,-4.1,M,-25.1,M,2.8,0000*63
$GPGSA,A,3,06,10,07,08,,,,,,,,,7.7,5.7,5.2*3F
$GPGSV,3,1,12,13,75,032,25,07,53,286,36,23,53,108,24,10,41,291,37*74
$GPGSV,3,2,12,16,30,045,21,08,29,265,37,03,25,089,24,06,19,074,19*7D
$GPGSV,3,3,12,05,03,325,,28,02,208,19,32,00,160,,04,00,254,*73
$GPRMC,193115.000,A,3748.6751,N,12217.9570,W,2.51,179.14,210611,,,D*7F
$GPGGA,193116.000,3748.6743,N,12217.9576,W,2,04,5.7,-3.9,M,-25.1,M,3.8,0000*6B
$GPGSA,A,3,06,10,07,08,,,,,,,,,7.7,5.7,5.2*3F
$GPRMC,193116.000,A,3748.6743,N,12217.9576,W,2.54,173.29,210611,,,D*78
$GPVTG,173.29,T,,M,2.54,N,4.7,K,D*06
$GPGGA,193117.000,3748.6735,N,12217.9583,W,2,04,5.7,-3.6,M,-25.1,M,4.8,0000*69
$GPGSA,A,3,06,10,07,08,,,,,,,,,7.7,5.7,5.2*3F
$GPRMC,193117.000,A,3748.6735,N,12217.9583,W,2.19,182.88,210611,,,D*7E
$GPVTG,182.88,T,,M,2.19,N,4.1,K,D*0C
$GPGGA,193118.000,3748.6728,N,12217.9585,W,2,04,5.7,-3.9,M,-25.1,M,5.8,0000*62
$GPGSA,A,3,06,10,07,08,,,,,,,,,7.7,5.7,5.2*3F
$GPRMC,193118.000,A,3748.6728,N,12217.9585,W,2.14,186.13,210611,,,D*70
$GPVTG,186.13,T,,M,2.14,N,4.0,K,D*06
$GPGGA,193119.000,3748.6721,N,12217.9592,W,2,04,5.7,-3.6,M,-25.1,M,6.8,0000*60
$GPGSA,A,3,06,10,07,08,,,,,,,,,7.7,5.7,5.2*3F
$GPRMC,193119.000,A,3748.6721,N,12217.9592,W,2.17,193.93,210611,,,D*71
$GPVTG,193.93,T,,M,2.17,N,4.0,K,D*09
$GPGGA,193120.000,3748.6714,N,12217.9596,W,2,04,5.7,-3.7,M,-25.1,M,7.8,0000*68
$GPGSA,A,3,06,10,07,08,,,,,,,,,7.7,5.7,5.2*3F
$GPGSV,3,1,12,13,75,033,26,07,54,287,33,23,53,108,24,10,41,291,38*7A
$GPGSV,3,2,12,16,29,045,25,08,29,265,37,03,25,089,16,06,19,074,19*70
$GPGSV,3,3,12,05,03,325,,28,02,208,11,32,00,160,,04,00,254,*7B
$GPRMC,193120.000,A,3748.6714,N,12217.9596,W,2.04,193.92,210611,,,D*7A
$GPVTG,193.92,T,,M,2.04,N,3.8,K,D*05
$GPGGA,193121.000,3748.6707,N,12217.9602,W,2,04,5.7,-3.6,M,-25.1,M,8.8,0000*6B
$GPGSA,A,3,06,10,07,08,,,,,,,,,7.7,5.7,5.2*3F
$GPRMC,193121.000,A,3748.6707,N,12217.9602,W,2.09,205.19,210611,,,D*75
$GPVTG,205.19,T,,M,2.09,N,3.9,K,D*06
$GPGGA,193122.000,3748.6700,N,12217.9609,W,2,04,5.7,-3.6,M,-25.1,M,9.8,0000*65
$GPGSA,A,3,06,10,07,08,,,,,,,,,7.7,5.7,5.2*3F
$GPRMC,193122.000,A,3748.6700,N,12217.9609,W,2.21,212.35,210611,,,D*78
$GPVTG,212.35,T,,M,2.21,N,4.1,K,D*0B
$GPGGA,193123.000,3748.6694,N,12217.9614,W,2,04,5.7,-3.7,M,-25.1,M,10.8,0000*5D
$GPGSA,A,3,06,10,07,08,,,,,,,,,7.7,5.7,5.2*3F
$GPRMC,193123.000,A,3748.6694,N,12217.9614,W,1.90,199.33,210611,,,D*76
$GPVTG,199.33,T,,M,1.90,N,3.5,K,D*07
$GPGGA,193124.000,3748.6686,N,12217.9616,W,2,04,5.7,-3.8,M,-25.1,M,11.8,0000*55
$GPGSA,A,3,06,10,07,08,,,,,,,,,7.7,5.7,5.2*3F
$GPRMC,193124.000,A,3748.6686,N,12217.9616,W,1.95,184.27,210611,,,D*7C
$GPVTG,184.27,T,,M,1.95,N,3.6,K,D*08
$GPGGA,193125.000,3748.6678,N,12217.9618,W,2,04,5.7,-4.0,M,-25.1,M,12.8,0000*57
$GPGSA,A,3,06,10,07,08,,,,,,,,,7.7,5.7,5.2*3F
$GPGSV,3,1,12,13,75,033,26,07,54,287,35,23,53,108,19,10,41,291,38*72
$GPGSV,3,2,12,16,29,045,22,08,29,265,37,03,25,089,17,06,19,074,19*76
$GPGSV,3,3,12,05,03,325,,28,02,208,12,32,00,160,,04,00,254,*78
$GPRMC,193125.000,A,3748.6678,N,12217.9618,W,2.39,170.74,210611,,,D*7A
$GPVTG,170.74,T,,M,2.39,N,4.4,K,D*05
$GPGGA,193126.000,3748.6671,N,12217.9621,W,2,04,5.7,-4.2,M,-25.1,M,13.8,0000*54
$GPGSA,A,3,06,10,07,08,,,,,,,,,7.7,5.7,5.2*3F
$GPRMC,193126.000,A,3748.6671,N,12217.9621,W,2.53,185.48,210611,,,D*73
$GPVTG,185.48,T,,M,2.53,N,4.7,K,D*0F
$GPGGA,193127.000,3748.6664,N,12217.9625,W,2,04,5.7,-4.3,M,-25.1,M,14.8,0000*53
$GPGSA,A,3,06,10,07,08,,,,,,,,,7.7,5.7,5.2*3F
$GPRMC,193127.000,A,3748.6664,N,12217.9625,W,2.25,200.70,210611,,,D*76
$GPVTG,200.70,T,,M,2.25,N,4.2,K,D*0E
$GPGGA,193128.000,3748.6657,N,12217.9630,W,2,03,9.0,-4.2,M,-25.1,M,15.8,0000*54
$GPGSA,A,2,10,07,08,,,,,,,,,,9.1,9.0,1.0*3D
$GPRMC,193128.000,A,3748.6657,N,12217.9630,W,2.43,219.26,210611,,,D*76
$GPVTG,219.26,T,,M,2.43,N,4.5,K,D*02
$GPGGA,193129.000,3748.6651,N,12217.9636,W,2,03,9.0,-4.0,M,-25.1,M,16.8,0000*54
$GPGSA,A,2,10,07,08,,,,,,,,,,9.1,9.0,1.0*3D
$GPRMC,193129.000,A,3748.6651,N,12217.9636,W,2.46,229.34,210611,,,D*72
$GPVTG,229.34,T,,M,2.46,N,4.6,K,D*04
$GPGGA,193130.000,3748.6644,N,12217.9640,W,2,03,9.0,-4.0,M,-25.1,M,17.8,0000*58
$GPGSA,A,2,10,07,08,,,,,,,,,,9.1,9.0,1.0*3D
$GPGSV,3,1,12,13,75,033,26,07,54,287,35,23,53,108,21,10,41,291,37*76
$GPGSV,3,2,12,16,29,045,22,08,29,265,37,03,25,089,18,06,19,074,18*78
$GPGSV,3,3,12,05,03,325,26,28,02,208,07,32,00,160,,04,00,254,*78
$GPVTG,219.29,T,,M,2.18,N,4.0,K,D*06
$GPGGA,193131.000,3748.6637,N,12217.9644,W,1,03,9.0,-4.1,M,-25.1,M,,0000*4B
$GPGSA,A,2,10,07,08,,,,,,,,,,9.1,9.0,1.0*3D
$GPRMC,193131.000,A,3748.6637,N,12217.9644,W,2.00,207.49,210611,,,A*7F
$GPVTG,207.49,T,,M,2.00,N,3.7,K,A*03
$GPGGA,193132.000,3748.6631,N,12217.9646,W,1,03,9.0,-4.2,M,-25.1,M,,0000*4F
$GPGSA,A,2,10,07,08,,,,,,,,,,9.1,9.0,1.0*3D
$GPRMC,193132.000,A,3748.6631,N,12217.9646,W,1.92,196.69,210611,,,A*79
$GPVTG,196.69,T,,M,1.92,N,3.6,K,A*03
$GPGGA,193133.000,3748.6625,N,12217.9646,W,1,03,9.0,-4.4,M,-25.1,M,,0000*4D
$GPGSA,A,2,10,07,08,,,,,,,,,,9.1,9.0,1.0*3D
$GPRMC,193133.000,A,3748.6625,N,12217.9646,W,2.15,180.56,210611,,,A*7A
$GPVTG,180.56,T,,M,2.15,N,4.0,K,A*05
$GPGGA,193134.000,3748.6619,N,12217.9650,W,1,04,5.8,-4.3,M,-25.1,M,,0000*46
$GPGSA,A,3,06,10,07,08,,,,,,,,,7.8,5.8,5.2*3F
$GPRMC,193134.000,A,3748.6619,N,12217.9650,W,2.44,168.20,210611,,,A*76
$GPVTG,168.20,T,,M,2.44,N,4.5,K,A*03
$GPGGA,193135.000,3748.6613,N,12217.9655,W,1,04,5.8,-4.1,M,-25.1,M,,0000*4A
$GPGSA,A,3,06,10,07,08,,,,,,,,,7.8,5.8,5.2*3F
$GPGSV,3,1,12,13,75,033,25,07,54,287,36,23,53,108,25,10,41,291,37*72
$GPGSV,3,2,12,16,29,045,20,08,29,265,37,03,25,089,18,06,19,074,19*7B
$GPGSV,3,3,12,05,03,325,19,28,02,208,16,32,00,160,,04,00,254,*74
$GPRMC,193135.000,A,3748.6613,N,12217.9655,W,2.50,172.43,210611,,,A*73
$GPVTG,172.43,T,,M,2.50,N,4.6,K,A*0B
$GPGGA,193136.000,3748.6607,N,12217.9658,W,1,04,5.8,-4.1,M,-25.1,M,,0000*41
$GPGSA,A,3,06,10,07,08,,,,,,,,,7.8,5.8,5.2*3F
$GPRMC,193136.000,A,3748.6607,N,12217.9658,W,2.47,175.99,210611,,,A*7E
$GPVTG,175.99,T,,M,2.47,N,4.6,K,A*0D
$GPGGA,193137.000,3748.6599,N,12217.9661,W,1,04,5.8,-4.1,M,-25.1,M,,0000*4E
$GPGSA,A,3,06,10,07,08,,,,,,,,,7.8,5.8,5.2*3F
$GPRMC,193137.000,A,3748.6599,N,12217.9661,W,2.96,171.92,210611,,,A*72
$GPVTG,171.92,T,,M,2.96,N,5.5,K,A*0C
$GPGGA,193138.000,3748.6592,N,12217.9665,W,1,04,5.8,-3.9,M,-25.1,M,,0000*41
$GPGSA,A,3,06,10,07,08,,,,,,,,,7.8,5.8,5.2*3F
$GPRMC,193138.000,A,3748.6592,N,12217.9665,W,3.13,169.70,210611,,,A*7B
$GPVTG,169.70,T,,M,3.13,N,5.8,K,A*08
$GPGGA,193139.000,3748.6584,N,12217.9669,W,1,04,5.8,-3.7,M,-25.1,M,,0000*45
$GPGSA,A,3,06,10,07,08,,,,,,,,,7.8,5.8,5.2*3F
$GPRMC,193139.000,A,3748.6584,N,12217.9669,W,3.02,174.36,210611,,,A*7F
$GPVTG,174.36,T,,M,3.02,N,5.6,K,A*08
$GPGGA,193140.000,3748.6577,N,12217.9677,W,1,04,5.8,-4.8,M,-25.1,M,,0000*40
$GPGSA,A,3,06,10,07,08,,,,,,,,,7.8,5.8,5.2*3F
$GPGSV,3,1,12,13,75,033,19,07,54,287,29,23,53,108,21,10,41,291,30*70
$GPGSV,3,2,12,08,30,265,37,16,29,045,20,03,25,089,18,06,19,074,20*79
$GPGSV,3,3,12,05,03,325,19,28,02,208,16,04,00,254,,32,00,160,*74
$GPRMC,193140.000,A,3748.6577,N,12217.9677,W,2.20,189.04,210611,,,A*70
$GPVTG,189.04,T,,M,2.20,N,4.1,K,A*0C
$GPGGA,193141.000,3748.6574,N,12217.9687,W,1,04,5.8,-5.3,M,-25.1,M,,0000*47
$GPGSA,A,3,06,10,07,08,,,,,,,,,7.8,5.8,5.2*3F
$GPRMC,193141.000,A,3748.6574,N,12217.9687,W,2.11,200.06,210611,,,A*7F
$GPVTG,200.06,T,,M,2.11,N,3.9,K,A*01
$GPGGA,193142.000,3748.6574,N,12217.9696,W,1,04,5.8,-6.1,M,-25.1,M,,0000*45
$GPGSA,A,3,06,10,07,08,,,,,,,,,7.8,5.8,5.2*3F
$GPRMC,193142.000,A,3748.6574,N,12217.9696,W,2.11,212.47,210611,,,A*7A
$GPVTG,212.47,T,,M,2.11,N,3.9,K,A*07
$GPGGA,193143.000,3748.6571,N,12217.9701,W,1,04,5.8,-5.9,M,-25.1,M,,0000*45
$GPGSA,A,3,06,10,07,08,,,,,,,,,7.8,5.8,5.2*3F
$GPRMC,193143.000,A,3748.6571,N,12217.9701,W,1.57,198.53,210611,,,A*74
$GPVTG,198.53,T,,M,1.57,N,2.9,K,A*03
$GPGGA,193144.000,3748.6571,N,12217.9706,W,1,04,5.8,-7.2,M,-25.1,M,,0000*4C
$GPGSA,A,3,06,10,07,08,,,,,,,,,7.8,5.8,5.2*3F
$GPRMC,193144.000,A,3748.6571,N,12217.9706,W,1.69,178.27,210611,,,A*74
$GPVTG,178.27,T,,M,1.69,N,3.1,K,A*0A
$GPGGA,193145.000,3748.6565,N,12217.9707,W,1,04,5.8,-6.7,M,-25.1,M,,0000*4D
$GPGSA,A,3,06,10,07,08,,,,,,,,,7.8,5.8,5.2*3F
$GPGSV,3,1,12,13,75,033,19,07,54,287,33,23,53,108,21,10,41,291,38*73
$GPGSV,3,2,12,08,30,265,37,16,29,045,20,03,25,089,19,06,19,074,19*72
$GPGSV,3,3,12,05,03,325,25,28,02,208,17,04,00,254,,32,00,160,*7A
$GPRMC,193145.000,A,3748.6565,N,12217.9707,W,2.02,166.29,210611,,,A*7E
$GPGGA,193146.000,3748.6562,N,12217.9712,W,1,04,5.8,-7.1,M,-25.1,M,,0000*4A
$GPGSA,A,3,06,10,07,08,,,,,,,,,7.8,5.8,5.2*3F
$GPRMC,193146.000,A,3748.6562,N,12217.9712,W,2.54,159.42,210611,,,A*7C
$GPVTG,159.42,T,,M,2.54,N,4.7,K,A*06
$GPGGA,193147.000,3748.6551,N,12217.9706,W,1,03,9.0,-5.8,M,-25.1,M,,0000*46
$GPGSA,A,2,10,07,08,,,,,,,,,,9.1,9.0,1.0*3D
$GPRMC,193147.000,A,3748.6551,N,12217.9706,W,2.57,162.22,210611,,,A*75
$GPVTG,162.22,T,,M,2.57,N,4.8,K,A*04
$GPGGA,193148.000,3748.6543,N,12217.9702,W,1,03,9.0,-5.1,M,-25.1,M,,0000*47
$GPGSA,A,2,10,07,08,,,,,,,,,,9.1,9.0,1.0*3D
$GPRMC,193148.000,A,3748.6543,N,12217.9702,W,2.31,164.43,210611,,,A*7C
$GPVTG,164.43,T,,M,2.31,N,4.3,K,A*0E
$GPGGA,193149.000,3748.6536,N,12217.9700,W,1,03,9.1,-4.7,M,-25.1,M,,0000*40
$GPGSA,A,2,10,07,08,,,,,,,,,,9.1,9.1,1.0*3C
$GPRMC,193149.000,A,3748.6536,N,12217.9700,W,2.18,183.60,210611,,,A*7E
$GPVTG,183.60,T,,M,2.18,N,4.0,K,A*0E
$GPGGA,193150.000,3748.6529,N,12217.9701,W,1,03,9.1,-4.3,M,-25.1,M,,0000*43
$GPGSA,A,2,10,07,08,,,,,,,,,,9.1,9.1,1.0*3C
$GPGSV,3,1,12,13,75,033,20,07,54,287,34,23,53,108,21,10,41,291,38*7E
$GPGSV,3,2,12,08,30,265,38,16,29,045,19,03,25,089,19,06,19,074,18*76
$GPGSV,3,3,12,05,03,325,13,28,02,208,22,04,00,254,,32,00,160,*79
$GPRMC,193150.000,A,3748.6529,N,12217.9701,W,2.20,196.58,210611,,,A*7D
$GPVTG,196.58,T,,M,2.20,N,4.1,K,A*0B
$GPGGA,193151.000,3748.6522,N,12217.9704,W,1,03,9.1,-4.0,M,-25.1,M,,0000*4F
$GPGSA,A,2,10,07,08,,,,,,,,,,9.1,9.1,1.0*3C
$GPRMC,193151.000,A,3748.6522,N,12217.9704,W,2.28,204.42,210611,,,A*79
$GPVTG,204.42,T,,M,2.28,N,4.2,K,A*03
$GPGGA,193152.000,3748.6514,N,12217.9707,W,1,03,9.1,-3.7,M,-25.1,M,,0000*4A
$GPGSA,A,2,10,07,08,,,,,,,,,,9.1,9.1,1.0*3C
$GPRMC,193152.000,A,3748.6514,N,12217.9707,W,2.49,204.39,210611,,,A*77
$GPVTG,204.39,T,,M,2.49,N,4.6,K,A*0C
$GPGGA,193153.000,3748.6513,N,12217.9722,W,1,04,5.8,-2.3,M,-25.1,M,,0000*4C
$GPGSA,A,3,06,10,07,08,,,,,,,,,7.8,5.8,5.2*3F
$GPRMC,193153.000,A,3748.6513,N,12217.9722,W,2.31,225.27,210611,,,A*75
$GPVTG,225.27,T,,M,2.31,N,4.3,K,A*0A
$GPGGA,193154.000,3748.6513,N,12217.9735,W,1,04,5.9,-1.9,M,-25.1,M,,0000*45
$GPGSA,A,3,06,10,07,08,,,,,,,,,7.8,5.9,5.2*3E
$GPRMC,193154.000,A,3748.6513,N,12217.9735,W,2.14,236.51,210611,,,A*70
$GPVTG,236.51,T,,M,2.14,N,4.0,K,A*0D
$GPGGA,193155.000,3748.6511,N,12217.9741,W,1,03,9.1,-1.6,M,-25.1,M,,0000*49
$GPGSA,A,2,10,07,08,,,,,,,,,,9.1,9.1,1.0*3C
$GPGSV,3,1,12,13,75,033,24,07,54,287,30,23,53,108,21,10,41,291,33*75
$GPGSV,3,2,12,08,30,265,35,16,29,045,18,03,25,089,18,06,19,074,16*75
$GPGSV,3,3,12,05,03,325,11,28,02,208,17,04,00,254,,32,00,160,*7D
$GPRMC,193155.000,A,3748.6511,N,12217.9741,W,1.95,238.10,210611,,,A*71
$GPVTG,238.10,T,,M,1.95,N,3.6,K,A*0D
$GPGGA,193156.000,3748.6509,N,12217.9746,W,1,03,9.1,-2.2,M,-25.1,M,,0000*43
$GPGSA,A,2,10,07,08,,,,,,,,,,9.1,9.1,1.0*3C
$GPRMC,193156.000,A,3748.6509,N,12217.9746,W,1.80,221.68,210611,,,A*7F
$GPVTG,221.68,T,,M,1.80,N,3.3,K,A*0B
$GPGGA,193157.000,3748.6506,N,12217.9750,W,1,03,9.1,-2.6,M,-25.1,M,,0000*4E
$GPGSA,A,2,10,07,08,,,,,,,,,,9.1,9.1,1.0*3C
$GPRMC,193157.000,A,3748.6506,N,12217.9750,W,1.72,206.85,210611,,,A*7D
$GPVTG,206.85,T,,M,1.72,N,3.2,K,A*01
$GPGGA,193158.000,3748.6501,N,12217.9752,W,1,03,9.1,-3.0,M,-25.1,M,,0000*43
$GPGSA,A,2,10,07,08,,,,,,,,,,9.1,9.1,1.0*3C
$GPRMC,193158.000,A,3748.6501,N,12217.9752,W,1.97,190.93,210611,,,A*77
$GPVTG,190.93,T,,M,1.97,N,3.6,K,A*05
$GPGGA,193159.000,3748.6495,N,12217.9753,W,1,03,9.1,-3.4,M,-25.1,M,,0000*4B
$GPGSA,A,2,10,07,08,,,,,,,,,,9.1,9.1,1.0*3C
$GPRMC,193159.000,A,3748.6495,N,12217.9753,W,2.34,179.20,210611,,,A*7E
$GPVTG,179.20,T,,M,2.34,N,4.3,K,A*02
$GPGGA,193200.000,3748.6488,N,12217.9752,W,1,03,9.1,-3.8,M,-25.1,M,,0000*45
$GPGSA,A,2,10,07,08,,,,,,,,,,9.1,9.1,1.0*3C
$GPGSV,3,1,12,13,75,033,25,07,54,287,37,23,53,108,22,10,41,291,35*76
$GPGSV,3,2,12,08,30,265,37,16,29,045,17,03,25,089,18,06,19,074,17*79
$GPGSV,3,3,12,05,03,325,12,28,02,208,16,04,00,254,,32,00,160,*7F
$GPRMC,193200.000,A,3748.6488,N,12217.9752,W,2.48,172.73,210611,,,A*7A
$GPVTG,172.73,T,,M,2.48,N,4.6,K,A*01
$GPGGA,193201.000,3748.6481,N,12217.9751,W,1,03,9.1,-4.2,M,-25.1,M,,0000*43
$GPGSA,A,2,10,07,08,,,,,,,,,,9.1,9.1,1.0*3C
$GPRMC,193201.000,A,3748.6481,N,12217.9751,W,2.71,168.54,210611,,,A*75
$GPVTG,168.54,T,,M,2.71,N,5.0,K,A*02
$GPGGA,193202.000,3748.6474,N,12217.9749,W,1,03,9.1,-4.7,M,-25.1,M,,0000*46
$GPGSA,A,2,10,07,08,,,,,,,,,,9.1,9.1,1.0*3C
$GPRMC,193202.000,A,3748.6474,N,12217.9749,W,2.91,164.85,210611,,,A*7B
$GPVTG,164.85,T,,M,2.91,N,5.4,K,A*08
$GPGGA,193203.000,3748.6466,N,12217.9747,W,1,03,9.1,-5.0,M,-25.1,M,,0000*4C
$GPGSA,A,2,10,07,08,,,,,,,,,,9.1,9.1,1.0*3C
$GPRMC,193203.000,A,3748.6466,N,12217.9747,W,2.89,163.65,210611,,,A*77
$GPVTG,163.65,T,,M,2.89,N,5.4,K,A*08
$GPGGA,193204.000,3748.6457,N,12217.9744,W,2,03,9.1,-5.5,M,-25.1,M,1.8,0000*6B
$GPGSA,A,2,10,07,08,,,,,,,,,,9.1,9.1,1.0*3C
$GPRMC,193204.000,A,3748.6457,N,12217.9744,W,3.22,157.73,210611,,,D*74
$GPVTG,157.73,T,,M,3.22,N,6.0,K,D*0A
$GPGGA,193205.000,3748.6449,N,12217.9739,W,2,03,9.1,-6.0,M,-25.1,M,2.8,0000*6A
$GPGSA,A,2,10,07,08,,,,,,,,,,9.1,9.1,1.0*3C
$GPGSV,3,1,12,13,75,033,25,07,54,287,37,23,53,108,23,10,41,291,35*77
$GPGSV,3,2,12,08,30,265,38,16,29,045,18,03,25,089,18,06,19,074,16*78
$GPGSV,3,3,12,05,03,325,12,28,02,208,16,04,00,254,,32,00,160,*7F
$GPRMC,193205.000,A,3748.6449,N,12217.9739,W,3.46,154.83,210611,,,D*7E
$GPVTG,154.83,T,,M,3.46,N,6.4,K,D*00
$GPGGA,193206.000,3748.6439,N,12217.9735,W,2,03,9.1,-6.7,M,-25.1,M,3.8,0000*64
$GPGSA,A,2,10,07,08,,,,,,,,,,9.2,9.1,1.0*3F
$GPRMC,193206.000,A,3748.6439,N,12217.9735,W,3.55,155.91,210611,,,D*76
$GPVTG,155.91,T,,M,3.55,N,6.6,K,D*02
$GPGGA,193207.000,3748.6432,N,12217.9730,W,2,03,9.1,-7.3,M,-25.1,M,4.8,0000*69
$GPGSA,A,2,10,07,08,,,,,,,,,,9.2,9.1,1.0*3F
$GPRMC,193207.000,A,3748.6432,N,12217.9730,W,3.39,154.38,210611,,,D*71
$GPVTG,154.38,T,,M,3.39,N,6.3,K,D*0F
$GPGGA,193208.000,3748.6423,N,12217.9726,W,2,03,9.1,-7.9,M,-25.1,M,1.8,0000*6E
$GPGSA,A,2,10,07,08,,,,,,,,,,9.2,9.1,1.0*3F
$GPRMC,193208.000,A,3748.6423,N,12217.9726,W,3.25,150.58,210611,,,D*76
$GPVTG,150.58,T,,M,3.25,N,6.0,K,D*03
$GPGGA,193209.000,3748.6414,N,12217.9720,W,2,03,9.1,-8.6,M,-25.1,M,1.8,0000*6D
$GPGSA,A,2,10,07,08,,,,,,,,,,9.2,9.1,1.0*3F
$GPRMC,193209.000,A,3748.6414,N,12217.9720,W,3.56,146.98,210611,,,D*7A
$GPVTG,146.98,T,,M,3.56,N,6.6,K,D*0A
$GPGGA,193210.000,3748.6404,N,12217.9713,W,2,03,9.1,-9.4,M,-25.1,M,1.8,0000*67
$GPGSA,A,2,10,07,08,,,,,,,,,,9.2,9.1,1.0*3F
$GPGSV,3,1,11,13,75,034,25,07,54,287,35,23,52,108,27,10,41,290,36*76
$GPGSV,3,2,11,08,30,265,38,16,29,045,19,03,25,089,18,06,19,073,16*7D
$GPGSV,3,3,11,05,04,325,12,28,02,208,16,48,44,197,32*48
$GPRMC,193210.000,A,3748.6404,N,12217.9713,W,3.77,145.61,210611,,,D*75
$GPVTG,145.61,T,,M,3.77,N,7.0,K,D*0B
$GPGGA,193211.000,3748.6397,N,12217.9706,W,2,03,9.1,-10.1,M,-25.1,M,1.8,0000*52
$GPGSA,A,2,10,07,08,,,,,,,,,,9.2,9.1,1.0*3F
$GPRMC,193211.000,A,3748.6397,N,12217.9706,W,4.00,144.71,210611,,,D*7A
$GPVTG,144.71,T,,M,4.00,N,7.4,K,D*08
$GPGGA,193212.000,3748.6387,N,12217.9699,W,2,03,9.1,-11.0,M,-25.1,M,1.8,0000*57
$GPGSA,A,2,10,07,08,,,,,,,,,,9.2,9.1,1.0*3F
$GPRMC,193212.000,A,3748.6387,N,12217.9699,W,4.16,144.50,210611,,,D*7B
$GPVTG,144.50,T,,M,4.16,N,7.7,K,D*0F
$GPGGA,193213.000,3748.6378,N,12217.9692,W,2,03,9.1,-12.0,M,-25.1,M,2.8,0000*5D
$GPGSA,A,2,10,07,08,,,,,,,,,,9.2,9.1,1.0*3F
$GPRMC,193213.000,A,3748.6378,N,12217.9692,W,4.44,144.55,210611,,,D*73
$GPVTG,144.55,T,,M,4.44,N,8.2,K,D*07
$GPGGA,193214.000,3748.6369,N,12217.9685,W,2,03,9.1,-13.0,M,-25.1,M,1.8,0000*5E
$GPGSA,A,2,10,07,08,,,,,,,,,,9.2,9.1,1.0*3F
$GPRMC,193214.000,A,3748.6369,N,12217.9685,W,4.08,150.31,210611,,,D*7D
$GPVTG,150.31,T,,M,4.08,N,7.6,K,D*03
$GPGGA,193215.000,3748.6360,N,12217.9681,W,2,03,9.1,-13.9,M,-25.1,M,2.8,0000*58
$GPGSA,A,2,10,07,08,,,,,,,,,,9.2,9.1,1.0*3F
$GPGSV,3,1,11,13,75,034,25,07,54,287,36,23,52,108,23,10,41,290,36*71
$GPGSV,3,2,11,08,30,265,38,16,29,045,19,03,25,089,18,06,19,073,16*7D
$GPGSV,3,3,11,05,04,325,13,28,02,208,23,48,44,197,33*4E
$GPRMC,193215.000,A,3748.6360,N,12217.9681,W,3.56,159.21,210611,,,D*75
$GPGGA,193216.000,3748.6352,N,12217.9680,W,2,03,9.1,-14.7,M,-25.1,M,1.8,0000*51
$GPGSA,A,2,10,07,08,,,,,,,,,,9.2,9.1,1.0*3F
$GPRMC,193216.000,A,3748.6352,N,12217.9680,W,3.16,170.45,210611,,,D*7B
$GPVTG,170.45,T,,M,3.16,N,5.9,K,D*07
$GPGGA,193217.000,3748.6346,N,12217.9683,W,2,03,9.1,-15.4,M,-25.1,M,2.8,0000*57
$GPGSA,A,2,10,07,08,,,,,,,,,,9.2,9.1,1.0*3F
$GPRMC,193217.000,A,3748.6346,N,12217.9683,W,2.51,186.22,210611,,,D*76
$GPVTG,186.22,T,,M,2.51,N,4.6,K,D*03
$GPGGA,193218.000,3748.6341,N,12217.9687,W,2,03,9.1,-16.0,M,-25.1,M,1.8,0000*5F
$GPGSA,A,2,10,07,08,,,,,,,,,,9.2,9.1,1.0*3F
$GPRMC,193218.000,A,3748.6341,N,12217.9687,W,2.34,204.73,210611,,,D*74
$GPVTG,204.73,T,,M,2.34,N,4.3,K,D*08
$GPGGA,193219.000,3748.6336,N,12217.9694,W,2,03,9.1,-16.5,M,-25.1,M,2.8,0000*5A
$GPGSA,A,2,10,07,08,,,,,,,,,,9.2,9.1,1.0*3F
$GPRMC,193219.000,A,3748.6336,N,12217.9694,W,2.30,217.48,210611,,,D*79
$GPVTG,217.48,T,,M,2.30,N,4.3,K,D*06
$GPGGA,193220.000,3748.6330,N,12217.9699,W,2,03,9.1,-17.1,M,-25.1,M,1.8,0000*5D
$GPGSA,A,2,10,07,08,,,,,,,,,,9.2,9.1,1.0*3F
$GPGSV,3,1,11,13,75,035,25,07,54,287,36,23,52,108,24,10,41,290,37*76
$GPGSV,3,2,11,08,30,265,38,16,29,045,21,03,25,089,18,06,19,073,16*76
$GPGSV,3,3,11,05,04,325,14,28,03,208,23,48,44,197,34*4F
$GPRMC,193220.000,A,3748.6330,N,12217.9699,W,2.05,214.01,210611,,,D*70
$GPVTG,214.01,T,,M,2.05,N,3.8,K,D*02
$GPGGA,193221.000,3748.6325,N,12217.9703,W,2,03,9.1,-17.6,M,-25.1,M,1.8,0000*5D
$GPGSA,A,2,10,07,08,,,,,,,,,,9.2,9.1,1.0*3F
$GPRMC,193221.000,A,3748.6325,N,12217.9703,W,1.93,209.73,210611,,,D*72
$GPVTG,209.73,T,,M,1.93,N,3.6,K,D*09
$GPGGA,193222.000,3748.6320,N,12217.9707,W,2,03,9.1,-18.1,M,-25.1,M,1.8,0000*57
$GPGSA,A,2,10,07,08,,,,,,,,,,9.2,9.1,1.0*3F
$GPRMC,193222.000,A,3748.6320,N,12217.9707,W,1.86,205.03,210611,,,D*7F
$GPVTG,205.03,T,,M,1.86,N,3.5,K,D*05
$GPGGA,193223.000,3748.6315,N,12217.9710,W,2,03,9.1,-18.7,M,-25.1,M,2.8,0000*53
$GPGSA,A,2,10,07,08,,,,,,,,,,9.2,9.1,1.0*3F
$GPRMC,193223.000,A,3748.6315,N,12217.9710,W,1.88,193.15,210611,,,D*7B
$GPVTG,193.15,T,,M,1.88,N,3.5,K,D*00
$GPGGA,193224.000,3748.6310,N,12217.9711,W,2,03,9.1,-19.3,M,-25.1,M,3.8,0000*54
$GPGSA,A,2,10,07,08,,,,,,,,,,9.2,9.1,1.0*3F
$GPRMC,193224.000,A,3748.6310,N,12217.9711,W,1.91,183.43,210611,,,D*72
$GPVTG,183.43,T,,M,1.91,N,3.5,K,D*0A
$GPGGA,193225.000,3748.6305,N,12217.9711,W,2,03,9.1,-20.0,M,-25.1,M,4.8,0000*5F
$GPGSA,A,2,10,07,08,,,,,,,,,,9.2,9.1,1.0*3F
$GPGSV,3,1,11,13,75,035,25,07,54,287,36,23,52,108,24,10,41,290,37*76
$GPGSV,3,2,11,08,30,265,35,16,29,045,21,03,25,089,17,06,19,073,16*74
$GPGSV,3,3,11,05,04,325,13,28,03,208,17,48,44,197,32*49
$GPRMC,193225.000,A,3748.6305,N,12217.9711,W,1.95,170.01,210611,,,D*79
$GPVTG,170.01,T,,M,1.95,N,3.6,K,D*07
$GPGGA,193226.000,3748.6298,N,12217.9710,W,2,03,9.1,-20.7,M,-25.1,M,1.8,0000*5A
$GPGSA,A,2,10,07,08,,,,,,,,,,9.2,9.1,1.0*3F
$GPRMC,193226.000,A,3748.6298,N,12217.9710,W,2.52,162.02,210611,,,D*76
$GPVTG,162.02,T,,M,2.52,N,4.7,K,D*09
$GPGGA,193227.000,3748.6291,N,12217.9707,W,2,03,9.2,-21.4,M,-25.1,M,1.8,0000*55
$GPGSA,A,2,10,07,08,,,,,,,,,,9.2,9.2,1.0*3C
$GPRMC,193227.000,A,3748.6291,N,12217.9707,W,2.91,153.89,210611,,,D*76
$GPVTG,153.89,T,,M,2.91,N,5.4,K,D*05
$GPGGA,193228.000,3748.6283,N,12217.9702,W,2,03,9.2,-22.2,M,-25.1,M,1.8,0000*59
$GPGSA,A,2,10,07,08,,,,,,,,,,9.2,9.2,1.0*3C
$GPRMC,193228.000,A,3748.6283,N,12217.9702,W,3.37,149.64,210611,,,D*7A
$GPVTG,149.64,T,,M,3.37,N,6.2,K,D*05
$GPGGA,193229.000,3748.6275,N,12217.9697,W,2,03,9.2,-23.0,M,-25.1,M,1.8,0000*5F
$GPGSA,A,2,10,07,08,,,,,,,,,,9.2,9.2,1.0*3C
$GPRMC,193229.000,A,3748.6275,N,12217.9697,W,3.38,150.89,210611,,,D*7B
$GPVTG,150.89,T,,M,3.38,N,6.3,K,D*00
$GPGGA,193230.000,3748.6268,N,12217.9693,W,2,03,9.2,-23.9,M,-25.1,M,2.8,0000*55
$GPGSA,A,2,10,07,08,,,,,,,,,,9.2,9.2,1.0*3C
$GPGSV,3,1,11,13,75,035,24,07,54,287,36,23,52,108,23,10,41,290,34*73
$GPGSV,3,2,11,08,30,265,37,16,29,045,20,03,25,089,17,06,19,073,16*77
$GPGSV,3,3,11,05,04,325,13,28,03,208,20,48,44,197,34*4B
$GPRMC,193230.000,A,3748.6268,N,12217.9693,W,3.55,153.42,210611,,,D*74
$GPGGA,193231.000,3748.6261,N,12217.9690,W,2,03,9.2,-24.8,M,-25.1,M,3.8,0000*59
$GPGSA,A,2,10,07,08,,,,,,,,,,9.2,9.2,1.0*3C
$GPRMC,193231.000,A,3748.6261,N,12217.9690,W,3.49,157.60,210611,,,D*76
$GPVTG,157.60,T,,M,3.49,N,6.5,K,D*00
$GPGGA,193232.000,3748.6254,N,12217.9688,W,2,03,9.2,-25.6,M,-25.1,M,1.8,0000*58
$GPGSA,A,2,10,07,08,,,,,,,,,,9.2,9.2,1.0*3C
$GPRMC,193232.000,A,3748.6254,N,12217.9688,W,3.31,166.16,210611,,,D*76
$GPVTG,166.16,T,,M,3.31,N,6.1,K,D*08
$GPGGA,193233.000,3748.6248,N,12217.9688,W,2,03,9.2,-26.3,M,-25.1,M,1.8,0000*52
$GPGSA,A,2,10,07,08,,,,,,,,,,9.2,9.2,1.0*3C
$GPRMC,193233.000,A,3748.6248,N,12217.9688,W,2.91,175.26,210611,,,D*70
$GPVTG,175.26,T,,M,2.91,N,5.4,K,D*04
$GPGGA,193234.000,3748.6242,N,12217.9690,W,2,03,9.2,-27.0,M,-25.1,M,1.8,0000*54
$GPGSA,A,2,10,07,08,,,,,,,,,,9.2,9.2,1.0*3C
$GPRMC,193234.000,A,3748.6242,N,12217.9690,W,2.45,185.13,210611,,,D*74
$GPVTG,185.13,T,,M,2.45,N,4.5,K,D*04
$GPGGA,193235.000,3748.6237,N,12217.9693,W,2,03,9.2,-27.6,M,-25.1,M,2.8,0000*51
$GPGSA,A,2,10,07,08,,,,,,,,,,9.2,9.2,1.0*3C
$GPGSV,3,1,11,13,75,035,24,07,54,287,36,23,52,108,23,10,41,290,35*72
$GPGSV,3,2,11,08,30,265,37,16,29,045,20,03,25,089,20,06,19,073,16*73
$GPGSV,3,3,11,05,04,325,25,28,03,208,19,48,44,197,24*45
$GPRMC,193235.000,A,3748.6237,N,12217.9693,W,2.28,191.62,210611,,,D*7C
$GPVTG,191.62,T,,M,2.28,N,4.2,K,D*0B
$GPGGA,193236.000,3748.6232,N,12217.9697,W,2,03,9.2,-28.2,M,-25.1,M,3.8,0000*59
$GPGSA,A,2,10,07,08,,,,,,,,,,9.2,9.2,1.0*3C
$GPRMC,193236.000,A,3748.6232,N,12217.9697,W,2.05,201.04,210611,,,D*7B
$GPVTG,201.04,T,,M,2.05,N,3.8,K,D*03
$GPGGA,193237.000,3748.6229,N,12217.9701,W,2,03,9.2,-28.9,M,-25.1,M,4.8,0000*50
$GPGSA,A,2,10,07,08,,,,,,,,,,9.2,9.2,1.0*3C
$GPRMC,193237.000,A,3748.6229,N,12217.9701,W,1.77,206.78,210611,,,D*74
$GPVTG,206.78,T,,M,1.77,N,3.3,K,D*02
$GPGGA,193238.000,3748.6225,N,12217.9705,W,2,03,9.2,-29.5,M,-25.1,M,5.8,0000*5B
$GPGSA,A,2,10,07,08,,,,,,,,,,9.2,9.2,1.0*3C
$GPRMC,193238.000,A,3748.6225,N,12217.9705,W,1.81,204.81,210611,,,D*7E
$GPVTG,204.81,T,,M,1.81,N,3.3,K,D*0F
$GPGGA,193239.000,3748.6221,N,12217.9708,W,2,03,9.2,-30.1,M,-25.1,M,6.8,0000*5C
$GPGSA,A,2,10,07,08,,,,,,,,,,9.2,9.2,1.0*3C
$GPRMC,193239.000,A,3748.6221,N,12217.9708,W,1.85,198.93,210611,,,D*77
$GPVTG,198.93,T,,M,1.85,N,3.4,K,D*09
$GPGGA,193240.000,3748.6217,N,12217.9711,W,2,03,9.2,-30.7,M,-25.1,M,7.8,0000*58
$GPGSA,A,2,10,07,08,,,,,,,,,,9.2,9.2,1.0*3C
$GPGSV,3,1,11,13,75,035,24,07,54,287,36,23,52,108,23,10,41,290,35*72
$GPGSV,3,2,11,08,30,265,37,16,29,045,20,03,25,089,19,06,19,073,16*79
$GPGSV,3,3,11,05,04,325,16,28,03,208,20,48,44,197,27*4C
$GPRMC,193240.000,A,3748.6217,N,12217.9711,W,1.78,189.45,210611,,,D*7D
$GPVTG,189.45,T,,M,1.78,N,3.3,K,D*07
$GPGGA,193241.000,3748.6212,N,12217.9712,W,2,03,9.2,-31.3,M,-25.1,M,8.8,0000*55
$GPGSA,A,2,10,07,08,,,,,,,,,,9.2,9.2,1.0*3C
$GPRMC,193241.000,A,3748.6212,N,12217.9712,W,1.85,180.17,210611,,,D*76
$GPVTG,180.17,T,,M,1.85,N,3.4,K,D*0C
$GPGGA,193242.000,3748.6208,N,12217.9712,W,2,03,9.2,-32.0,M,-25.1,M,1.8,0000*54
$GPGSA,A,2,10,07,08,,,,,,,,,,9.3,9.2,1.0*3D
$GPRMC,193242.000,A,3748.6208,N,12217.9712,W,2.07,169.42,210611,,,D*70
$GPVTG,169.42,T,,M,2.07,N,3.8,K,D*0E
$GPGGA,193243.000,3748.6202,N,12217.9711,W,2,03,9.2,-32.8,M,-25.1,M,2.8,0000*57
$GPGSA,A,2,10,07,08,,,,,,,,,,9.3,9.2,1.0*3D
$GPRMC,193243.000,A,3748.6202,N,12217.9711,W,2.37,159.14,210611,,,D*7B
$GPVTG,159.14,T,,M,2.37,N,4.4,K,D*06
$GPGGA,193244.000,3748.6196,N,12217.9708,W,2,03,9.2,-33.5,M,-25.1,M,1.8,0000*59
$GPGSA,A,2,10,07,08,,,,,,,,,,9.3,9.2,1.0*3D
$GPRMC,193244.000,A,3748.6196,N,12217.9708,W,2.78,152.37,210611,,,D*7B
$GPVTG,152.37,T,,M,2.78,N,5.2,K,D*00
$GPGGA,193245.000,3748.6190,N,12217.9704,W,2,03,9.2,-34.1,M,-25.1,M,1.8,0000*51
$GPGSA,A,2,10,07,08,,,,,,,,,,9.3,9.2,1.0*3D
$GPGSV,3,1,11,13,75,035,22,07,54,287,36,23,52,108,18,10,41,290,36*7F
$GPGSV,3,2,11,08,30,265,38,16,29,045,20,03,25,089,19,06,19,073,17*77
$GPGSV,3,3,11,05,04,325,16,28,03,208,20,48,44,197,37*4D
$GPRMC,193245.000,A,3748.6190,N,12217.9704,W,2.81,145.01,210611,,,D*75
$GPGGA,193246.000,3748.6184,N,12217.9699,W,2,03,9.2,-34.7,M,-25.1,M,1.8,0000*54
$GPGSA,A,2,10,07,08,,,,,,,,,,9.3,9.2,1.0*3D
$GPRMC,193246.000,A,3748.6184,N,12217.9699,W,2.94,136.15,210611,,,D*73
$GPVTG,136.15,T,,M,2.94,N,5.4,K,D*06
$GPGGA,193247.000,3748.6174,N,12217.9692,W,2,03,9.2,-35.2,M,-25.1,M,2.8,0000*56
$GPGSA,A,2,10,07,08,,,,,,,,,,9.3,9.2,1.0*3D
$GPRMC,193247.000,A,3748.6174,N,12217.9692,W,2.71,130.99,210611,,,D*7F
$GPVTG,130.99,T,,M,2.71,N,5.0,K,D*0B
$GPGGA,193248.000,3748.6178,N,12217.9687,W,2,03,9.2,-35.5,M,-25.1,M,3.8,0000*57
$GPGSA,A,2,10,07,08,,,,,,,,,,9.3,9.2,1.0*3D
$GPRMC,193248.000,A,3748.6178,N,12217.9687,W,1.95,116.55,210611,,,D*75
$GPVTG,116.55,T,,M,1.95,N,3.6,K,D*06
$GPGGA,193249.000,3748.6181,N,12217.9680,W,2,03,9.2,-35.3,M,-25.1,M,4.8,0000*56
$GPGSA,A,2,10,07,08,,,,,,,,,,9.3,9.2,1.0*3D
$GPRMC,193249.000,A,3748.6181,N,12217.9680,W,2.17,112.39,210611,,,D*72
$GPVTG,112.39,T,,M,2.17,N,4.0,K,D*00
$GPGGA,193250.000,3748.6173,N,12217.9673,W,2,03,9.2,-36.0,M,-25.1,M,1.8,0000*5A
$GPGSA,A,2,10,07,08,,,,,,,,,,9.3,9.2,1.0*3D
$GPGSV,3,1,11,13,75,036,27,07,54,288,28,23,52,109,34,10,41,290,26*77
$GPGSV,3,2,11,08,30,265,31,16,29,044,25,03,25,089,18,06,19,073,18*74
$GPGSV,3,3,11,05,04,325,15,28,03,208,13,48,44,197,36*4F
$GPRMC,193250.000,A,3748.6173,N,12217.9673,W,2.92,125.26,210611,,,D*7C
$GPVTG,125.26,T,,M,2.92,N,5.4,K,D*02
$GPGGA,193251.000,3748.6157,N,12217.9662,W,2,03,9.2,-35.3,M,-25.1,M,1.8,0000*5D
$GPGSA,A,2,10,07,08,,,,,,,,,,9.3,9.2,1.0*3D
$GPRMC,193251.000,A,3748.6157,N,12217.9662,W,2.42,111.52,210611,,,D*72
$GPVTG,111.52,T,,M,2.42,N,4.5,K,D*0B
$GPGGA,193252.000,3748.6158,N,12217.9657,W,2,03,9.2,-35.7,M,-25.1,M,1.8,0000*53
$GPGSA,A,2,10,07,08,,,,,,,,,,9.3,9.2,1.0*3D
$GPRMC,193252.000,A,3748.6158,N,12217.9657,W,1.95,106.09,210611,,,D*79
$GPVTG,106.09,T,,M,1.95,N,3.6,K,D*0E
$GPGGA,193253.000,3748.6176,N,12217.9659,W,2,03,9.2,-37.4,M,-25.1,M,2.8,0000*52
$GPGSA,A,2,10,07,08,,,,,,,,,,9.3,9.2,1.0*3D
$GPRMC,193253.000,A,3748.6176,N,12217.9659,W,1.48,44.60,210611,,,D*42
$GPVTG,44.60,T,,M,1.48,N,2.7,K,D*36
$GPGGA,193254.000,3748.6188,N,12217.9656,W,2,03,9.2,-37.5,M,-25.1,M,3.8,0000*5B
$GPGSA,A,2,10,07,08,,,,,,,,,,9.3,9.2,1.0*3D
$GPRMC,193254.000,A,3748.6188,N,12217.9656,W,2.05,32.01,210611,,,D*47
$GPVTG,32.01,T,,M,2.05,N,3.8,K,D*34
$GPGGA,193255.000,3748.6192,N,12217.9655,W,2,03,9.2,-38.4,M,-25.1,M,4.8,0000*5B
$GPGSA,A,2,10,07,08,,,,,,,,,,9.3,9.2,1.0*3D
$GPGSV,3,1,11,13,75,036,26,07,54,288,26,23,52,109,35,10,41,290,25*7A
$GPGSV,3,2,11,08,30,265,31,16,29,044,22,03,25,089,19,06,19,073,19*73
$GPGSV,3,3,11,05,04,325,14,28,03,208,13,48,44,197,34*4C
$GPRMC,193255.000,A,3748.6192,N,12217.9655,W,2.38,19.88,210611,,,D*48
$GPVTG,19.88,T,,M,2.38,N,4.4,K,D*39
$GPGGA,193256.000,3748.6184,N,12217.9653,W,2,03,9.2,-39.6,M,-25.1,M,1.8,0000*5F
$GPGSA,A,2,10,07,08,,,,,,,,,,9.3,9.2,1.0*3D
$GPRMC,193256.000,A,3748.6184,N,12217.9653,W,2.03,29.10,210611,,,D*40
$GPVTG,29.10,T,,M,2.03,N,3.8,K,D*38
$GPGGA,193257.000,3748.6190,N,12217.9652,W,2,03,9.2,-40.3,M,-25.1,M,1.8,0000*51
$GPGSA,A,2,10,07,08,,,,,,,,,,9.3,9.2,1.0*3D
$GPRMC,193257.000,A,3748.6190,N,12217.9652,W,2.44,10.98,210611,,,D*4C
$GPVTG,10.98,T,,M,2.44,N,4.5,K,D*3B
$GPGGA,193258.000,3748.6185,N,12217.9647,W,2,03,9.2,-39.6,M,-25.1,M,1.8,0000*55
$GPGSA,A,2,10,07,08,,,,,,,,,,9.3,9.2,1.0*3D
$GPRMC,193258.000,A,3748.6185,N,12217.9647,W,1.97,16.68,210611,,,D*47
$GPVTG,16.68,T,,M,1.97,N,3.6,K,D*3B
$GPGGA,193259.000,3748.6159,N,12217.9639,W,2,03,9.2,-39.3,M,-25.1,M,1.8,0000*59
$GPGSA,A,2,10,07,08,,,,,,,,,,9.3,9.2,1.0*3D
$GPRMC,193259.000,A,3748.6159,N,12217.9639,W,1.35,59.53,210611,,,D*45
$GPVTG,59.53,T,,M,1.35,N,2.5,K,D*32
$GPGGA,193300.000,3748.6135,N,12217.9627,W,2,03,9.3,-37.5,M,-25.1,M,2.8,0000*5B
$GPGSA,A,2,10,07,08,,,,,,,,,,9.3,9.3,1.0*3C
$GPGSV,3,1,11,13,75,036,26,07,54,288,26,23,52,109,35,10,41,290,25*7A
$GPGSV,3,2,11,08,30,265,31,16,29,044,22,03,25,089,23,06,19,073,18*7B
$GPGSV,3,3,11,05,04,325,13,28,03,208,13,48,44,197,38*47
$GPRMC,193300.000,A,3748.6135,N,12217.9627,W,1.61,64.25,210611,,,D*43
$GPVTG,64.25,T,,M,1.61,N,3.0,K,D*38
$GPGGA,193301.000,3748.6132,N,12217.9621,W,2,03,9.3,-36.8,M,-25.1,M,3.8,0000*56
$GPGSA,A,2,10,07,08,,,,,,,,,,9.3,9.3,1.0*3C
$GPRMC,193301.000,A,3748.6132,N,12217.9621,W,1.63,47.47,210611,,,D*44
$GPVTG,47.47,T,,M,1.63,N,3.0,K,D*3F
$GPGGA,193302.000,3748.6130,N,12217.9618,W,2,03,9.3,-37.2,M,-25.1,M,1.8,0000*54
$GPGSA,A,2,10,07,08,,,,,,,,,,9.3,9.3,1.0*3C
$GPRMC,193302.000,A,3748.6130,N,12217.9618,W,0.96,66.80,210611,,,D*4C
$GPVTG,66.80,T,,M,0.96,N,1.8,K,D*36
$GPGGA,193303.000,3748.6117,N,12217.9611,W,2,03,9.3,-36.6,M,-25.1,M,1.8,0000*5C
$GPGSA,A,2,10,07,08,,,,,,,,,,9.3,9.3,1.0*3C
$GPRMC,193303.000,A,3748.6117,N,12217.9611,W,1.22,109.40,210611,,,D*7B
$GPVTG,109.40,T,,M,1.22,N,2.3,K,D*04
$GPGGA,193304.000,3748.6090,N,12217.9608,W,2,04,6.2,-35.3,M,-25.1,M,1.8,0000*52
$GPGSA,A,3,06,10,07,08,,,,,,,,,8.2,6.2,5.3*32
$GPRMC,193304.000,A,3748.6090,N,12217.9608,W,1.34,124.02,210611,,,D*74
$GPVTG,124.02,T,,M,1.34,N,2.5,K,D*0C
$GPGGA,193305.000,3748.6082,N,12217.9607,W,2,04,6.2,-34.2,M,-25.1,M,2.8,0000*5C
$GPGSA,A,3,06,10,07,08,,,,,,,,,8.2,6.2,5.3*32
$GPGSV,3,1,11,13,75,036,27,07,54,288,25,23,52,109,35,10,41,290,25*78
$GPGSV,3,2,11,08,30,265,31,16,29,044,21,03,25,089,32,06,19,073,19*79
$GPGSV,3,3,11,05,04,325,,28,03,208,12,48,44,197,38*44
