$ADVER,3080,2.3
$GPRMC,190934.163,A,3748.8016,N,12217.8619,W,0.26,333.68,181011,,,D*7C
$GPRMC,190935.163,A,3748.8009,N,12217.8610,W,0.33,330.88,181011,,,D*73
$GPRMC,190936.163,A,3748.8014,N,12217.8614,W,0.29,340.82,181011,,,D*7E
$GPRMC,190937.000,A,3748.8016,N,12217.8615,W,0.36,16.18,181011,,,D*45
$GPRMC,190938.000,A,3748.8019,N,12217.8616,W,0.11,251.97,181011,,,D*75
$GPRMC,190939.000,A,3748.8006,N,12217.8614,W,1.14,169.69,181011,,,D*75
$GPRMC,190940.000,A,3748.8000,N,12217.8608,W,1.39,148.92,181011,,,D*78
$GPRMC,190941.000,A,3748.8004,N,12217.8610,W,0.84,146.79,181011,,,D*78
$GPRMC,190942.000,A,3748.8015,N,12217.8613,W,0.25,351.98,181011,,,D*78
$GPRMC,190943.000,A,3748.8024,N,12217.8623,W,0.20,256.39,181011,,,D*70
$GPRMC,190944.000,A,3748.8029,N,12217.8631,W,0.33,257.97,181011,,,D*7E
$GPRMC,190945.000,A,3748.8030,N,12217.8633,W,0.98,163.74,181011,,,D*7D
$GPRMC,190946.000,A,3748.8029,N,12217.8634,W,0.60,23.50,181011,,,D*45
$GPRMC,190947.000,A,3748.8038,N,12217.8649,W,2.26,305.93,181011,,,D*76
$GPRMC,190948.000,A,3748.8054,N,12217.8657,W,1.43,340.77,181011,,,D*77
$GPRMC,190949.000,A,3748.8049,N,12217.8646,W,0.30,47.84,181011,,,D*47
$GPRMC,190950.000,A,3748.8055,N,12217.8641,W,1.06,121.33,181011,,,D*7C
$GPRMC,190951.000,A,3748.8053,N,12217.8642,W,1.23,102.65,181011,,,A*78
$GPRMC,190952.000,A,3748.8055,N,12217.8648,W,1.01,127.86,181011,,,A*7D
$GPRMC,190953.000,A,3748.8030,N,12217.8628,W,3.65,140.78,181011,,,A*79
$GPRMC,190954.000,A,3748.8013,N,12217.8616,W,4.49,149.20,181011,,,A*7F
$GPRMC,190955.000,A,3748.7992,N,12217.8601,W,4.64,149.93,181011,,,A*70
$GPRMC,190956.000,A,3748.7970,N,12217.8587,W,4.10,150.07,181011,,,A*74
$GPRMC,190957.000,A,3748.7966,N,12217.8582,W,2.92,149.53,181011,,,A*72
$GPRMC,190958.000,A,3748.7967,N,12217.8580,W,2.29,146.08,181011,,,A*7F
$GPRMC,190959.000,A,3748.7979,N,12217.8590,W,0.90,178.74,181011,,,A*76
$GPRMC,191000.000,A,3748.7989,N,12217.8594,W,0.68,218.02,181011,,,A*7A
$GPRMC,191001.000,A,3748.7979,N,12217.8597,W,0.83,192.63,181011,,,A*74
$GPRMC,191002.000,A,3748.7976,N,12217.8598,W,0.76,226.32,181011,,,A*75
$GPRMC,191003.000,A,3748.7982,N,12217.8599,W,0.64,344.86,181011,,,A*77
$GPRMC,191004.000,A,3748.7990,N,12217.8599,W,0.61,345.43,181011,,,A*7E
$GPRMC,191005.000,A,3748.7994,N,12217.8599,W,0.37,326.95,181011,,,A*76
$GPRMC,191006.000,A,3748.7992,N,12217.8596,W,0.41,335.93,181011,,,A*79
$GPRMC,191007.000,A,3748.7981,N,12217.8587,W,0.33,344.97,181011,,,A*7D
$GPRMC,191008.000,A,3748.7987,N,12217.8592,W,0.48,332.73,181011,,,A*77
$GPRMC,191009.000,A,3748.7985,N,12217.8593,W,0.52,354.14,181011,,,A*7F
$GPRMC,191010.000,A,3748.7983,N,12217.8588,W,0.84,331.41,181011,,,A*73
$GPRMC,191011.000,A,3748.8000,N,12217.8598,W,1.24,319.97,181011,,,A*74
$GPRMC,191012.000,A,3748.7997,N,12217.8593,W,0.60,337.24,181011,,,A*71
$GPRMC,191013.000,A,3748.7999,N,12217.8594,W,0.40,321.24,181011,,,A*7C
$GPRMC,191014.000,A,3748.8006,N,12217.8600,W,0.99,295.26,181011,,,A*7D
$GPRMC,191015.000,A,3748.8007,N,12217.8602,W,1.17,259.06,181011,,,A*7A
$GPRMC,191016.000,A,3748.7999,N,12217.8596,W,1.64,175.89,181011,,,A*78
$GPRMC,191017.000,A,3748.7996,N,12217.8592,W,0.50,146.90,181011,,,A*7C
$GPRMC,191018.000,A,3748.7990,N,12217.8585,W,0.75,145.06,181011,,,A*78
$GPRMC,191019.000,A,3748.7989,N,12217.8583,W,0.17,290.15,181011,,,A*7A
$GPRMC,191020.000,A,3748.7995,N,12217.8584,W,1.53,330.55,181011,,,A*74
$GPRMC,191021.000,A,3748.8017,N,12217.8597,W,2.78,331.25,181011,,,A*77
$GPRMC,191022.000,A,3748.8044,N,12217.8613,W,0.68,3.75,181011,,,A*79
$GPRMC,191023.000,A,3748.8060,N,12217.8620,W,0.49,2.19,181011,,,A*76
$GPRMC,191024.000,A,3748.8067,N,12217.8623,W,0.18,30.46,181011,,,A*4A
$GPRMC,191025.000,A,3748.8072,N,12217.8624,W,0.21,12.67,181011,,,A*41
$GPRMC,191026.000,A,3748.8074,N,12217.8623,W,0.18,24.39,181011,,,A*47
$GPRMC,191027.000,A,3748.8071,N,12217.8620,W,0.15,108.74,181011,,,A*7B
$GPRMC,191028.000,A,3748.8068,N,12217.8619,W,0.17,15.52,181011,,,A*4D
$GPRMC,191029.000,A,3748.8069,N,12217.8618,W,0.14,25.90,181011,,,A*42
$GPRMC,191030.000,A,3748.8068,N,12217.8618,W,0.30,7.09,181011,,,A*7D
$GPRMC,191031.000,A,3748.8066,N,12217.8617,W,0.03,166.63,181011,,,A*77
$GPRMC,191032.000,A,3748.8055,N,12217.8614,W,1.29,210.73,181011,,,A*7D
$GPRMC,191033.000,A,3748.8038,N,12217.8617,W,1.63,180.88,181011,,,A*74
$GPRMC,191034.000,A,3748.8025,N,12217.8617,W,2.09,168.99,181011,,,A*76
$GPRMC,191035.000,A,3748.8020,N,12217.8620,W,1.71,178.54,181011,,,A*7A
$GPRMC,191036.000,A,3748.8012,N,12217.8620,W,2.06,172.59,181011,,,A*7C
$GPRMC,191037.000,A,3748.8001,N,12217.8620,W,1.90,164.62,181011,,,A*7C
$GPRMC,191038.000,A,3748.7987,N,12217.8621,W,2.03,170.10,181011,,,A*73
$GPRMC,191039.000,A,3748.7976,N,12217.8624,W,1.67,192.48,181011,,,A*79
$GPRMC,191040.000,A,3748.7962,N,12217.8625,W,1.51,170.09,181011,,,A*7F
$GPRMC,191041.000,A,3748.7953,N,12217.8626,W,1.78,179.90,181011,,,D*78
$GPRMC,191042.000,A,3748.7944,N,12217.8631,W,2.15,182.58,181011,,,D*73
$GPRMC,191043.000,A,3748.7939,N,12217.8644,W,2.83,199.08,181011,,,D*7A
$GPRMC,191044.000,A,3748.7936,N,12217.8655,W,2.24,203.28,181011,,,D*7D
$GPRMC,191045.000,A,3748.7934,N,12217.8662,W,1.76,167.41,181011,,,D*70
$GPRMC,191046.000,A,3748.7927,N,12217.8664,W,1.45,131.71,181011,,,D*77
$GPRMC,191047.000,A,3748.7915,N,12217.8664,W,2.69,141.50,181011,,,D*7E
$GPRMC,191048.000,A,3748.7906,N,12217.8662,W,1.85,143.83,181011,,,D*78
$GPRMC,191049.000,A,3748.7908,N,12217.8667,W,1.95,171.29,181011,,,D*72
$GPRMC,191050.000,A,3748.7907,N,12217.8677,W,2.07,174.02,181011,,,D*70
$GPRMC,191051.000,A,3748.7902,N,12217.8687,W,2.42,181.72,181011,,,D*77
$GPRMC,191052.000,A,3748.7896,N,12217.8690,W,2.20,169.42,181011,,,D*7F
$GPRMC,191053.000,A,3748.7893,N,12217.8694,W,1.90,163.82,181011,,,D*71
$GPRMC,191054.000,A,3748.7888,N,12217.8696,W,1.15,180.01,181011,,,D*75
$GPRMC,191055.000,A,3748.7888,N,12217.8704,W,1.16,175.14,181011,,,D*73
$GPRMC,191056.000,A,3748.7878,N,12217.8711,W,1.64,188.43,181011,,,D*7E
$GPRMC,191057.000,A,3748.7875,N,12217.8713,W,1.70,175.21,181011,,,D*73
$GPRMC,191058.000,A,3748.7859,N,12217.8716,W,1.78,182.73,181011,,,D*70
$GPRMC,191059.000,A,3748.7845,N,12217.8723,W,2.00,178.02,181011,,,D*75
$GPRMC,191100.000,A,3748.7830,N,12217.8727,W,1.88,193.83,181011,,,D*71
$GPRMC,191101.000,A,3748.7815,N,12217.8728,W,2.14,179.67,181011,,,D*70
$GPRMC,191102.000,A,3748.7805,N,12217.8731,W,1.90,184.94,181011,,,D*7B
$GPRMC,191103.000,A,3748.7783,N,12217.8734,W,2.65,177.04,181011,,,D*72
$GPRMC,191104.000,A,3748.7763,N,12217.8738,W,3.14,172.58,181011,,,D*7C
$GPRMC,191105.000,A,3748.7757,N,12217.8741,W,2.75,172.22,181011,,,D*7F
$GPRMC,191106.000,A,3748.7753,N,12217.8751,W,1.70,190.83,181011,,,D*78
$GPRMC,191107.000,A,3748.7758,N,12217.8757,W,1.52,182.50,181011,,,D*79
$GPRMC,191108.000,A,3748.7755,N,12217.8764,W,2.03,209.29,181011,,,D*72
$GPRMC,191109.000,A,3748.7740,N,12217.8769,W,2.38,193.11,181011,,,D*79
$GPRMC,191110.000,A,3748.7734,N,12217.8771,W,2.30,190.70,181011,,,D*77
$GPRMC,191111.000,A,3748.7725,N,12217.8777,W,1.83,208.33,181011,,,D*7E
$GPRMC,191112.000,A,3748.7725,N,12217.8786,W,1.64,192.73,181011,,,D*7E
$GPRMC,191113.000,A,3748.7721,N,12217.8791,W,2.93,160.03,181011,,,D*7C
$GPRMC,191114.000,A,3748.7717,N,12217.8797,W,2.51,164.62,181011,,,A*70
$GPRMC,191115.000,A,3748.7702,N,12217.8801,W,2.31,174.26,181011,,,A*72
$GPRMC,191116.000,A,3748.7689,N,12217.8801,W,2.78,186.20,181011,,,A*75
$GPRMC,191117.000,A,3748.7681,N,12217.8804,W,2.39,185.25,181011,,,A*7A
$GPRMC,191118.000,A,3748.7668,N,12217.8807,W,2.00,194.52,181011,,,A*7B
$GPRMC,191119.000,A,3748.7660,N,12217.8813,W,2.30,218.66,181011,,,A*74
$GPRMC,191120.000,A,3748.7651,N,12217.8820,W,2.33,210.14,181011,,,A*72
$GPRMC,191121.000,A,3748.7647,N,12217.8827,W,2.40,206.00,181011,,,A*75
$GPRMC,191122.000,A,3748.7637,N,12217.8837,W,2.31,222.88,181011,,,A*70
$GPRMC,191123.000,A,3748.7626,N,12217.8846,W,2.20,201.44,181011,,,A*76
$GPRMC,191124.000,A,3748.7618,N,12217.8851,W,2.26,182.39,181011,,,A*7E
$GPRMC,191125.000,A,3748.7606,N,12217.8858,W,2.53,182.57,181011,,,A*73
$GPRMC,191126.000,A,3748.7589,N,12217.8862,W,2.68,175.75,181011,,,A*7D
$GPRMC,191127.000,A,3748.7578,N,12217.8869,W,2.65,179.94,181011,,,A*77
$GPRMC,191128.000,A,3748.7564,N,12217.8871,W,2.69,175.71,181011,,,A*77
$GPRMC,191129.000,A,3748.7569,N,12217.8876,W,1.69,190.46,181011,,,A*70
$GPRMC,191130.000,A,3748.7566,N,12217.8883,W,1.98,185.63,181011,,,A*70
$GPRMC,191131.000,A,3748.7559,N,12217.8891,W,1.84,199.12,181011,,,A*78
$GPRMC,191132.000,A,3748.7555,N,12217.8901,W,1.68,222.54,181011,,,A*7C
$GPRMC,191133.000,A,3748.7546,N,12217.8913,W,1.57,198.31,181011,,,A*71
$GPRMC,191134.000,A,3748.7532,N,12217.8915,W,2.21,178.44,181011,,,A*7D
$GPRMC,191135.000,A,3748.7520,N,12217.8922,W,3.16,189.41,181011,,,A*75
$GPRMC,191136.000,A,3748.7512,N,12217.8927,W,3.17,181.52,181011,,,A*79
$GPRMC,191137.000,A,3748.7495,N,12217.8933,W,4.54,187.25,181011,,,A*75
$GPRMC,191138.000,A,3748.7482,N,12217.8939,W,3.68,185.02,181011,,,A*79
$GPRMC,191139.000,A,3748.7474,N,12217.8945,W,3.21,186.54,181011,,,A*77
$GPRMC,191140.000,A,3748.7471,N,12217.8950,W,2.95,190.59,181011,,,A*7C
$GPRMC,191141.000,A,3748.7456,N,12217.8959,W,3.59,190.20,181011,,,A*7E
$GPRMC,191142.000,A,3748.7448,N,12217.8971,W,3.31,181.66,181011,,,A*74
$GPRMC,191143.000,A,3748.7442,N,12217.8977,W,2.38,194.24,181011,,,A*73
$GPRMC,191144.000,A,3748.7448,N,12217.9006,W,1.98,192.21,181011,,,A*7A
$GPRMC,191145.000,A,3748.7446,N,12217.9026,W,2.64,196.53,181011,,,A*76
$GPRMC,191146.000,A,3748.7442,N,12217.9045,W,3.49,205.46,181011,,,A*77
$GPRMC,191147.000,A,3748.7445,N,12217.9063,W,3.18,205.88,181011,,,A*73
$GPRMC,191148.000,A,3748.7449,N,12217.9078,W,2.11,227.14,181011,,,A*77
$GPRMC,191149.000,A,3748.7459,N,12217.9095,W,1.85,270.48,181011,,,A*71
$GPRMC,191150.000,A,3748.7462,N,12217.9104,W,1.33,253.52,181011,,,A*7F
$GPRMC,191151.000,A,3748.7460,N,12217.9110,W,1.76,250.01,181011,,,A*7D
$GPRMC,191152.000,A,3748.7451,N,12217.9116,W,2.00,198.02,181011,,,A*7C
$GPRMC,191153.000,A,3748.7451,N,12217.9117,W,1.52,200.08,181011,,,A*70
$GPRMC,191154.000,A,3748.7443,N,12217.9119,W,2.24,217.26,181011,,,A*72
$GPRMC,191155.000,A,3748.7441,N,12217.9128,W,2.65,219.53,181011,,,A*7A
$GPRMC,191156.000,A,3748.7434,N,12217.9133,W,2.61,215.72,181011,,,A*7A
$GPRMC,191157.000,A,3748.7427,N,12217.9142,W,3.10,220.67,181011,,,A*7A
$GPRMC,191158.000,A,3748.7419,N,12217.9158,W,2.98,220.31,181011,,,A*71
$GPRMC,191159.000,A,3748.7410,N,12217.9168,W,2.73,213.73,181011,,,A*79
$GPRMC,191200.000,A,3748.7401,N,12217.9177,W,2.89,212.39,181011,,,A*72
$GPRMC,191201.000,A,3748.7391,N,12217.9184,W,2.51,208.49,181011,,,A*78
$GPRMC,191202.000,A,3748.7390,N,12217.9190,W,2.45,215.83,181011,,,A*70
$GPRMC,191203.000,A,3748.7387,N,12217.9201,W,1.86,220.57,181011,,,A*7F
$GPRMC,191204.000,A,3748.7383,N,12217.9203,W,1.79,196.20,181011,,,A*70
$GPRMC,191205.000,A,3748.7375,N,12217.9207,W,2.42,212.10,181011,,,A*7B
$GPRMC,191206.000,A,3748.7367,N,12217.9213,W,2.88,198.11,181011,,,A*78
$GPRMC,191207.000,A,3748.7357,N,12217.9216,W,2.48,184.68,181011,,,A*70
$GPRMC,191208.000,A,3748.7351,N,12217.9219,W,2.00,189.22,181011,,,A*79
$GPRMC,191209.000,A,3748.7344,N,12217.9227,W,2.68,210.58,181011,,,A*71
$GPRMC,191210.000,A,3748.7334,N,12217.9237,W,2.52,208.59,181011,,,A*7E
$GPRMC,191211.000,A,3748.7325,N,12217.9243,W,2.54,201.60,181011,,,A*79
$GPRMC,191212.000,A,3748.7315,N,12217.9247,W,2.75,209.19,181011,,,A*78
$GPRMC,191213.000,A,3748.7306,N,12217.9254,W,2.58,206.37,181011,,,A*75
$GPRMC,191214.000,A,3748.7297,N,12217.9262,W,2.86,213.29,181011,,,A*76
$GPRMC,191215.000,A,3748.7290,N,12217.9266,W,2.61,199.25,181011,,,A*70
$GPRMC,191216.000,A,3748.7277,N,12217.9267,W,2.44,191.68,181011,,,A*7D
$GPRMC,191217.000,A,3748.7268,N,12217.9270,W,2.30,180.81,181011,,,A*70
$GPRMC,191218.000,A,3748.7262,N,12217.9273,W,2.30,187.10,181011,,,A*79
$GPRMC,191219.000,A,3748.7257,N,12217.9269,W,1.87,182.48,181011,,,A*72
$GPRMC,191220.000,A,3748.7251,N,12217.9270,W,2.61,203.84,181011,,,A*77
$GPRMC,191221.000,A,3748.7245,N,12217.9272,W,2.42,197.16,181011,,,A*75
$GPRMC,191222.000,A,3748.7236,N,12217.9276,W,2.22,194.17,181011,,,A*72
$GPRMC,191223.000,A,3748.7227,N,12217.9284,W,3.16,208.56,181011,,,A*7B
$GPRMC,191224.000,A,3748.7219,N,12217.9289,W,2.86,206.16,181011,,,A*7E
$GPRMC,191225.000,A,3748.7207,N,12217.9302,W,2.49,204.74,181011,,,A*77
$GPRMC,191226.000,A,3748.7197,N,12217.9309,W,2.34,196.88,181011,,,A*74
$GPRMC,191227.000,A,3748.7186,N,12217.9316,W,2.35,186.81,181011,,,A*72
$GPRMC,191228.000,A,3748.7177,N,12217.9317,W,3.21,191.88,181011,,,A*79
$GPRMC,191229.000,A,3748.7167,N,12217.9322,W,3.18,181.19,181011,,,A*7C
$GPRMC,191230.000,A,3748.7155,N,12217.9328,W,3.88,192.02,181011,,,A*7E
$GPRMC,191231.000,A,3748.7143,N,12217.9336,W,3.49,195.17,181011,,,A*79
$GPRMC,191232.000,A,3748.7135,N,12217.9337,W,2.95,189.89,181011,,,A*70
$GPRMC,191233.000,A,3748.7128,N,12217.9337,W,2.97,196.21,181011,,,A*73
$GPRMC,191234.000,A,3748.7118,N,12217.9349,W,3.57,202.11,181011,,,A*7E
$GPRMC,191235.000,A,3748.7108,N,12217.9357,W,3.23,197.08,181011,,,A*75
$GPRMC,191236.000,A,3748.7097,N,12217.9368,W,3.10,194.85,181011,,,A*7B
$GPRMC,191237.000,A,3748.7089,N,12217.9372,W,3.05,186.44,181011,,,A*74
$GPRMC,191238.000,A,3748.7078,N,12217.9379,W,3.43,182.63,181011,,,A*7D
$GPRMC,191239.000,A,3748.7069,N,12217.9383,W,2.98,184.34,181011,,,A*7A
$GPRMC,191240.000,A,3748.7060,N,12217.9389,W,2.66,180.78,181011,,,A*7A
$GPRMC,191241.000,A,3748.7052,N,12217.9392,W,2.87,187.12,181011,,,A*74
$GPRMC,191242.000,A,3748.7044,N,12217.9397,W,3.27,193.22,181011,,,A*78
$GPRMC,191243.000,A,3748.7037,N,12217.9399,W,2.73,188.62,181011,,,A*7D
$GPRMC,191244.000,A,3748.7030,N,12217.9401,W,2.94,189.66,181011,,,A*77
$GPRMC,191245.000,A,3748.7022,N,12217.9403,W,2.91,178.04,181011,,,A*78
$GPRMC,191246.000,A,3748.7015,N,12217.9403,W,2.83,173.73,181011,,,A*77
$GPRMC,191247.000,A,3748.7006,N,12217.9407,W,3.22,189.94,181011,,,A*76
$GPRMC,191248.000,A,3748.6997,N,12217.9415,W,3.10,191.57,181011,,,A*7D
$GPRMC,191249.000,A,3748.6987,N,12217.9423,W,2.86,183.05,181011,,,A*72
$GPRMC,191250.000,A,3748.6978,N,12217.9429,W,2.88,185.72,181011,,,A*78
$GPRMC,191251.000,A,3748.6969,N,12217.9437,W,2.82,198.99,181011,,,A*75
$GPRMC,191252.000,A,3748.6961,N,12217.9448,W,2.94,199.79,181011,,,A*7E
$GPRMC,191253.000,A,3748.6953,N,12217.9451,W,2.76,207.03,181011,,,A*73
$GPRMC,191254.000,A,3748.6946,N,12217.9456,W,2.88,206.39,181011,,,A*7E
$GPRMC,191255.000,A,3748.6939,N,12217.9462,W,2.96,201.52,181011,,,A*75
$GPRMC,191256.000,A,3748.6932,N,12217.9468,W,2.74,189.55,181011,,,A*7F
$GPRMC,191257.000,A,3748.6925,N,12217.9470,W,2.54,185.23,181011,,,A*7E
$GPRMC,191258.000,A,3748.6919,N,12217.9469,W,2.85,198.96,181011,,,A*78
$GPRMC,191259.000,A,3748.6913,N,12217.9471,W,2.67,188.72,181011,,,A*7D
$GPRMC,191300.000,A,3748.6904,N,12217.9480,W,3.44,200.17,181011,,,A*78
$GPRMC,191301.000,A,3748.6895,N,12217.9491,W,2.97,198.87,181011,,,A*74
$GPRMC,191302.000,A,3748.6886,N,12217.9502,W,3.33,194.79,181011,,,A*7C
$GPRMC,191303.000,A,3748.6877,N,12217.9509,W,3.11,194.12,181011,,,A*75
$GPRMC,191304.000,A,3748.6871,N,12217.9516,W,2.63,187.03,181011,,,A*7C
$GPRMC,191305.000,A,3748.6863,N,12217.9521,W,2.67,187.78,181011,,,A*72
$GPRMC,191306.000,A,3748.6856,N,12217.9526,W,2.82,192.64,181011,,,A*72
$GPRMC,191307.000,A,3748.6849,N,12217.9531,W,2.77,191.28,181011,,,A*7A
$GPRMC,191308.000,A,3748.6841,N,12217.9535,W,2.63,193.80,181011,,,A*7C
$GPRMC,191309.000,A,3748.6835,N,12217.9539,W,2.36,194.19,181011,,,A*75
$GPRMC,191310.000,A,3748.6826,N,12217.9550,W,3.24,209.71,181011,,,A*7B
$GPRMC,191311.000,A,3748.6816,N,12217.9563,W,3.16,207.84,181011,,,A*7C
$GPRMC,191312.000,A,3748.6807,N,12217.9575,W,2.86,200.74,181011,,,A*78
$GPRMC,191313.000,A,3748.6800,N,12217.9577,W,2.88,190.73,181011,,,A*7F
$GPRMC,191314.000,A,3748.6792,N,12217.9584,W,3.13,197.82,181011,,,A*7A
$GPRMC,191315.000,A,3748.6782,N,12217.9595,W,2.87,193.95,181011,,,A*74
$GPRMC,191316.000,A,3748.6775,N,12217.9603,W,3.16,207.55,181011,,,A*78
$GPRMC,191317.000,A,3748.6768,N,12217.9615,W,2.84,205.20,181011,,,A*78
$GPRMC,191318.000,A,3748.6764,N,12217.9626,W,2.54,195.30,181011,,,A*7D
$GPRMC,191319.000,A,3748.6759,N,12217.9634,W,2.47,200.70,181011,,,A*78
$GPRMC,191320.000,A,3748.6751,N,12217.9640,W,2.74,195.21,181011,,,A*72
$GPRMC,191321.000,A,3748.6744,N,12217.9642,W,2.57,185.90,181011,,,A*7F
$GPRMC,191322.000,A,3748.6740,N,12217.9639,W,2.59,181.06,181011,,,A*71
$GPRMC,191323.000,A,3748.6740,N,12217.9637,W,2.46,176.00,181011,,,A*7E
$GPRMC,191324.000,A,3748.6734,N,12217.9636,W,1.83,177.29,181011,,,A*7B
$GPRMC,191325.000,A,3748.6727,N,12217.9641,W,2.17,183.18,181011,,,A*7F
$GPRMC,191326.000,A,3748.6717,N,12217.9646,W,2.45,178.60,181011,,,A*74
$GPRMC,191327.000,A,3748.6709,N,12217.9652,W,2.18,176.47,181011,,,A*7C
$GPRMC,191328.000,A,3748.6701,N,12217.9655,W,2.35,195.20,181011,,,A*7F
$GPRMC,191329.000,A,3748.6694,N,12217.9667,W,2.59,197.88,181011,,,A*78
$GPRMC,191330.000,A,3748.6685,N,12217.9675,W,2.62,196.48,181011,,,A*76
$GPRMC,191331.000,A,3748.6683,N,12217.9679,W,2.21,208.16,181011,,,A*75
$GPRMC,191332.000,A,3748.6676,N,12217.9690,W,2.35,213.80,181011,,,A*7B
$GPRMC,191333.000,A,3748.6668,N,12217.9701,W,2.56,197.88,181011,,,A*7E
$GPRMC,191334.000,A,3748.6658,N,12217.9708,W,3.28,192.49,181011,,,A*73
$GPRMC,191335.000,A,3748.6647,N,12217.9713,W,2.94,181.91,181011,,,A*77
$GPRMC,191336.000,A,3748.6640,N,12217.9725,W,3.05,194.05,181011,,,A*76
$GPRMC,191337.000,A,3748.6632,N,12217.9733,W,3.01,187.27,181011,,,A*73
$GPRMC,191338.000,A,3748.6619,N,12217.9741,W,3.62,181.59,181011,,,A*7A
$GPRMC,191339.000,A,3748.6609,N,12217.9743,W,2.76,174.21,181011,,,A*79
$GPRMC,191339.000,A,3748.6602,N,12217.9744,W,2.89,186.00,181011,,,A*7B
$GPRMC,191340.000,A,3748.6593,N,12217.9748,W,2.81,185.23,181011,,,A*78
$GPRMC,191341.000,A,3748.6586,N,12217.9748,W,2.37,175.33,181011,,,A*7E
$GPRMC,191342.000,A,3748.6578,N,12217.9753,W,1.92,180.81,181011,,,A*79
$GPRMC,191343.000,A,3748.6569,N,12217.9761,W,2.27,183.86,181011,,,A*70
$GPRMC,191344.000,A,3748.6562,N,12217.9765,W,2.33,179.36,181011,,,A*73
$GPRMC,191345.000,A,3748.6554,N,12217.9771,W,2.14,180.95,181011,,,A*78
$GPRMC,191346.000,A,3748.6546,N,12217.9780,W,2.51,195.83,181011,,,A*74
$GPRMC,191347.000,A,3748.6537,N,12217.9789,W,2.99,199.88,181011,,,A*79
$GPRMC,191348.000,A,3748.6529,N,12217.9796,W,3.22,192.92,181011,,,A*76
$GPRMC,191349.000,A,3748.6521,N,12217.9805,W,3.27,200.51,181011,,,A*78
$GPRMC,191350.000,A,3748.6516,N,12217.9814,W,2.63,196.50,181011,,,A*78
$GPRMC,191351.000,A,3748.6506,N,12217.9824,W,3.23,198.62,181011,,,A*71
$GPRMC,191352.000,A,3748.6497,N,12217.9832,W,2.92,201.66,181011,,,A*70
$GPRMC,191353.000,A,3748.6489,N,12217.9837,W,2.27,198.13,181011,,,A*74
$GPRMC,191354.000,A,3748.6483,N,12217.9840,W,2.18,196.34,181011,,,A*7E
$GPRMC,191355.000,A,3748.6477,N,12217.9845,W,2.05,186.11,181011,,,A*7B
$GPRMC,191356.000,A,3748.6471,N,12217.9848,W,2.45,195.95,181011,,,A*79
$GPRMC,191357.000,A,3748.6466,N,12217.9854,W,2.46,201.92,181011,,,A*79
$GPRMC,191358.000,A,3748.6461,N,12217.9858,W,2.61,195.30,181011,,,A*7E
$GPRMC,191359.000,A,3748.6456,N,12217.9863,W,2.19,186.58,181011,,,A*70
$GPRMC,191400.000,A,3748.6448,N,12217.9874,W,3.01,207.37,181011,,,A*79
$GPRMC,191401.000,A,3748.6440,N,12217.9881,W,2.62,191.66,181011,,,A*76
$GPRMC,191402.000,A,3748.6432,N,12217.9890,W,2.44,188.72,181011,,,A*79
$GPRMC,191403.000,A,3748.6424,N,12217.9901,W,2.67,199.25,181011,,,A*75
$GPRMC,191404.000,A,3748.6418,N,12217.9906,W,2.46,201.65,181011,,,A*7F
$GPRMC,191405.000,A,3748.6412,N,12217.9906,W,2.20,187.50,181011,,,A*7F
$GPRMC,191406.000,A,3748.6406,N,12217.9905,W,2.14,179.23,181011,,,A*78
$GPRMC,191407.000,A,3748.6401,N,12217.9907,W,1.91,169.88,181011,,,A*72
$GPRMC,191408.000,A,3748.6397,N,12217.9909,W,1.99,175.08,181011,,,A*76
$GPRMC,191409.000,A,3748.6392,N,12217.9910,W,1.97,194.27,181011,,,A*76
$GPRMC,191410.000,A,3748.6386,N,12217.9913,W,2.55,178.63,181011,,,A*77
$GPRMC,191411.000,A,3748.6379,N,12217.9920,W,2.71,205.20,181011,,,A*7E
$GPRMC,191412.000,A,3748.6372,N,12217.9925,W,2.43,194.04,181011,,,A*7F
$GPRMC,191413.000,A,3748.6366,N,12217.9930,W,2.82,200.46,181011,,,A*7A
$GPRMC,191414.000,A,3748.6357,N,12217.9941,W,2.79,196.50,181011,,,A*76
$GPRMC,191415.000,A,3748.6350,N,12217.9946,W,3.01,201.91,181011,,,A*79
$GPRMC,191416.000,A,3748.6341,N,12217.9958,W,3.02,205.07,181011,,,A*7D
$GPRMC,191417.000,A,3748.6332,N,12217.9966,W,2.95,201.72,181011,,,A*7C
$GPRMC,191418.000,A,3748.6326,N,12217.9974,W,2.52,194.69,181011,,,A*7B
$GPRMC,191419.000,A,3748.6319,N,12217.9973,W,2.92,197.43,181011,,,A*76
$GPRMC,191420.000,A,3748.6313,N,12217.9976,W,3.15,200.19,181011,,,A*7F
$GPRMC,191421.000,A,3748.6308,N,12217.9971,W,2.24,192.68,181011,,,A*7E
$GPRMC,191422.000,A,3748.6304,N,12217.9968,W,1.94,176.64,181011,,,A*77
$GPRMC,191423.000,A,3748.6299,N,12217.9966,W,1.96,181.89,181011,,,A*74
$GPRMC,191424.000,A,3748.6291,N,12217.9975,W,2.42,202.20,181011,,,A*78
$GPRMC,191425.000,A,3748.6286,N,12217.9982,W,2.53,202.59,181011,,,A*79
$GPRMC,191426.000,A,3748.6279,N,12217.9998,W,2.58,212.00,181011,,,A*77
$GPRMC,191427.000,A,3748.6270,N,12218.0005,W,2.56,198.89,181011,,,A*7A
$GPRMC,191428.000,A,3748.6263,N,12218.0014,W,2.64,188.08,181011,,,A*7E
$GPRMC,191429.000,A,3748.6255,N,12218.0027,W,3.77,186.29,181011,,,A*74
$GPRMC,191430.000,A,3748.6246,N,12218.0036,W,3.97,174.27,181011,,,A*73
$GPRMC,191431.000,A,3748.6247,N,12218.0047,W,1.99,161.66,181011,,,A*78
$GPRMC,191432.000,A,3748.6239,N,12218.0047,W,1.86,145.79,181011,,,A*74
$GPRMC,191433.000,A,3748.6233,N,12218.0047,W,1.57,121.75,181011,,,A*7D
$GPRMC,191434.000,A,3748.6231,N,12218.0046,W,1.14,103.51,181011,,,D*7D
$GPRMC,191435.000,A,3748.6233,N,12218.0049,W,1.29,74.57,181011,,,D*48
$GPRMC,191436.000,A,3748.6235,N,12218.0045,W,2.42,72.14,181011,,,D*4E
$GPRMC,191437.000,A,3748.6237,N,12218.0036,W,2.67,74.66,181011,,,D*4D
$GPRMC,191438.000,A,3748.6235,N,12218.0026,W,2.36,82.23,181011,,,D*4D
$GPRMC,191439.000,A,3748.6234,N,12218.0015,W,2.25,85.49,181011,,,D*44
$GPRMC,191440.000,A,3748.6230,N,12218.0012,W,2.06,94.09,181011,,,D*4C
$GPRMC,191441.000,A,3748.6223,N,12218.0003,W,1.72,93.81,181011,,,D*48
$GPRMC,191442.000,A,3748.6220,N,12217.9995,W,1.78,86.45,181011,,,D*4E
$GPRMC,191443.000,A,3748.6223,N,12217.9981,W,1.97,91.74,181011,,,D*4C
$GPRMC,191444.000,A,3748.6218,N,12217.9973,W,1.71,105.15,181011,,,D*7D
$GPRMC,191445.000,A,3748.6215,N,12217.9961,W,2.13,74.52,181011,,,D*41
$GPRMC,191446.000,A,3748.6212,N,12217.9950,W,1.70,65.22,181011,,,D*46
$GPRMC,191447.000,A,3748.6205,N,12217.9937,W,2.14,106.74,181011,,,D*76
$GPRMC,191448.000,A,3748.6200,N,12217.9924,W,1.81,89.69,181011,,,D*4B
$GPRMC,191449.000,A,3748.6195,N,12217.9910,W,1.73,80.66,181011,,,D*49
$GPRMC,191450.000,A,3748.6185,N,12217.9893,W,1.47,82.79,181011,,,D*41
$GPRMC,191451.000,A,3748.6180,N,12217.9879,W,1.28,77.10,181011,,,D*4D
$GPRMC,191452.000,A,3748.6171,N,12217.9866,W,1.73,92.57,181011,,,D*48
$GPRMC,191453.000,A,3748.6156,N,12217.9852,W,1.20,99.26,181011,,,D*40
$GPRMC,191454.000,A,3748.6149,N,12217.9837,W,2.32,96.38,181011,,,D*4A
$GPRMC,191455.000,A,3748.6146,N,12217.9826,W,1.92,84.92,181011,,,D*4E
$GPRMC,191456.000,A,3748.6140,N,12217.9813,W,2.09,77.32,181011,,,D*4A
$GPRMC,191457.000,A,3748.6131,N,12217.9798,W,1.61,81.14,181011,,,D*41
$GPRMC,191458.000,A,3748.6123,N,12217.9787,W,1.86,103.17,181011,,,D*72
$GPRMC,191459.000,A,3748.6108,N,12217.9775,W,2.20,117.22,181011,,,D*7B
$GPRMC,191500.000,A,3748.6106,N,12217.9771,W,2.06,121.51,181011,,,D*79
$GPRMC,191501.000,A,3748.6106,N,12217.9764,W,2.36,122.77,181011,,,D*78
$GPRMC,191502.000,A,3748.6106,N,12217.9756,W,2.13,85.80,181011,,,D*49
$GPRMC,191503.000,A,3748.6104,N,12217.9750,W,1.99,60.79,181011,,,D*40
$GPRMC,191504.000,A,3748.6100,N,12217.9741,W,1.88,103.24,181011,,,D*7F
$GPRMC,191505.000,A,3748.6093,N,12217.9732,W,2.86,107.48,181011,,,D*72
$GPRMC,191506.000,A,3748.6085,N,12217.9722,W,2.46,91.68,181011,,,D*47
$GPRMC,191507.000,A,3748.6077,N,12217.9710,W,2.30,91.50,181011,,,D*40
$GPRMC,191508.000,A,3748.6074,N,12217.9703,W,1.49,76.91,181011,,,D*47
$GPRMC,191509.000,A,3748.6068,N,12217.9693,W,1.21,83.18,181011,,,D*46
$GPRMC,191510.000,A,3748.6067,N,12217.9682,W,1.20,76.95,181011,,,D*4F
$GPRMC,191511.000,A,3748.6064,N,12217.9671,W,1.73,76.82,181011,,,D*41
$GPRMC,191512.000,A,3748.6061,N,12217.9658,W,1.87,79.14,181011,,,D*47
$GPRMC,191513.000,A,3748.6054,N,12217.9644,W,2.31,110.77,181011,,,D*78
$GPRMC,191514.000,A,3748.6048,N,12217.9633,W,1.62,107.24,181011,,,D*77
$GPRMC,191515.000,A,3748.6042,N,12217.9622,W,2.08,96.47,181011,,,D*4F
$GPRMC,191516.000,A,3748.6033,N,12217.9610,W,2.00,97.54,181011,,,A*45
$GPRMC,191517.000,A,3748.6028,N,12217.9597,W,1.82,107.09,181011,,,A*7B
$GPRMC,191518.000,A,3748.6022,N,12217.9586,W,1.62,108.09,181011,,,A*7F
$GPRMC,191519.000,A,3748.6012,N,12217.9576,W,1.59,102.02,181011,,,A*7B
$GPRMC,191520.000,A,3748.6007,N,12217.9568,W,1.53,116.57,181011,,,A*75
$GPRMC,191521.000,A,3748.5996,N,12217.9558,W,1.62,117.72,181011,,,A*71
$GPRMC,191522.000,A,3748.5987,N,12217.9550,W,1.71,124.38,181011,,,A*76
$GPRMC,191523.000,A,3748.5978,N,12217.9544,W,1.68,121.18,181011,,,A*7D
$GPRMC,191524.000,A,3748.5970,N,12217.9533,W,1.43,107.32,181011,,,A*77
$GPRMC,191525.000,A,3748.5963,N,12217.9524,W,1.56,111.12,181011,,,A*73
$GPRMC,191526.000,A,3748.5959,N,12217.9516,W,2.02,117.75,181011,,,A*7D
$GPRMC,191527.000,A,3748.5956,N,12217.9508,W,2.07,116.79,181011,,,A*74
$GPRMC,191528.000,A,3748.5955,N,12217.9500,W,2.48,118.13,181011,,,A*79
$GPRMC,191529.000,A,3748.5955,N,12217.9489,W,2.78,122.65,181011,,,A*73
$GPRMC,191530.000,A,3748.5950,N,12217.9476,W,2.77,121.08,181011,,,A*79
$GPRMC,191531.000,A,3748.5944,N,12217.9469,W,2.13,108.35,181011,,,A*74
$GPRMC,191532.000,A,3748.5940,N,12217.9465,W,1.62,93.12,181011,,,A*4C
$GPRMC,191533.000,A,3748.5937,N,12217.9458,W,1.70,88.35,181011,,,A*4F
$GPRMC,191534.000,A,3748.5936,N,12217.9450,W,2.09,115.77,181011,,,A*7F
$GPRMC,191535.000,A,3748.5931,N,12217.9440,W,2.42,119.77,181011,,,A*7B
$GPRMC,191536.000,A,3748.5923,N,12217.9426,W,2.70,90.91,181011,,,A*42
$GPRMC,191537.000,A,3748.5916,N,12217.9416,W,2.57,99.66,181011,,,A*42
$GPRMC,191538.000,A,3748.5903,N,12217.9412,W,1.96,123.00,181011,,,A*73
$GPRMC,191539.000,A,3748.5893,N,12217.9409,W,2.52,141.31,181011,,,A*7D
$GPRMC,191540.000,A,3748.5879,N,12217.9400,W,2.45,152.40,181011,,,A*7C
$GPRMC,191541.000,A,3748.5868,N,12217.9392,W,2.19,148.50,181011,,,A*72
$GPRMC,191542.000,A,3748.5862,N,12217.9385,W,1.82,152.21,181011,,,A*71
$GPRMC,191543.000,A,3748.5852,N,12217.9383,W,1.98,170.06,181011,,,A*7B
$GPRMC,191544.000,A,3748.5844,N,12217.9382,W,2.12,186.41,181011,,,A*71
$GPRMC,191545.000,A,3748.5838,N,12217.9382,W,1.86,186.66,181011,,,A*70
$GPRMC,191546.000,A,3748.5830,N,12217.9388,W,2.41,212.07,181011,,,A*70
$GPRMC,191547.000,A,3748.5824,N,12217.9392,W,2.22,207.08,181011,,,A*71
$GPRMC,191548.000,A,3748.5819,N,12217.9397,W,2.22,201.30,181011,,,A*78
$GPRMC,191549.000,A,3748.5813,N,12217.9403,W,1.95,195.00,181011,,,A*7B
$GPRMC,191550.000,A,3748.5811,N,12217.9407,W,1.70,193.65,181011,,,A*7B
$GPRMC,191551.000,A,3748.5805,N,12217.9412,W,2.24,193.09,181011,,,A*73
$GPRMC,191552.000,A,3748.5797,N,12217.9418,W,2.04,199.28,181011,,,A*75
$GPRMC,191553.000,A,3748.5792,N,12217.9422,W,2.00,191.71,181011,,,A*78
$GPRMC,191554.000,A,3748.5788,N,12217.9424,W,1.84,192.03,181011,,,A*7B
$GPRMC,191555.000,A,3748.5783,N,12217.9430,W,2.53,202.53,181011,,,A*72
$GPRMC,191556.000,A,3748.5774,N,12217.9437,W,2.55,190.07,181011,,,A*71
$GPRMC,191557.000,A,3748.5768,N,12217.9445,W,2.75,206.44,181011,,,A*71
$GPRMC,191558.000,A,3748.5764,N,12217.9450,W,2.61,203.91,181011,,,A*7E
$GPRMC,191559.000,A,3748.5757,N,12217.9459,W,2.81,205.59,181011,,,A*7A
$GPRMC,191600.000,A,3748.5747,N,12217.9464,W,2.47,195.48,181011,,,A*7A
$GPRMC,191601.000,A,3748.5740,N,12217.9468,W,1.92,215.65,181011,,,A*7F
$GPRMC,191602.000,A,3748.5736,N,12217.9476,W,1.99,222.82,181011,,,A*74
$GPRMC,191603.000,A,3748.5730,N,12217.9486,W,2.28,204.51,181011,,,A*7F
$GPRMC,191604.000,A,3748.5723,N,12217.9494,W,2.39,199.65,181011,,,A*79
$GPRMC,191605.000,A,3748.5717,N,12217.9500,W,2.43,200.70,181011,,,A*79
$GPRMC,191606.000,A,3748.5711,N,12217.9506,W,2.48,203.09,181011,,,A*7C
$GPRMC,191607.000,A,3748.5702,N,12217.9513,W,2.40,200.50,181011,,,A*7C
$GPRMC,191608.000,A,3748.5695,N,12217.9518,W,2.35,189.08,181011,,,A*7A
$GPRMC,191609.000,A,3748.5689,N,12217.9520,W,2.12,182.44,181011,,,A*7B
$GPRMC,191610.000,A,3748.5682,N,12217.9521,W,2.13,194.13,181011,,,A*7D
$GPRMC,191611.000,A,3748.5675,N,12217.9523,W,2.82,204.33,181011,,,A*76
$GPRMC,191612.000,A,3748.5670,N,12217.9532,W,2.51,206.59,181011,,,A*70
$GPRMC,191613.000,A,3748.5660,N,12217.9545,W,2.77,214.51,181011,,,A*7F
$GPRMC,191614.000,A,3748.5649,N,12217.9558,W,3.35,212.71,181011,,,A*7C
$GPRMC,191615.000,A,3748.5640,N,12217.9565,W,2.92,200.80,181011,,,D*7E
$GPRMC,191616.000,A,3748.5633,N,12217.9567,W,2.49,182.73,181011,,,D*78
$GPRMC,191617.000,A,3748.5627,N,12217.9564,W,2.41,176.91,181011,,,D*70
$GPRMC,191618.000,A,3748.5624,N,12217.9565,W,2.07,188.53,181011,,,D*70
$GPRMC,191619.000,A,3748.5621,N,12217.9566,W,1.70,189.25,181011,,,D*74
$GPRMC,191620.000,A,3748.5617,N,12217.9568,W,1.48,173.48,181011,,,D*70
$GPRMC,191621.000,A,3748.5613,N,12217.9570,W,2.39,175.54,181011,,,D*72
$GPRMC,191622.000,A,3748.5605,N,12217.9572,W,2.14,177.28,181011,,,D*72
$GPRMC,191623.000,A,3748.5598,N,12217.9574,W,1.79,180.48,181011,,,D*74
$GPRMC,191624.000,A,3748.5590,N,12217.9575,W,2.27,197.69,181011,,,D*77
$GPRMC,191625.000,A,3748.5584,N,12217.9578,W,2.37,197.20,181011,,,D*72
$GPRMC,191626.000,A,3748.5576,N,12217.9582,W,2.19,196.29,181011,,,D*7D
$GPRMC,191627.000,A,3748.5565,N,12217.9591,W,2.73,203.99,181011,,,D*74
$GPRMC,191628.000,A,3748.5553,N,12217.9603,W,2.87,212.70,181011,,,D*7A
$GPRMC,191629.000,A,3748.5542,N,12217.9614,W,2.75,208.33,181011,,,D*7C
$GPRMC,191630.000,A,3748.5533,N,12217.9624,W,2.91,210.41,181011,,,D*77
$GPRMC,191631.000,A,3748.5524,N,12217.9631,W,3.12,197.69,181011,,,D*78
$GPRMC,191632.000,A,3748.5515,N,12217.9640,W,2.73,206.17,181011,,,D*7B
$GPRMC,191633.000,A,3748.5507,N,12217.9645,W,2.85,202.85,181011,,,A*7F
$GPRMC,191634.000,A,3748.5499,N,12217.9649,W,2.58,201.11,181011,,,A*7C
$GPRMC,191635.000,A,3748.5490,N,12217.9655,W,2.56,192.78,181011,,,A*71
$GPRMC,191636.000,A,3748.5481,N,12217.9659,W,2.82,200.73,181011,,,A*74
$GPRMC,191637.000,A,3748.5473,N,12217.9666,W,2.72,202.71,181011,,,A*7B
$GPRMC,191638.000,A,3748.5465,N,12217.9676,W,2.60,196.98,181011,,,A*78
$GPRMC,191639.000,A,3748.5458,N,12217.9681,W,2.85,180.58,181011,,,A*7F
$GPRMC,191640.000,A,3748.5450,N,12217.9686,W,2.74,186.40,181011,,,A*7F
$GPRMC,191641.000,A,3748.5443,N,12217.9690,W,2.42,188.75,181011,,,A*76
$GPRMC,191642.000,A,3748.5438,N,12217.9690,W,2.20,173.42,181011,,,A*7D
$GPRMC,191643.000,A,3748.5432,N,12217.9693,W,2.20,189.18,181011,,,A*7F
$GPRMC,191644.000,A,3748.5425,N,12217.9701,W,2.58,194.52,181011,,,A*79
$GPRMC,191645.000,A,3748.5418,N,12217.9708,W,2.96,196.50,181011,,,D*78
$GPRMC,191646.000,A,3748.5408,N,12217.9714,W,2.80,194.02,181011,,,D*75
$GPRMC,191647.000,A,3748.5399,N,12217.9719,W,2.40,184.83,181011,,,D*72
$GPRMC,191648.000,A,3748.5390,N,12217.9724,W,2.24,187.84,181011,,,D*7C
$GPRMC,191649.000,A,3748.5381,N,12217.9730,W,2.35,191.48,181011,,,D*7F
$GPRMC,191650.000,A,3748.5373,N,12217.9737,W,2.23,198.94,181011,,,D*72
$GPRMC,191651.000,A,3748.5366,N,12217.9744,W,2.47,195.60,181011,,,D*77
$GPRMC,191652.000,A,3748.5358,N,12217.9751,W,2.55,195.25,181011,,,D*7F
$GPRMC,191653.000,A,3748.5350,N,12217.9757,W,2.49,191.11,181011,,,D*7E
$GPRMC,191654.000,A,3748.5346,N,12217.9764,W,1.81,193.69,181011,,,D*74
$GPRMC,191655.000,A,3748.5339,N,12217.9772,W,0.88,221.84,181011,,,D*7B
$GPRMC,191656.000,A,3748.5333,N,12217.9775,W,0.81,282.54,181011,,,D*78
$GPRMC,191657.000,A,3748.5328,N,12217.9780,W,1.22,270.20,181011,,,D*7F
$GPRMC,191658.000,A,3748.5323,N,12217.9787,W,0.61,267.93,181011,,,D*74
$GPRMC,191659.000,A,3748.5329,N,12217.9792,W,0.63,320.24,181011,,,D*77
$GPRMC,191700.000,A,3748.5332,N,12217.9799,W,0.47,308.48,181011,,,D*7D
$GPRMC,191701.000,A,3748.5336,N,12217.9803,W,0.44,254.62,181011,,,D*77
$GPRMC,191702.000,A,3748.5336,N,12217.9810,W,0.87,242.13,181011,,,D*78
$GPRMC,191703.000,A,3748.5334,N,12217.9817,W,1.23,236.14,181011,,,D*77
$GPRMC,191704.000,A,3748.5334,N,12217.9823,W,0.96,225.60,181011,,,D*79
$GPRMC,191705.000,A,3748.5334,N,12217.9828,W,0.73,216.37,181011,,,D*7A
$GPRMC,191706.000,A,3748.5335,N,12217.9830,W,0.45,190.49,181011,,,D*70
$GPRMC,191707.000,A,3748.5334,N,12217.9833,W,0.56,187.22,181011,,,D*7A
$GPRMC,191708.000,A,3748.5333,N,12217.9834,W,0.17,130.76,181011,,,D*7D
$GPRMC,191709.000,A,3748.5333,N,12217.9835,W,0.18,102.09,181011,,,D*7B
$GPRMC,191710.000,A,3748.5334,N,12217.9836,W,0.15,23.39,181011,,,D*4B
$GPRMC,191711.000,A,3748.5334,N,12217.9838,W,0.21,3.03,181011,,,D*78
$GPRMC,191712.000,A,3748.5333,N,12217.9839,W,0.22,23.95,181011,,,D*43
$GPRMC,191713.000,A,3748.5329,N,12217.9843,W,0.24,172.30,181011,,,D*78
$GPRMC,191714.000,A,3748.5331,N,12217.9839,W,0.45,165.39,181011,,,D*73
$GPRMC,191715.000,A,3748.5331,N,12217.9834,W,0.65,113.19,181011,,,D*7E
$GPRMC,191716.000,A,3748.5330,N,12217.9833,W,1.15,68.39,181011,,,D*42
$GPRMC,191717.000,A,3748.5331,N,12217.9827,W,1.36,81.37,181011,,,D*4F
$GPRMC,191718.000,A,3748.5329,N,12217.9823,W,1.09,52.66,181011,,,D*4B
$GPRMC,191719.000,A,3748.5327,N,12217.9822,W,0.14,22.52,181011,,,D*48
$GPRMC,191720.000,A,3748.5325,N,12217.9824,W,0.17,283.23,181011,,,D*7A
$GPRMC,191721.000,A,3748.5323,N,12217.9826,W,0.22,307.60,181011,,,D*73
$GPRMC,191722.000,A,3748.5322,N,12217.9827,W,0.15,286.12,181011,,,D*79
$GPRMC,191723.000,A,3748.5320,N,12217.9828,W,0.24,148.40,181011,,,D*71
$GPRMC,191724.000,A,3748.5319,N,12217.9828,W,0.53,131.98,181011,,,D*77
$GPRMC,191725.000,A,3748.5318,N,12217.9827,W,0.27,120.99,181011,,,D*7A
$GPRMC,191726.000,A,3748.5317,N,12217.9827,W,0.13,63.95,181011,,,D*4B
$GPRMC,191727.000,A,3748.5317,N,12217.9828,W,0.12,352.06,181011,,,D*7F
$GPRMC,191728.000,A,3748.5317,N,12217.9828,W,0.14,340.09,181011,,,D*7A
$GPRMC,191729.000,A,3748.5318,N,12217.9829,W,0.48,312.39,181011,,,D*78
$GPRMC,191730.000,A,3748.5317,N,12217.9829,W,0.27,160.77,181011,,,D*7B
$GPRMC,191731.000,A,3748.5316,N,12217.9829,W,0.41,155.63,181011,,,D*78
$GPRMC,191732.000,A,3748.5316,N,12217.9828,W,0.31,127.69,181011,,,D*72
$GPRMC,191733.000,A,3748.5315,N,12217.9828,W,0.36,146.89,181011,,,D*7E
$GPRMC,191734.000,A,3748.5314,N,12217.9829,W,0.14,188.69,181011,,,D*75
$GPRMC,191735.000,A,3748.5313,N,12217.9830,W,0.27,282.43,181011,,,D*7A
$GPRMC,191736.000,A,3748.5313,N,12217.9832,W,0.21,268.45,181011,,,D*7F
$GPRMC,191737.000,A,3748.5314,N,12217.9833,W,0.31,296.60,181011,,,D*7F
$GPRMC,191738.000,A,3748.5314,N,12217.9834,W,0.23,1.75,181011,,,D*7C
$GPRMC,191739.000,A,3748.5315,N,12217.9833,W,0.16,51.29,181011,,,D*41
$GPRMC,191740.000,A,3748.5316,N,12217.9829,W,0.47,61.77,181011,,,D*4B
$GPRMC,191741.000,A,3748.5315,N,12217.9824,W,0.36,88.38,181011,,,D*4E
$GPRMC,191742.000,A,3748.5311,N,12217.9832,W,0.31,194.28,181011,,,D*74
$GPRMC,191743.000,A,3748.5308,N,12217.9830,W,0.18,184.30,181011,,,D*7C
$GPRMC,191744.000,A,3748.5303,N,12217.9827,W,0.37,184.18,181011,,,D*71
$GPRMC,191745.000,A,3748.5297,N,12217.9821,W,0.74,173.77,181011,,,D*7C
$GPRMC,191746.000,A,3748.5291,N,12217.9820,W,1.00,165.74,181011,,,D*7E
$GPRMC,191747.000,A,3748.5288,N,12217.9820,W,0.47,207.90,181011,,,D*78
$GPRMC,191748.000,A,3748.5289,N,12217.9814,W,0.49,167.52,181011,,,D*74
$GPRMC,191749.000,A,3748.5291,N,12217.9811,W,0.54,150.97,181011,,,D*78
$GPRMC,191750.000,A,3748.5297,N,12217.9805,W,0.18,336.37,181011,,,D*73
$GPRMC,191751.000,A,3748.5300,N,12217.9805,W,0.65,321.03,181011,,,D*76
$GPRMC,191752.000,A,3748.5296,N,12217.9803,W,0.65,307.98,181011,,,D*7B
$GPRMC,191753.000,A,3748.5295,N,12217.9804,W,0.51,300.96,181011,,,D*70
$GPRMC,191754.000,A,3748.5296,N,12217.9806,W,0.70,312.12,181011,,,D*7A
$GPRMC,191755.000,A,3748.5296,N,12217.9805,W,0.43,315.06,181011,,,D*7A
$GPRMC,191756.000,A,3748.5293,N,12217.9802,W,0.22,299.14,181011,,,D*7A
$GPRMC,191757.000,A,3748.5290,N,12217.9802,W,0.44,181.89,181011,,,D*76
$GPRMC,191758.000,A,3748.5285,N,12217.9801,W,0.66,161.83,181011,,,D*7A
$GPRMC,191759.000,A,3748.5280,N,12217.9801,W,0.85,158.30,181011,,,D*71
$GPRMC,191800.000,A,3748.5272,N,12217.9798,W,1.06,157.74,181011,,,D*75
$GPRMC,191801.000,A,3748.5263,N,12217.9795,W,1.35,162.47,181011,,,D*7F
$GPRMC,191802.000,A,3748.5259,N,12217.9797,W,1.12,169.48,181011,,,D*76
$GPRMC,191803.000,A,3748.5250,N,12217.9797,W,1.08,167.08,181011,,,D*7F
$GPRMC,191804.000,A,3748.5248,N,12217.9799,W,0.42,194.28,181011,,,D*7E
$GPRMC,191805.000,A,3748.5246,N,12217.9800,W,0.63,183.04,181011,,,D*75
$GPRMC,191806.000,A,3748.5246,N,12217.9798,W,0.23,256.86,181011,,,D*7D
$GPRMC,191807.000,A,3748.5249,N,12217.9802,W,0.69,258.22,181011,,,D*71
$GPRMC,191808.000,A,3748.5247,N,12217.9800,W,0.55,185.71,181011,,,D*78
$GPRMC,191809.000,A,3748.5255,N,12217.9799,W,0.59,342.92,181011,,,D*7D
$GPRMC,191810.000,A,3748.5254,N,12217.9800,W,0.64,304.41,181011,,,D*79
$GPRMC,191811.000,A,3748.5261,N,12217.9800,W,0.21,336.30,181011,,,D*78
$GPRMC,191812.000,A,3748.5266,N,12217.9795,W,0.06,153.26,181011,,,D*7C
$GPRMC,191813.000,A,3748.5274,N,12217.9798,W,0.70,323.39,181011,,,D*79
$GPRMC,191814.000,A,3748.5277,N,12217.9800,W,0.81,322.22,181011,,,D*76
$GPRMC,191815.000,A,3748.5283,N,12217.9802,W,0.73,337.68,181011,,,D*79
$GPRMC,191816.000,A,3748.5289,N,12217.9798,W,0.32,196.31,181011,,,D*7C
$GPRMC,191817.000,A,3748.5291,N,12217.9804,W,1.20,261.51,181011,,,D*71
$GPRMC,191818.000,A,3748.5287,N,12217.9807,W,1.29,240.72,181011,,,D*71
$GPRMC,191819.000,A,3748.5288,N,12217.9810,W,0.21,242.12,181011,,,D*74
$GPRMC,191820.000,A,3748.5289,N,12217.9811,W,0.32,242.04,181011,,,D*7B
$GPRMC,191821.000,A,3748.5291,N,12217.9812,W,0.21,121.50,181011,,,D*75
$GPRMC,191822.000,A,3748.5292,N,12217.9813,W,0.36,113.16,181011,,,D*71
$GPRMC,191823.000,A,3748.5293,N,12217.9814,W,0.34,106.59,181011,,,A*7E
$GPRMC,191824.000,A,3748.5295,N,12217.9815,W,0.29,113.51,181011,,,A*7E
$GPRMC,191825.000,A,3748.5296,N,12217.9817,W,0.35,154.28,181011,,,A*7E
$GPRMC,191826.000,A,3748.5296,N,12217.9820,W,0.43,91.49,181011,,,A*47
$GPRMC,191827.000,A,3748.5297,N,12217.9822,W,0.45,104.83,181011,,,A*78
$GPRMC,191828.000,A,3748.5297,N,12217.9824,W,0.37,86.70,181011,,,A*43
$GPRMC,191829.000,A,3748.5298,N,12217.9827,W,0.22,337.31,181011,,,A*76
$GPRMC,191830.000,A,3748.5298,N,12217.9831,W,0.32,267.68,181011,,,A*70
$GPRMC,191831.000,A,3748.5298,N,12217.9836,W,0.27,290.63,181011,,,A*71
$GPRMC,191832.000,A,3748.5297,N,12217.9840,W,0.22,234.81,181011,,,A*7B
$GPRMC,191833.000,A,3748.5298,N,12217.9843,W,0.33,242.30,181011,,,A*7D
$GPRMC,191834.000,A,3748.5300,N,12217.9842,W,0.38,210.45,181011,,,A*75
$GPRMC,191835.000,A,3748.5304,N,12217.9838,W,0.30,130.14,181011,,,A*70
$GPRMC,191836.000,A,3748.5307,N,12217.9834,W,0.37,139.61,181011,,,A*70
$GPRMC,191837.000,A,3748.5314,N,12217.9825,W,0.61,87.16,181011,,,A*44
$GPRMC,191838.000,A,3748.5315,N,12217.9824,W,0.27,92.97,181011,,,A*44
$GPRMC,191839.000,A,3748.5317,N,12217.9823,W,0.25,172.38,181011,,,D*7D
$GPRMC,191840.000,A,3748.5319,N,12217.9821,W,0.31,117.13,181011,,,D*70
$GPRMC,191841.000,A,3748.5327,N,12217.9819,W,0.39,77.16,181011,,,D*4D
$GPRMC,191842.000,A,3748.5326,N,12217.9821,W,0.21,14.36,181011,,,D*4A
$GPRMC,191843.000,A,3748.5321,N,12217.9824,W,0.15,199.78,181011,,,D*70
$GPRMC,191844.000,A,3748.5323,N,12217.9823,W,0.07,127.51,181011,,,D*7F
$GPRMC,191845.000,A,3748.5326,N,12217.9822,W,0.44,355.26,181011,,,D*7A
$GPRMC,191846.000,A,3748.5335,N,12217.9821,W,0.87,2.97,181011,,,D*7C
$GPRMC,191847.000,A,3748.5343,N,12217.9819,W,0.57,23.57,181011,,,D*45
$GPRMC,191848.000,A,3748.5343,N,12217.9815,W,0.40,124.93,181011,,,D*7E
$GPRMC,191849.000,A,3748.5339,N,12217.9811,W,0.63,94.38,181011,,,D*4C
$GPRMC,191850.000,A,3748.5342,N,12217.9804,W,0.49,71.18,181011,,,D*4D
$GPRMC,191851.000,A,3748.5337,N,12217.9797,W,0.57,141.26,181011,,,D*7B
$GPRMC,191852.000,A,3748.5334,N,12217.9794,W,0.24,141.57,181011,,,D*7A
$GPRMC,191853.000,A,3748.5328,N,12217.9795,W,0.16,242.77,181011,,,D*74
$GPRMC,191854.000,A,3748.5319,N,12217.9796,W,0.22,87.44,181011,,,D*4E
$GPRMC,191855.000,A,3748.5313,N,12217.9804,W,0.53,120.22,181011,,,D*7B
$GPRMC,191856.000,A,3748.5311,N,12217.9806,W,0.05,197.32,181011,,,A*73
$GPRMC,191857.000,A,3748.5316,N,12217.9806,W,0.39,13.83,181011,,,A*4D
$GPRMC,191858.000,A,3748.5321,N,12217.9806,W,0.79,352.01,181011,,,A*7E
$GPRMC,191859.000,A,3748.5325,N,12217.9806,W,0.67,348.20,181011,,,A*7C
$GPRMC,191900.000,A,3748.5328,N,12217.9807,W,0.51,327.37,181011,,,A*77
$GPRMC,191901.000,A,3748.5328,N,12217.9803,W,0.37,323.51,181011,,,A*76
$GPRMC,191902.000,A,3748.5331,N,12217.9805,W,0.46,6.93,181011,,,A*77
$GPRMC,191903.000,A,3748.5330,N,12217.9803,W,0.21,46.67,181011,,,A*4F
$GPRMC,191904.000,A,3748.5333,N,12217.9804,W,0.27,9.09,181011,,,A*79
$GPRMC,191905.000,A,3748.5334,N,12217.9802,W,0.21,331.86,181011,,,A*70
$GPRMC,191906.000,A,3748.5335,N,12217.9801,W,0.89,18.58,181011,,,A*48
$GPRMC,191907.000,A,3748.5337,N,12217.9801,W,0.67,18.87,181011,,,A*49
$GPRMC,191908.000,A,3748.5334,N,12217.9806,W,0.66,196.61,181011,,,A*7C
$GPRMC,191909.000,A,3748.5327,N,12217.9805,W,0.65,163.74,181011,,,A*71
$GPRMC,191910.000,A,3748.5316,N,12217.9808,W,1.17,159.66,181011,,,A*78
$GPRMC,191911.000,A,3748.5314,N,12217.9808,W,0.62,164.88,181011,,,A*76
$GPRMC,191912.000,A,3748.5310,N,12217.9810,W,0.44,174.73,181011,,,A*79
$GPRMC,191913.000,A,3748.5305,N,12217.9812,W,0.36,206.11,181011,,,A*79
$GPRMC,191914.000,A,3748.5304,N,12217.9808,W,0.15,227.23,181011,,,A*77
$GPRMC,191915.000,A,3748.5305,N,12217.9805,W,0.29,221.31,181011,,,A*70
$GPRMC,191916.000,A,3748.5309,N,12217.9803,W,0.44,25.83,181011,,,A*4D
$GPRMC,191917.000,A,3748.5312,N,12217.9799,W,0.72,29.60,181011,,,A*4E
$GPRMC,191918.000,A,3748.5311,N,12217.9798,W,0.77,212.01,181011,,,A*7B
$GPRMC,191919.000,A,3748.5309,N,12217.9800,W,2.09,210.00,181011,,,A*75
$GPRMC,191920.000,A,3748.5305,N,12217.9804,W,1.71,219.08,181011,,,A*7A
$GPRMC,191921.000,A,3748.5303,N,12217.9807,W,1.36,225.29,181011,,,A*71
$GPRMC,191922.000,A,3748.5301,N,12217.9812,W,1.76,206.83,181011,,,A*71
$GPRMC,191923.000,A,3748.5300,N,12217.9816,W,1.26,210.93,181011,,,A*76
$GPRMC,191924.000,A,3748.5296,N,12217.9821,W,2.03,197.08,181011,,,A*71
$GPRMC,191925.000,A,3748.5290,N,12217.9826,W,1.79,228.35,181011,,,A*76
$GPRMC,191926.000,A,3748.5286,N,12217.9832,W,1.66,224.40,181011,,,A*77
$GPRMC,191927.000,A,3748.5280,N,12217.9837,W,1.95,189.16,181011,,,A*7E
$GPRMC,191928.000,A,3748.5275,N,12217.9841,W,1.82,183.64,181011,,,A*73
$GPRMC,191929.000,A,3748.5268,N,12217.9840,W,2.10,180.14,181011,,,A*73
$GPRMC,191930.000,A,3748.5263,N,12217.9843,W,1.69,198.58,181011,,,A*7F
$GPRMC,191931.000,A,3748.5260,N,12217.9848,W,1.89,209.61,181011,,,A*79
$GPRMC,191932.000,A,3748.5256,N,12217.9854,W,2.13,206.84,181011,,,A*76
$GPRMC,191933.000,A,3748.5251,N,12217.9859,W,2.16,214.23,181011,,,A*76
$GPRMC,191934.000,A,3748.5247,N,12217.9861,W,1.83,194.59,181011,,,A*74
$GPRMC,191935.000,A,3748.5239,N,12217.9872,W,1.90,190.55,181011,,,A*74
$GPRMC,191936.000,A,3748.5230,N,12217.9883,W,2.61,199.68,181011,,,A*7A
$GPRMC,191937.000,A,3748.5222,N,12217.9890,W,2.33,184.21,181011,,,A*7C
$GPRMC,191938.000,A,3748.5212,N,12217.9894,W,2.42,176.98,181011,,,A*7D
$GPRMC,191939.000,A,3748.5199,N,12217.9903,W,2.10,180.09,181011,,,A*75
$GPRMC,191940.000,A,3748.5189,N,12217.9907,W,2.82,189.73,181011,,,A*71
$GPRMC,191941.000,A,3748.5181,N,12217.9912,W,2.74,196.26,181011,,,A*7B
$GPRMC,191942.000,A,3748.5175,N,12217.9913,W,2.48,189.66,181011,,,A*77
$GPRMC,191943.000,A,3748.5170,N,12217.9915,W,1.92,196.80,181011,,,A*77
$GPRMC,191944.000,A,3748.5162,N,12217.9920,W,2.20,194.41,181011,,,A*70
$GPRMC,191945.000,A,3748.5155,N,12217.9925,W,2.03,190.21,181011,,,A*73
$GPRMC,191946.000,A,3748.5146,N,12217.9934,W,1.93,193.18,181011,,,A*71
$GPRMC,191947.000,A,3748.5140,N,12217.9936,W,1.46,197.05,181011,,,A*74
$GPRMC,191948.000,A,3748.5137,N,12217.9941,W,1.99,207.62,181011,,,A*72
$GPRMC,191949.000,A,3748.5138,N,12217.9948,W,1.46,212.84,181011,,,A*7B
$GPRMC,191950.000,A,3748.5133,N,12217.9952,W,1.15,206.62,181011,,,A*78
$GPRMC,191951.000,A,3748.5131,N,12217.9956,W,0.90,229.18,181011,,,A*73
$GPRMC,191952.000,A,3748.5132,N,12217.9959,W,0.56,268.24,181011,,,A*7C
$GPRMC,191953.000,A,3748.5142,N,12217.9955,W,0.31,305.28,181011,,,A*71
$GPRMC,191954.000,A,3748.5143,N,12217.9955,W,0.07,193.66,181011,,,A*75
$GPRMC,191955.000,A,3748.5143,N,12217.9955,W,0.19,155.78,181011,,,A*7E
$GPRMC,191956.000,A,3748.5142,N,12217.9959,W,0.16,356.23,181011,,,A*70
$GPRMC,191957.000,A,3748.5141,N,12217.9963,W,0.33,325.40,181011,,,A*7D
$GPRMC,191958.000,A,3748.5140,N,12217.9967,W,0.47,300.05,181011,,,A*72
$GPRMC,191959.000,A,3748.5138,N,12217.9973,W,0.33,209.88,181011,,,A*77
$GPRMC,192000.000,A,3748.5134,N,12217.9979,W,0.48,198.53,181011,,,A*76
$GPRMC,192001.000,A,3748.5132,N,12217.9982,W,0.26,173.06,181011,,,A*78
$GPRMC,192002.000,A,3748.5135,N,12217.9973,W,0.82,102.30,181011,,,A*7F
$GPRMC,192003.000,A,3748.5134,N,12217.9964,W,0.17,182.57,181011,,,A*7C
$GPRMC,192004.000,A,3748.5132,N,12217.9963,W,0.74,233.44,181011,,,A*74
$GPRMC,192005.000,A,3748.5129,N,12217.9965,W,1.38,197.22,181011,,,A*7D
$GPRMC,192006.000,A,3748.5125,N,12217.9968,W,1.72,205.48,181011,,,A*75
$GPRMC,192007.000,A,3748.5119,N,12217.9972,W,2.14,201.95,181011,,,A*77
$GPRMC,192008.000,A,3748.5112,N,12217.9976,W,2.22,196.22,181011,,,A*73
$GPRMC,192009.000,A,3748.5106,N,12217.9980,W,2.14,199.96,181011,,,A*7B
$GPRMC,192010.000,A,3748.5100,N,12217.9983,W,2.03,204.49,181011,,,A*75
$GPRMC,192011.000,A,3748.5095,N,12217.9988,W,2.19,205.47,181011,,,A*76
$GPRMC,192012.000,A,3748.5089,N,12217.9993,W,2.22,214.39,181011,,,A*73
$GPRMC,192013.000,A,3748.5083,N,12217.9999,W,2.05,197.89,181011,,,A*74
$GPRMC,192014.000,A,3748.5078,N,12218.0002,W,1.65,197.29,181011,,,A*75
$GPRMC,192015.000,A,3748.5076,N,12218.0004,W,1.21,217.36,181011,,,A*79
$GPRMC,192016.000,A,3748.5070,N,12218.0009,W,1.92,209.03,181011,,,A*70
$GPRMC,192017.000,A,3748.5060,N,12218.0018,W,2.65,201.45,181011,,,A*71
$GPRMC,192018.000,A,3748.5054,N,12218.0025,W,1.94,202.96,181011,,,A*77
$GPRMC,192019.000,A,3748.5048,N,12218.0026,W,2.07,180.27,181011,,,A*72
$GPRMC,192020.000,A,3748.5042,N,12218.0030,W,1.68,179.97,181011,,,A*72
$GPRMC,192021.000,A,3748.5038,N,12218.0035,W,1.56,183.29,181011,,,A*76
$GPRMC,192022.000,A,3748.5033,N,12218.0038,W,1.82,178.05,181011,,,A*70
$GPRMC,192023.000,A,3748.5026,N,12218.0040,W,2.42,174.58,181011,,,A*71
$GPRMC,192024.000,A,3748.5018,N,12218.0046,W,2.50,200.00,181011,,,A*73
$GPRMC,192025.000,A,3748.5008,N,12218.0056,W,2.39,200.26,181011,,,A*79
$GPRMC,192026.000,A,3748.5000,N,12218.0065,W,2.28,203.12,181011,,,A*76
$GPRMC,192027.000,A,3748.4996,N,12218.0071,W,2.18,214.08,181011,,,A*7B
$GPRMC,192028.000,A,3748.4992,N,12218.0076,W,1.87,217.37,181011,,,A*7D
$GPRMC,192029.000,A,3748.4987,N,12218.0080,W,1.86,218.51,181011,,,A*7F
$GPRMC,192030.000,A,3748.4982,N,12218.0085,W,1.91,191.92,181011,,,A*7C
$GPRMC,192031.000,A,3748.4974,N,12218.0090,W,1.88,195.75,181011,,,A*75
$GPRMC,192032.000,A,3748.4964,N,12218.0103,W,2.86,207.27,181011,,,A*7E
$GPRMC,192033.000,A,3748.4955,N,12218.0113,W,3.00,200.84,181011,,,A*7D
$GPRMC,192034.000,A,3748.4945,N,12218.0122,W,3.05,208.01,181011,,,A*79
$GPRMC,192035.000,A,3748.4937,N,12218.0128,W,2.67,200.38,181011,,,A*70
$GPRMC,192036.000,A,3748.4929,N,12218.0128,W,2.59,196.51,181011,,,A*72
$GPRMC,192037.000,A,3748.4920,N,12218.0136,W,2.62,195.69,181011,,,A*75
$GPRMC,192038.000,A,3748.4914,N,12218.0137,W,2.49,188.03,181011,,,A*75
$GPRMC,192039.000,A,3748.4908,N,12218.0139,W,2.59,193.76,181011,,,A*7E
$GPRMC,192040.000,A,3748.4901,N,12218.0141,W,2.47,190.79,181011,,,A*75
$GPRMC,192041.000,A,3748.4894,N,12218.0143,W,2.32,185.53,181011,,,A*75
$GPRMC,192042.000,A,3748.4887,N,12218.0143,W,2.28,180.95,181011,,,A*70
$GPRMC,192043.000,A,3748.4880,N,12218.0145,W,2.14,184.24,181011,,,A*71
$GPRMC,192044.000,A,3748.4873,N,12218.0149,W,1.77,181.87,181011,,,A*7C
$GPRMC,192045.000,A,3748.4868,N,12218.0153,W,1.83,197.56,181011,,,A*7C
$GPRMC,192046.000,A,3748.4855,N,12218.0159,W,3.03,197.97,181011,,,A*7C
$GPRMC,192047.000,A,3748.4843,N,12218.0172,W,2.51,210.74,181011,,,A*74
$GPRMC,192048.000,A,3748.4837,N,12218.0183,W,2.55,219.45,181011,,,A*79
$GPRMC,192049.000,A,3748.4834,N,12218.0191,W,2.56,225.44,181011,,,A*75
$GPRMC,192050.000,A,3748.4829,N,12218.0200,W,2.61,210.73,181011,,,A*7C
$GPRMC,192051.000,A,3748.4824,N,12218.0204,W,2.63,203.05,181011,,,A*75
$GPRMC,192052.000,A,3748.4818,N,12218.0209,W,2.19,200.60,181011,,,A*79
$GPRMC,192053.000,A,3748.4812,N,12218.0213,W,2.21,201.86,181011,,,A*7B
$GPRMC,192054.000,A,3748.4805,N,12218.0219,W,3.09,211.61,181011,,,A*73
$GPRMC,192055.000,A,3748.4799,N,12218.0226,W,2.76,196.74,181011,,,A*75
$GPRMC,192056.000,A,3748.4789,N,12218.0234,W,2.50,196.88,181011,,,A*73
$GPRMC,192057.000,A,3748.4781,N,12218.0240,W,2.32,201.32,181011,,,A*71
$GPRMC,192058.000,A,3748.4773,N,12218.0249,W,2.26,204.06,181011,,,A*7D
$GPRMC,192059.000,A,3748.4767,N,12218.0256,W,2.19,201.92,181011,,,A*73
$GPRMC,192100.000,A,3748.4762,N,12218.0261,W,1.89,185.46,181011,,,A*73
$GPRMC,192101.000,A,3748.4755,N,12218.0267,W,2.14,184.72,181011,,,A*71
$GPRMC,192102.000,A,3748.4747,N,12218.0274,W,2.03,188.65,181011,,,A*7F
$GPRMC,192103.000,A,3748.4738,N,12218.0283,W,2.49,203.66,181011,,,A*73
$GPRMC,192104.000,A,3748.4730,N,12218.0291,W,2.43,203.81,181011,,,A*7C
$GPRMC,192105.000,A,3748.4722,N,12218.0300,W,2.49,203.26,181011,,,A*70
$GPRMC,192106.000,A,3748.4716,N,12218.0304,W,2.42,195.39,181011,,,A*79
$GPRMC,192107.000,A,3748.4709,N,12218.0310,W,2.36,192.49,181011,,,A*70
$GPRMC,192108.000,A,3748.4701,N,12218.0315,W,2.38,187.77,181011,,,A*75
$GPRMC,192109.000,A,3748.4694,N,12218.0318,W,2.21,191.36,181011,,,A*7E
$GPRMC,192110.000,A,3748.4687,N,12218.0322,W,2.11,190.15,181011,,,A*7E
$GPRMC,192111.000,A,3748.4682,N,12218.0323,W,1.68,198.52,181011,,,A*7D
$GPRMC,192112.000,A,3748.4676,N,12218.0325,W,2.72,206.85,181011,,,A*75
$GPRMC,192113.000,A,3748.4667,N,12218.0333,W,2.61,204.24,181011,,,A*78
$GPRMC,192114.000,A,3748.4659,N,12218.0342,W,3.34,207.22,181011,,,A*70
$GPRMC,192115.000,A,3748.4651,N,12218.0348,W,3.71,206.47,181011,,,A*70
$GPRMC,192116.000,A,3748.4642,N,12218.0356,W,3.12,200.37,181011,,,A*7A
$GPRMC,192117.000,A,3748.4634,N,12218.0362,W,2.78,196.09,181011,,,A*71
$GPRMC,192118.000,A,3748.4628,N,12218.0365,W,2.65,192.06,181011,,,A*73
$GPRMC,192119.000,A,3748.4621,N,12218.0368,W,2.53,190.78,181011,,,A*78
$GPRMC,192120.000,A,3748.4614,N,12218.0369,W,2.34,180.98,181011,,,A*7B
$GPRMC,192121.000,A,3748.4608,N,12218.0371,W,2.16,181.07,181011,,,A*79
$GPRMC,192122.000,A,3748.4599,N,12218.0378,W,2.61,185.90,181011,,,A*72
$GPRMC,192123.000,A,3748.4589,N,12218.0385,W,3.13,186.82,181011,,,A*74
$GPRMC,192124.000,A,3748.4579,N,12218.0388,W,2.79,184.85,181011,,,A*79
$GPRMC,192125.000,A,3748.4569,N,12218.0395,W,2.44,186.59,181011,,,A*78
$GPRMC,192126.000,A,3748.4562,N,12218.0394,W,2.16,171.15,181011,,,A*76
$GPRMC,192127.000,A,3748.4557,N,12218.0391,W,2.73,158.16,181011,,,A*7F
$GPRMC,192128.000,A,3748.4550,N,12218.0389,W,3.02,164.49,181011,,,A*7C
$GPRMC,192129.000,A,3748.4542,N,12218.0385,W,2.58,164.40,181011,,,A*75
$GPRMC,192130.000,A,3748.4534,N,12218.0383,W,1.84,173.65,181011,,,A*79
$GPRMC,192131.000,A,3748.4533,N,12218.0387,W,1.24,213.42,181011,,,A*71
$GPRMC,192132.000,A,3748.4527,N,12218.0392,W,1.31,212.14,181011,,,A*75
$GPRMC,192133.000,A,3748.4517,N,12218.0388,W,1.94,208.98,181011,,,A*7C
$GPRMC,192134.000,A,3748.4507,N,12218.0387,W,2.35,197.49,181011,,,A*74
$GPRMC,192135.000,A,3748.4500,N,12218.0390,W,2.04,209.25,181011,,,A*78
$GPRMC,192136.000,A,3748.4497,N,12218.0394,W,1.42,213.99,181011,,,A*7D
$GPRMC,192137.000,A,3748.4493,N,12218.0395,W,1.99,200.27,181011,,,A*78
$GPRMC,192138.000,A,3748.4486,N,12218.0397,W,3.07,185.26,181011,,,A*7B
$GPRMC,192139.000,A,3748.4476,N,12218.0397,W,3.24,183.26,181011,,,A*72
$GPRMC,192140.000,A,3748.4467,N,12218.0398,W,3.40,193.65,181011,,,A*77
$GPRMC,192141.000,A,3748.4459,N,12218.0403,W,3.33,194.03,181011,,,A*7D
$GPRMC,192142.000,A,3748.4450,N,12218.0407,W,3.23,196.10,181011,,,A*72
$GPRMC,192143.000,A,3748.4442,N,12218.0411,W,3.12,183.05,181011,,,A*75
$GPRMC,192144.000,A,3748.4433,N,12218.0413,W,3.23,188.52,181011,,,A*7D
$GPRMC,192145.000,A,3748.4424,N,12218.0416,W,3.29,187.99,181011,,,A*7D
$GPRMC,192146.000,A,3748.4412,N,12218.0424,W,3.26,194.01,181011,,,A*76
$GPRMC,192147.000,A,3748.4402,N,12218.0430,W,3.00,188.22,181011,,,A*7B
$GPRMC,192148.000,A,3748.4392,N,12218.0436,W,2.79,184.04,181011,,,A*7B
$GPRMC,192149.000,A,3748.4385,N,12218.0439,W,2.55,190.41,181011,,,A*79
$GPRMC,192150.000,A,3748.4378,N,12218.0442,W,2.77,177.58,181011,,,A*7E
$GPRMC,192151.000,A,3748.4370,N,12218.0442,W,2.47,185.24,181011,,,A*72
$GPRMC,192152.000,A,3748.4361,N,12218.0444,W,1.96,194.35,181011,,,A*78
$GPRMC,192153.000,A,3748.4352,N,12218.0447,W,1.88,204.84,181011,,,A*75
$GPRMC,192154.000,A,3748.4347,N,12218.0451,W,1.60,207.11,181011,,,A*78
$GPRMC,192155.000,A,3748.4339,N,12218.0456,W,2.44,181.98,181011,,,A*7E
$GPRMC,192156.000,A,3748.4330,N,12218.0457,W,2.15,188.83,181011,,,A*72
$GPRMC,192157.000,A,3748.4324,N,12218.0461,W,2.93,197.26,181011,,,A*7C
$GPRMC,192158.000,A,3748.4313,N,12218.0466,W,2.45,189.72,181011,,,A*75
$GPRMC,192159.000,A,3748.4304,N,12218.0471,W,2.25,188.52,181011,,,A*71
$GPRMC,192200.000,A,3748.4293,N,12218.0477,W,2.53,182.93,181011,,,A*71
$GPRMC,192201.000,A,3748.4283,N,12218.0479,W,2.73,173.37,181011,,,A*7D
$GPRMC,192202.000,A,3748.4271,N,12218.0479,W,2.60,165.05,181011,,,A*77
$GPRMC,192203.000,A,3748.4263,N,12218.0479,W,2.05,174.18,181011,,,A*7A
$GPRMC,192204.000,A,3748.4257,N,12218.0480,W,1.97,188.24,181011,,,A*78
$GPRMC,192205.000,A,3748.4249,N,12218.0485,W,2.22,191.27,181011,,,A*75
$GPRMC,192206.000,A,3748.4243,N,12218.0487,W,1.78,188.42,181011,,,A*79
$GPRMC,192207.000,A,3748.4233,N,12218.0489,W,2.23,192.00,181011,,,A*71
$GPRMC,192208.000,A,3748.4225,N,12218.0493,W,2.09,188.60,181011,,,A*77
$GPRMC,192209.000,A,3748.4215,N,12218.0499,W,2.96,182.83,181011,,,A*7E
$GPRMC,192210.000,A,3748.4204,N,12218.0505,W,3.01,181.07,181011,,,A*72
$GPRMC,192211.000,A,3748.4193,N,12218.0507,W,3.32,181.25,181011,,,A*7C
$GPRMC,192212.000,A,3748.4183,N,12218.0510,W,3.24,182.00,181011,,,A*7B
$GPRMC,192213.000,A,3748.4174,N,12218.0514,W,3.15,177.14,181011,,,A*7B
$GPRMC,192214.000,A,3748.4164,N,12218.0515,W,2.87,161.45,181011,,,A*75
$GPRMC,192215.000,A,3748.4156,N,12218.0511,W,2.82,164.97,181011,,,A*7E
$GPRMC,192216.000,A,3748.4146,N,12218.0513,W,3.24,170.32,181011,,,A*79
$GPRMC,192217.000,A,3748.4133,N,12218.0515,W,3.37,173.47,181011,,,A*7F
$GPRMC,192218.000,A,3748.4121,N,12218.0518,W,3.30,168.78,181011,,,A*7F
$GPRMC,192219.000,A,3748.4110,N,12218.0523,W,3.44,181.44,181011,,,A*7F
$GPRMC,192220.000,A,3748.4098,N,12218.0527,W,3.61,174.74,181011,,,A*7E
$GPRMC,192221.000,A,3748.4087,N,12218.0529,W,3.47,173.13,181011,,,A*7D
$GPRMC,192222.000,A,3748.4078,N,12218.0529,W,3.34,167.48,181011,,,A*71
$GPRMC,192223.000,A,3748.4070,N,12218.0528,W,2.94,160.25,181011,,,A*7E
$GPRMC,192224.000,A,3748.4061,N,12218.0531,W,2.54,172.25,181011,,,A*7E
$GPRMC,192225.000,A,3748.4055,N,12218.0536,W,1.41,194.51,181011,,,A*73
$GPRMC,192226.000,A,3748.4056,N,12218.0538,W,0.92,252.44,181011,,,A*7F
$GPRMC,192227.000,A,3748.4059,N,12218.0544,W,1.73,260.64,181011,,,A*77
$GPRMC,192228.000,A,3748.4062,N,12218.0553,W,2.35,272.53,181011,,,A*70
$GPRMC,192229.000,A,3748.4065,N,12218.0568,W,2.69,273.24,181011,,,A*76
$GPRMC,192230.000,A,3748.4070,N,12218.0583,W,3.04,267.21,181011,,,A*75
$GPRMC,192231.000,A,3748.4071,N,12218.0598,W,3.11,270.47,181011,,,A*7D
$GPRMC,192232.000,A,3748.4071,N,12218.0613,W,3.10,269.17,181011,,,A*72
$GPRMC,192233.000,A,3748.4073,N,12218.0626,W,2.67,270.88,181011,,,A*78
$GPRMC,192234.000,A,3748.4077,N,12218.0636,W,2.30,271.74,181011,,,A*7A
$GPRMC,192235.000,A,3748.4080,N,12218.0648,W,3.11,279.11,181011,,,A*73
$GPRMC,192236.000,A,3748.4079,N,12218.0661,W,2.22,269.88,181011,,,A*7D
$GPRMC,192237.000,A,3748.4080,N,12218.0671,W,2.10,261.46,181011,,,A*70
$GPRMC,192238.000,A,3748.4082,N,12218.0681,W,2.49,278.30,181011,,,A*77
$GPRMC,192239.000,A,3748.4086,N,12218.0691,W,1.95,280.51,181011,,,A*71
$GPRMC,192240.000,A,3748.4089,N,12218.0700,W,1.84,286.62,181011,,,A*7F
$GPRMC,192241.000,A,3748.4095,N,12218.0709,W,2.63,287.25,181011,,,A*72
$GPRMC,192242.000,A,3748.4100,N,12218.0720,W,1.66,284.03,181011,,,A*76
$GPRMC,192243.000,A,3748.4102,N,12218.0730,W,2.40,279.24,181011,,,A*74
$GPRMC,192244.000,A,3748.4109,N,12218.0741,W,2.14,302.04,181011,,,A*70
$GPRMC,192245.000,A,3748.4117,N,12218.0750,W,2.94,289.78,181011,,,A*7F
$GPRMC,192246.000,A,3748.4118,N,12218.0760,W,2.56,283.49,181011,,,A*76
$GPRMC,192247.000,A,3748.4120,N,12218.0775,W,3.55,286.64,181011,,,A*70
$GPRMC,192248.000,A,3748.4124,N,12218.0792,W,2.93,299.81,181011,,,A*7C
$GPRMC,192249.000,A,3748.4127,N,12218.0808,W,2.66,308.91,181011,,,A*70
$GPRMC,192250.000,A,3748.4129,N,12218.0826,W,2.92,292.36,181011,,,A*7E
$GPRMC,192251.000,A,3748.4130,N,12218.0839,W,2.68,297.44,181011,,,A*7C
$GPRMC,192252.000,A,3748.4125,N,12218.0852,W,2.48,288.05,181011,,,A*7F
$GPRMC,192253.000,A,3748.4123,N,12218.0868,W,2.02,304.73,181011,,,A*7B
$GPRMC,192254.000,A,3748.4131,N,12218.0877,W,1.96,313.06,181011,,,A*7B
$GPRMC,192255.000,A,3748.4136,N,12218.0884,W,1.98,322.51,181011,,,A*7F
$GPRMC,192256.000,A,3748.4141,N,12218.0890,W,1.92,285.70,181011,,,A*7C
$GPRMC,192257.000,A,3748.4143,N,12218.0897,W,1.72,294.00,181011,,,A*71
$GPRMC,192258.000,A,3748.4141,N,12218.0907,W,1.71,285.27,181011,,,A*72
$GPRMC,192259.000,A,3748.4138,N,12218.0919,W,1.16,289.75,181011,,,A*78
$GPRMC,192300.000,A,3748.4130,N,12218.0929,W,2.38,265.88,181011,,,A*71
$GPRMC,192301.000,A,3748.4128,N,12218.0941,W,2.45,266.77,181011,,,A*7E
$GPRMC,192302.000,A,3748.4128,N,12218.0950,W,1.81,269.43,181011,,,A*7E
$GPRMC,192303.000,A,3748.4137,N,12218.0960,W,2.37,295.65,181011,,,A*7B
$GPRMC,192304.000,A,3748.4146,N,12218.0970,W,2.23,299.82,181011,,,A*7B
$GPRMC,192305.000,A,3748.4150,N,12218.0978,W,1.56,314.34,181011,,,A*7D
$GPRMC,192306.000,A,3748.4159,N,12218.0983,W,1.71,318.31,181011,,,A*7F
$GPRMC,192307.000,A,3748.4166,N,12218.0991,W,1.88,307.85,181011,,,A*76
$GPRMC,192308.000,A,3748.4175,N,12218.0997,W,1.64,322.65,181011,,,A*76
$GPRMC,192309.000,A,3748.4177,N,12218.1008,W,2.06,314.08,181011,,,A*72
$GPRMC,192310.000,A,3748.4184,N,12218.1017,W,2.82,306.11,181011,,,A*7F
$GPRMC,192311.000,A,3748.4188,N,12218.1025,W,2.78,285.21,181011,,,A*7F
$GPRMC,192312.000,A,3748.4191,N,12218.1034,W,2.54,270.52,181011,,,A*74
$GPRMC,192313.000,A,3748.4198,N,12218.1042,W,2.51,297.11,181011,,,A*76
$GPRMC,192314.000,A,3748.4202,N,12218.1058,W,2.91,281.02,181011,,,A*73
$GPRMC,192315.000,A,3748.4206,N,12218.1072,W,2.62,291.33,181011,,,A*71
$GPRMC,192316.000,A,3748.4214,N,12218.1081,W,2.99,299.17,181011,,,A*77
$GPRMC,192317.000,A,3748.4222,N,12218.1091,W,3.02,298.63,181011,,,A*73
$GPRMC,192318.000,A,3748.4220,N,12218.1104,W,2.87,281.45,181011,,,A*73
$GPRMC,192319.000,A,3748.4224,N,12218.1116,W,2.81,285.54,181011,,,A*77
$GPRMC,192320.000,A,3748.4230,N,12218.1128,W,3.20,290.64,181011,,,A*78
$GPRMC,192321.000,A,3748.4237,N,12218.1139,W,3.30,297.83,181011,,,A*71
$GPRMC,192322.000,A,3748.4244,N,12218.1151,W,3.23,297.14,181011,,,A*74
$GPRMC,192323.000,A,3748.4248,N,12218.1164,W,3.31,293.50,181011,,,A*78
$GPRMC,192324.000,A,3748.4255,N,12218.1175,W,3.00,301.99,181011,,,A*7E
$GPRMC,192325.000,A,3748.4260,N,12218.1184,W,2.77,298.42,181011,,,A*71
$GPRMC,192326.000,A,3748.4268,N,12218.1192,W,2.60,297.80,181011,,,A*7A
$GPRMC,192327.000,A,3748.4275,N,12218.1202,W,2.82,296.06,181011,,,A*7E
$GPRMC,192328.000,A,3748.4279,N,12218.1212,W,2.64,289.88,181011,,,A*7C
$GPRMC,192329.000,A,3748.4284,N,12218.1222,W,2.80,295.98,181011,,,A*7A
$GPRMC,192330.000,A,3748.4290,N,12218.1231,W,2.68,302.02,181011,,,A*7F
$GPRMC,192331.000,A,3748.4289,N,12218.1242,W,2.88,284.11,181011,,,A*71
$GPRMC,192332.000,A,3748.4293,N,12218.1252,W,2.81,295.70,181011,,,A*76
$GPRMC,192333.000,A,3748.4296,N,12218.1262,W,2.54,291.90,181011,,,A*73
$GPRMC,192334.000,A,3748.4299,N,12218.1270,W,1.94,295.49,181011,,,A*77
$GPRMC,192335.000,A,3748.4299,N,12218.1278,W,0.49,181.94,181011,,,A*79
$GPRMC,192336.000,A,3748.4296,N,12218.1281,W,0.68,157.38,181011,,,A*7D
$GPRMC,192337.000,A,3748.4294,N,12218.1283,W,0.59,66.47,181011,,,A*45
$GPRMC,192338.000,A,3748.4292,N,12218.1288,W,0.83,229.10,181011,,,A*7B
