$ADVER,3080,2.3
$GPRMC,190652.805,A,3748.7985,N,12217.8591,W,0.37,253.34,181011,,,A*7E
$GPGGA,190653.805,3748.8015,N,12217.8610,W,1,04,3.8,13.4,M,-25.1,M,,0000*55
$GPGSA,A,3,09,04,02,25,,,,,,,,,7.8,3.8,6.8*30
$GPRMC,190653.805,A,3748.8015,N,12217.8610,W,0.56,322.77,181011,,,A*7D
$GPVTG,322.77,T,,M,0.56,N,1.0,K,A*0C
$GPGGA,190654.805,3748.8017,N,12217.8611,W,1,04,3.8,14.2,M,-25.1,M,,0000*50
$GPGSA,A,3,09,04,02,25,,,,,,,,,7.8,3.8,6.8*30
$GPRMC,190654.805,A,3748.8017,N,12217.8611,W,0.37,348.93,181011,,,A*78
$GPVTG,348.93,T,,M,0.37,N,0.7,K,A*0B
$GPGGA,190655.000,3748.8017,N,12217.8612,W,1,04,3.8,14.3,M,-25.1,M,,0000*5E
$GPGSA,A,3,09,04,02,25,,,,,,,,,7.8,3.8,6.8*30
$GPGSV,3,1,11,02,60,174,40,04,58,072,37,09,55,237,43,27,49,215,42*71
$GPGSV,3,2,11,25,14,306,28,12,46,316,36,17,22,059,31,10,14,116,29*74
$GPGSV,3,3,11,28,03,115,,14,02,313,,48,00,000,41*4A
$GPRMC,190655.000,A,3748.8017,N,12217.8612,W,0.28,1.92,181011,,,A*76
$GPVTG,1.92,T,,M,0.28,N,0.5,K,A*08
$GPGGA,190656.000,3748.8011,N,12217.8607,W,1,04,3.8,11.6,M,-25.1,M,,0000*5F
$GPGSA,A,3,09,04,02,25,,,,,,,,,7.8,3.8,6.9*31
$GPRMC,190656.000,A,3748.8011,N,12217.8607,W,0.31,347.60,181011,,,A*73
$GPVTG,347.60,T,,M,0.31,N,0.6,K,A*0F
$GPGGA,190657.000,3748.8006,N,12217.8604,W,1,04,3.8,8.1,M,-25.1,M,,0000*64
$GPGSA,A,3,09,04,02,25,,,,,,,,,7.8,3.8,6.9*31
$GPRMC,190657.000,A,3748.8006,N,12217.8604,W,0.16,335.42,181011,,,A*77
$GPVTG,335.42,T,,M,0.16,N,0.3,K,A*0A
$GPGGA,190658.000,3748.8003,N,12217.8602,W,1,04,3.8,6.9,M,-25.1,M,,0000*6E
$GPGSA,A,3,09,04,02,25,,,,,,,,,7.8,3.8,6.9*31
$GPRMC,190658.000,A,3748.8003,N,12217.8602,W,0.36,326.75,181011,,,A*7F
$GPVTG,326.75,T,,M,0.36,N,0.7,K,A*0A
$GPGGA,190659.000,3748.8000,N,12217.8600,W,1,04,3.8,5.5,M,-25.1,M,,0000*61
$GPGSA,A,3,09,04,02,25,,,,,,,,,7.9,3.8,6.9*30
$GPRMC,190659.000,A,3748.8000,N,12217.8600,W,0.42,337.10,181011,,,A*7F
$GPVTG,337.10,T,,M,0.42,N,0.8,K,A*05
$GPGGA,190700.000,3748.7998,N,12217.8599,W,1,04,3.8,4.7,M,-25.1,M,,0000*6B
$GPGSA,A,3,09,04,02,25,,,,,,,,,7.9,3.8,6.9*30
$GPGSV,3,1,11,02,60,174,33,04,58,072,41,09,55,237,42,27,49,215,41*76
$GPGSV,3,2,11,25,14,306,26,12,46,316,34,17,22,059,30,10,14,116,20*70
$GPGSV,3,3,11,28,03,115,,14,02,313,,48,00,000,37*4B
$GPRMC,190700.000,A,3748.7998,N,12217.8599,W,0.11,326.22,181011,,,A*71
$GPVTG,326.22,T,,M,0.11,N,0.2,K,A*08
$GPGGA,190701.000,3748.7997,N,12217.8599,W,1,04,3.8,6.7,M,-25.1,M,,0000*67
$GPGSA,A,3,09,04,02,25,,,,,,,,,7.9,3.8,6.9*30
$GPRMC,190701.000,A,3748.7997,N,12217.8599,W,0.12,305.10,181011,,,A*7C
$GPVTG,305.10,T,,M,0.12,N,0.2,K,A*0B
$GPGGA,190702.000,3748.7996,N,12217.8599,W,1,04,3.8,6.1,M,-25.1,M,,0000*63
$GPGSA,A,3,09,04,02,25,,,,,,,,,7.9,3.8,6.9*30
$GPRMC,190702.000,A,3748.7996,N,12217.8599,W,0.70,333.59,181011,,,A*72
$GPVTG,333.59,T,,M,0.70,N,1.3,K,A*07
$GPGGA,190703.000,3748.7997,N,12217.8599,W,1,04,3.8,3.2,M,-25.1,M,,0000*65
$GPGSA,A,3,09,04,02,25,,,,,,,,,7.9,3.8,6.9*30
$GPRMC,190703.000,A,3748.7997,N,12217.8599,W,1.24,332.95,181011,,,A*73
$GPVTG,332.95,T,,M,1.24,N,2.3,K,A*05
$GPGGA,190704.000,3748.8003,N,12217.8604,W,1,05,2.0,4.8,M,-25.1,M,,0000*6B
$GPGSA,A,3,09,04,12,02,25,,,,,,,,4.1,2.0,3.5*38
$GPRMC,190704.000,A,3748.8003,N,12217.8604,W,0.10,272.17,181011,,,A*71
$GPVTG,272.17,T,,M,0.10,N,0.2,K,A*0F
$GPGGA,190705.000,3748.8007,N,12217.8607,W,1,05,2.0,8.4,M,-25.1,M,,0000*6D
$GPGSA,A,3,09,04,12,02,25,,,,,,,,4.1,2.0,3.5*38
$GPGSV,3,1,11,02,60,174,35,04,57,071,41,09,55,237,44,27,49,215,41*7A
$GPGSV,3,2,11,12,46,316,35,17,22,059,32,25,14,306,20,10,14,116,27*72
$GPGSV,3,3,11,28,03,115,,14,02,313,,48,44,197,41*45
$GPRMC,190705.000,A,3748.8007,N,12217.8607,W,0.22,34.06,181011,,,A*46
$GPVTG,34.06,T,,M,0.22,N,0.4,K,A*38
$GPGGA,190706.000,3748.8009,N,12217.8609,W,1,05,2.0,10.5,M,-25.1,M,,0000*56
$GPGSA,A,3,09,04,12,02,25,,,,,,,,4.1,2.0,3.5*38
$GPRMC,190706.000,A,3748.8009,N,12217.8609,W,0.27,305.50,181011,,,A*72
$GPVTG,305.50,T,,M,0.27,N,0.5,K,A*0E
$GPGGA,190707.000,3748.8011,N,12217.8611,W,1,05,2.0,11.0,M,-25.1,M,,0000*53
$GPGSA,A,3,09,04,12,02,25,,,,,,,,4.1,2.0,3.5*38
$GPRMC,190707.000,A,3748.8011,N,12217.8611,W,0.29,340.57,181011,,,A*7B
$GPVTG,340.57,T,,M,0.29,N,0.5,K,A*06
$GPGGA,190708.000,3748.8013,N,12217.8613,W,1,05,2.0,13.2,M,-25.1,M,,0000*5C
$GPGSA,A,3,09,04,12,02,25,,,,,,,,4.1,2.0,3.5*38
$GPRMC,190708.000,A,3748.8013,N,12217.8613,W,0.31,318.99,181011,,,A*72
$GPVTG,318.99,T,,M,0.31,N,0.6,K,A*03
$GPGGA,190709.000,3748.8014,N,12217.8614,W,1,05,2.0,13.4,M,-25.1,M,,0000*5B
$GPGSA,A,3,09,04,12,02,25,,,,,,,,4.1,2.0,3.5*38
$GPRMC,190709.000,A,3748.8014,N,12217.8614,W,0.33,325.18,181011,,,A*76
$GPVTG,325.18,T,,M,0.33,N,0.6,K,A*06
$GPGGA,190710.000,3748.8014,N,12217.8614,W,1,05,2.0,13.3,M,-25.1,M,,0000*54
$GPGSA,A,3,09,04,12,02,25,,,,,,,,4.1,2.0,3.5*38
$GPGSV,3,1,11,02,60,174,34,04,57,071,36,09,55,237,43,27,49,215,41*7C
$GPGSV,3,2,11,12,46,316,35,17,22,059,32,25,14,306,20,10,14,116,27*72
$GPGSV,3,3,11,28,03,115,,14,02,313,,48,44,197,40*44
$GPRMC,190710.000,A,3748.8014,N,12217.8614,W,0.16,170.24,181011,,,A*74
$GPVTG,170.24,T,,M,0.16,N,0.3,K,A*09
$GPGGA,190711.000,3748.8014,N,12217.8614,W,1,05,2.0,13.5,M,-25.1,M,,0000*53
$GPGSA,A,3,09,04,12,02,25,,,,,,,,4.1,2.0,3.5*38
$GPRMC,190711.000,A,3748.8014,N,12217.8614,W,0.33,160.94,181011,,,A*78
$GPVTG,160.94,T,,M,0.33,N,0.6,K,A*01
$GPGGA,190712.000,3748.8013,N,12217.8614,W,1,05,2.0,13.1,M,-25.1,M,,0000*53
$GPGSA,A,3,09,04,12,02,25,,,,,,,,4.1,2.0,3.5*38
$GPRMC,190712.000,A,3748.8013,N,12217.8614,W,0.13,172.13,181011,,,A*72
$GPVTG,172.13,T,,M,0.13,N,0.2,K,A*0B
$GPGGA,190713.000,3748.8013,N,12217.8615,W,1,05,2.0,12.5,M,-25.1,M,,0000*56
$GPGSA,A,3,09,04,12,02,25,,,,,,,,4.1,2.0,3.5*38
$GPRMC,190713.000,A,3748.8013,N,12217.8615,W,0.21,317.73,181011,,,A*74
$GPVTG,317.73,T,,M,0.21,N,0.4,K,A*0B
$GPGGA,190714.000,3748.8013,N,12217.8615,W,1,05,2.0,11.1,M,-25.1,M,,0000*56
$GPGSA,A,3,09,04,12,02,25,,,,,,,,4.1,2.0,3.5*38
$GPRMC,190714.000,A,3748.8013,N,12217.8615,W,0.25,322.39,181011,,,A*7F
$GPVTG,322.39,T,,M,0.25,N,0.5,K,A*06
$GPGGA,190715.000,3748.8013,N,12217.8615,W,1,05,2.0,9.8,M,-25.1,M,,0000*67
$GPGSA,A,3,09,04,12,02,25,,,,,,,,4.1,2.0,3.5*38
$GPGSV,3,1,11,02,60,174,34,04,57,071,37,09,55,237,42,27,49,215,40*7D
$GPGSV,3,2,11,12,46,316,35,17,22,060,32,25,14,306,19,10,14,116,25*70
$GPGSV,3,3,11,28,03,116,,14,02,313,,48,44,197,40*47
$GPRMC,190715.000,A,3748.8013,N,12217.8615,W,0.22,318.95,181011,,,A*76
$GPGGA,190716.000,3748.8012,N,12217.8615,W,1,05,2.0,8.8,M,-25.1,M,,0000*64
$GPGSA,A,3,09,04,12,02,25,,,,,,,,4.1,2.0,3.5*38
$GPRMC,190716.000,A,3748.8012,N,12217.8615,W,0.05,211.84,181011,,,A*79
$GPVTG,211.84,T,,M,0.05,N,0.1,K,A*07
$GPGGA,190717.000,3748.8012,N,12217.8615,W,1,05,2.0,8.0,M,-25.1,M,,0000*6D
$GPGSA,A,3,09,04,12,02,25,,,,,,,,4.1,2.0,3.5*38
$GPRMC,190717.000,A,3748.8012,N,12217.8615,W,0.28,160.08,181011,,,A*76
$GPVTG,160.08,T,,M,0.28,N,0.5,K,A*0D
$GPGGA,190718.000,3748.8011,N,12217.8614,W,1,05,2.0,6.9,M,-25.1,M,,0000*67
$GPGSA,A,3,09,04,12,02,25,,,,,,,,4.1,2.0,3.5*38
$GPRMC,190718.000,A,3748.8011,N,12217.8614,W,0.31,163.91,181011,,,A*70
$GPVTG,163.91,T,,M,0.31,N,0.6,K,A*05
$GPGGA,190719.000,3748.8010,N,12217.8614,W,1,05,2.0,5.7,M,-25.1,M,,0000*6A
$GPGSA,A,3,09,04,12,02,25,,,,,,,,4.1,2.0,3.5*38
$GPRMC,190719.000,A,3748.8010,N,12217.8614,W,0.25,160.84,181011,,,A*72
$GPVTG,160.84,T,,M,0.25,N,0.5,K,A*04
$GPGGA,190720.000,3748.8009,N,12217.8614,W,1,05,2.0,4.4,M,-25.1,M,,0000*6A
$GPGSA,A,3,09,04,12,02,25,,,,,,,,4.1,2.0,3.5*38
$GPGSV,3,1,11,02,60,174,33,04,57,071,36,09,55,237,42,27,49,215,40*7B
$GPGSV,3,2,11,12,46,316,32,17,22,060,31,25,14,306,29,10,14,116,25*77
$GPGSV,3,3,11,28,02,116,,14,02,313,27,48,44,197,39*4D
$GPRMC,190720.000,A,3748.8009,N,12217.8614,W,0.28,166.28,181011,,,A*7D
$GPVTG,166.28,T,,M,0.28,N,0.5,K,A*09
$GPGGA,190721.000,3748.8009,N,12217.8613,W,1,05,2.0,3.3,M,-25.1,M,,0000*6C
$GPGSA,A,3,09,04,12,02,25,,,,,,,,4.1,2.0,3.5*38
$GPRMC,190721.000,A,3748.8009,N,12217.8613,W,0.28,160.30,181011,,,A*74
$GPVTG,160.30,T,,M,0.28,N,0.5,K,A*06
$GPGGA,190722.000,3748.8008,N,12217.8613,W,1,05,2.0,2.3,M,-25.1,M,,0000*6F
$GPGSA,A,3,09,04,12,02,25,,,,,,,,4.1,2.0,3.5*38
$GPRMC,190722.000,A,3748.8008,N,12217.8613,W,0.28,163.83,181011,,,A*7D
$GPVTG,163.83,T,,M,0.28,N,0.5,K,A*0D
$GPGGA,190723.000,3748.8008,N,12217.8613,W,1,05,2.0,1.5,M,-25.1,M,,0000*6B
$GPGSA,A,3,09,04,12,02,25,,,,,,,,4.1,2.0,3.5*38
$GPRMC,190723.000,A,3748.8008,N,12217.8613,W,0.31,161.23,181011,,,A*7C
$GPVTG,161.23,T,,M,0.31,N,0.6,K,A*0E
$GPGGA,190724.000,3748.8007,N,12217.8613,W,1,05,2.0,0.7,M,-25.1,M,,0000*60
$GPGSA,A,3,09,04,12,02,25,,,,,,,,4.1,2.0,3.5*38
$GPRMC,190724.000,A,3748.8007,N,12217.8613,W,0.30,165.68,181011,,,A*7E
$GPVTG,165.68,T,,M,0.30,N,0.6,K,A*04
$GPGGA,190725.000,3748.8007,N,12217.8613,W,1,05,2.0,-0.0,M,-25.1,M,,0000*4B
$GPGSA,A,3,09,04,12,02,25,,,,,,,,4.1,2.0,3.5*38
$GPGSV,3,1,11,02,60,174,33,04,57,071,36,09,55,237,42,27,49,215,41*7A
$GPGSV,3,2,11,12,46,316,35,17,22,060,30,25,14,306,29,10,14,116,25*71
$GPGSV,3,3,11,28,02,116,,14,02,313,28,48,44,197,39*42
$GPRMC,190725.000,A,3748.8007,N,12217.8613,W,0.27,166.11,181011,,,A*74
$GPVTG,166.11,T,,M,0.27,N,0.5,K,A*0C
$GPGGA,190726.000,3748.8006,N,12217.8613,W,1,05,2.0,-0.7,M,-25.1,M,,0000*4E
$GPGSA,A,3,09,04,12,02,25,,,,,,,,4.1,2.0,3.5*38
$GPRMC,190726.000,A,3748.8006,N,12217.8613,W,0.25,159.70,181011,,,A*7F
$GPVTG,159.70,T,,M,0.25,N,0.5,K,A*05
$GPGGA,190727.000,3748.8006,N,12217.8612,W,2,05,2.0,-1.3,M,-25.1,M,,0000*48
$GPGSA,A,3,09,04,12,02,25,,,,,,,,4.1,2.0,3.5*38
$GPRMC,190727.000,A,3748.8006,N,12217.8612,W,0.30,163.14,181011,,,D*75
$GPVTG,163.14,T,,M,0.30,N,0.6,K,D*0C
$GPGGA,190728.000,3748.8005,N,12217.8612,W,2,05,2.0,-1.9,M,-25.1,M,,0000*4E
$GPGSA,A,3,09,04,12,02,25,,,,,,,,4.1,2.0,3.5*38
$GPRMC,190728.000,A,3748.8005,N,12217.8612,W,0.37,197.40,181011,,,D*74
$GPVTG,197.40,T,,M,0.37,N,0.7,K,D*00
$GPGGA,190729.000,3748.8003,N,12217.8618,W,2,05,2.0,-2.3,M,-25.1,M,,0000*4A
$GPGSA,A,3,09,04,12,02,25,,,,,,,,4.1,2.0,3.5*38
$GPRMC,190729.000,A,3748.8003,N,12217.8618,W,0.77,231.23,181011,,,D*77
$GPVTG,231.23,T,,M,0.77,N,1.4,K,D*0C
$GPGGA,190730.000,3748.8001,N,12217.8623,W,2,05,2.0,-2.5,M,-25.1,M,2.8,0000*6A
$GPGSA,A,3,09,04,12,02,25,,,,,,,,4.1,2.0,3.5*38
$GPGSV,3,1,11,02,60,174,41,04,57,071,37,09,55,237,42,27,49,215,41*7E
$GPGSV,3,2,11,12,46,316,42,17,22,060,30,25,14,306,36,10,14,116,27*7D
$GPGSV,3,3,11,28,02,116,,14,02,313,30,48,44,197,39*4B
$GPRMC,190730.000,A,3748.8001,N,12217.8623,W,0.30,203.40,181011,,,D*72
$GPVTG,203.40,T,,M,0.30,N,0.6,K,D*08
$GPGGA,190731.000,3748.7995,N,12217.8623,W,2,05,2.0,-4.0,M,-25.1,M,3.8,0000*62
$GPGSA,A,3,09,04,12,02,25,,,,,,,,4.1,2.0,3.5*38
$GPRMC,190731.000,A,3748.7995,N,12217.8623,W,0.65,208.36,181011,,,D*72
$GPVTG,208.36,T,,M,0.65,N,1.2,K,D*07
$GPGGA,190732.000,3748.7998,N,12217.8624,W,2,05,2.0,-2.5,M,-25.1,M,4.8,0000*6F
$GPGSA,A,3,09,04,12,02,25,,,,,,,,4.1,2.0,3.5*38
$GPRMC,190732.000,A,3748.7998,N,12217.8624,W,0.26,258.25,181011,,,D*7B
$GPVTG,258.25,T,,M,0.26,N,0.5,K,D*01
$GPGGA,190733.000,3748.7997,N,12217.8626,W,2,05,2.0,-1.5,M,-25.1,M,5.8,0000*61
$GPGSA,A,3,09,04,12,02,25,,,,,,,,4.1,2.0,3.5*38
$GPRMC,190733.000,A,3748.7997,N,12217.8626,W,1.37,169.34,181011,,,D*77
$GPVTG,169.34,T,,M,1.37,N,2.5,K,D*03
$GPGGA,190734.000,3748.7996,N,12217.8629,W,2,05,2.0,1.3,M,-25.1,M,6.8,0000*40
$GPGSA,A,3,09,04,12,02,25,,,,,,,,4.1,2.0,3.5*38
$GPRMC,190734.000,A,3748.7996,N,12217.8629,W,1.49,196.71,181011,,,D*76
$GPVTG,196.71,T,,M,1.49,N,2.8,K,D*06
$GPGGA,190735.000,3748.7997,N,12217.8633,W,2,05,2.0,2.9,M,-25.1,M,7.8,0000*43
$GPGSA,A,3,09,04,12,02,25,,,,,,,,4.1,2.0,3.5*38
$GPGSV,3,1,10,02,60,174,28,04,57,071,26,09,55,237,20,27,49,215,21*72
$GPGSV,3,2,10,12,46,316,28,17,22,060,20,25,14,306,24,10,14,116,27*72
$GPGSV,3,3,10,28,02,116,,14,02,313,15*74
$GPRMC,190735.000,A,3748.7997,N,12217.8633,W,0.27,224.75,181011,,,D*7A
$GPVTG,224.75,T,,M,0.27,N,0.5,K,D*0E
$GPGGA,190736.000,3748.7998,N,12217.8636,W,2,05,2.0,5.2,M,-25.1,M,8.8,0000*49
$GPGSA,A,3,09,04,12,02,25,,,,,,,,4.1,2.0,3.5*38
$GPRMC,190736.000,A,3748.7998,N,12217.8636,W,0.56,237.90,181011,,,D*7C
$GPVTG,237.90,T,,M,0.56,N,1.0,K,D*05
$GPGGA,190737.000,3748.7999,N,12217.8636,W,2,05,2.0,5.9,M,-25.1,M,9.8,0000*43
$GPGSA,A,3,09,04,12,02,25,,,,,,,,4.1,2.0,3.5*38
$GPRMC,190737.000,A,3748.7999,N,12217.8636,W,0.15,303.97,181011,,,D*7A
$GPVTG,303.97,T,,M,0.15,N,0.3,K,D*01
$GPGGA,190738.000,3748.7999,N,12217.8635,W,2,05,2.0,6.2,M,-25.1,M,10.8,0000*7F
$GPGSA,A,3,09,04,12,02,25,,,,,,,,4.1,2.0,3.5*38
$GPRMC,190738.000,A,3748.7999,N,12217.8635,W,0.50,11.59,181011,,,D*45
$GPVTG,11.59,T,,M,0.50,N,0.9,K,D*38
$GPGGA,190739.000,3748.8001,N,12217.8633,W,2,05,2.0,5.9,M,-25.1,M,11.8,0000*76
$GPGSA,A,3,09,04,12,02,25,,,,,,,,4.1,2.0,3.5*38
$GPRMC,190739.000,A,3748.8001,N,12217.8633,W,0.41,328.25,181011,,,D*77
$GPVTG,328.25,T,,M,0.41,N,0.8,K,D*0B
$GPGGA,190740.000,3748.8003,N,12217.8632,W,2,05,2.0,5.3,M,-25.1,M,12.8,0000*72
$GPGSA,A,3,09,04,12,02,25,,,,,,,,4.1,2.0,3.5*38
$GPGSV,3,1,10,02,60,174,25,04,57,071,31,09,55,237,22,27,49,215,21*7B
$GPGSV,3,2,10,12,46,316,29,17,22,060,22,25,14,306,21,10,14,116,33*71
$GPGSV,3,3,10,28,02,116,,14,02,313,17*76
$GPRMC,190740.000,A,3748.8003,N,12217.8632,W,0.51,314.89,181011,,,D*72
$GPVTG,314.89,T,,M,0.51,N,0.9,K,D*02
$GPGGA,190741.000,3748.7998,N,12217.8629,W,2,04,2.4,5.1,M,-25.1,M,13.8,0000*7B
$GPGSA,A,3,04,12,02,25,,,,,,,,,4.5,2.4,3.8*3C
$GPRMC,190741.000,A,3748.7998,N,12217.8629,W,0.54,207.50,181011,,,D*7F
$GPVTG,207.50,T,,M,0.54,N,1.0,K,D*08
$GPGGA,190742.000,3748.7996,N,12217.8630,W,2,03,50.0,6.0,M,-25.1,M,14.8,0000*4F
$GPGSA,A,2,04,12,25,,,,,,,,,,50.0,50.0,1.0*32
$GPRMC,190742.000,A,3748.7996,N,12217.8630,W,1.33,189.41,181011,,,D*7F
$GPVTG,189.41,T,,M,1.33,N,2.5,K,D*0B
$GPGGA,190743.000,3748.7985,N,12217.8632,W,2,04,2.4,6.2,M,-25.1,M,15.8,0000*79
$GPGSA,A,3,04,12,02,25,,,,,,,,,4.5,2.4,3.8*3C
$GPRMC,190743.000,A,3748.7985,N,12217.8632,W,2.18,194.59,181011,,,D*71
$GPVTG,194.59,T,,M,2.18,N,4.0,K,D*07
$GPGGA,190744.000,3748.7989,N,12217.8630,W,2,05,2.0,7.0,M,-25.1,M,16.8,0000*75
$GPGSA,A,3,09,04,12,02,25,,,,,,,,4.1,2.0,3.5*38
$GPRMC,190744.000,A,3748.7989,N,12217.8630,W,0.33,178.34,181011,,,D*7A
$GPVTG,178.34,T,,M,0.33,N,0.6,K,D*07
$GPGGA,190745.000,3748.7994,N,12217.8627,W,2,05,2.0,7.7,M,-25.1,M,17.8,0000*78
$GPGSA,A,3,09,04,12,02,25,,,,,,,,4.1,2.0,3.5*38
$GPGSV,3,1,10,02,60,174,30,04,57,071,32,09,55,237,29,27,49,215,*74
$GPGSV,3,2,10,12,46,316,34,17,22,060,21,25,14,306,29,10,14,116,25*71
$GPGSV,3,3,10,28,02,116,,14,02,313,21*73
$GPRMC,190745.000,A,3748.7994,N,12217.8627,W,0.88,35.40,181011,,,D*4A
$GPGGA,190746.000,3748.8001,N,12217.8622,W,1,05,2.0,8.4,M,-25.1,M,,0000*6B
$GPGSA,A,3,09,04,12,02,25,,,,,,,,4.1,2.0,3.5*38
$GPRMC,190746.000,A,3748.8001,N,12217.8622,W,0.37,13.35,181011,,,A*41
$GPVTG,13.35,T,,M,0.37,N,0.7,K,A*3A
$GPGGA,190747.000,3748.7998,N,12217.8618,W,1,05,2.0,8.0,M,-25.1,M,,0000*61
$GPGSA,A,3,09,04,12,02,25,,,,,,,,4.1,2.0,3.5*38
$GPRMC,190747.000,A,3748.7998,N,12217.8618,W,0.08,109.67,181011,,,A*7E
$GPVTG,109.67,T,,M,0.08,N,0.2,K,A*0E
$GPGGA,190748.000,3748.7995,N,12217.8613,W,1,05,2.0,7.1,M,-25.1,M,,0000*66
$GPGSA,A,3,09,04,12,02,25,,,,,,,,4.1,2.0,3.5*38
$GPRMC,190748.000,A,3748.7995,N,12217.8613,W,0.17,156.60,181011,,,A*74
$GPVTG,156.60,T,,M,0.17,N,0.3,K,A*0C
$GPGGA,190749.000,3748.7992,N,12217.8611,W,1,05,2.0,6.9,M,-25.1,M,,0000*6B
$GPGSA,A,3,09,04,12,02,25,,,,,,,,4.1,2.0,3.5*38
$GPRMC,190749.000,A,3748.7992,N,12217.8611,W,0.37,218.61,181011,,,A*7A
$GPVTG,218.61,T,,M,0.37,N,0.7,K,A*02
$GPGGA,190750.000,3748.7991,N,12217.8606,W,1,05,2.0,6.0,M,-25.1,M,,0000*6F
$GPGSA,A,3,09,04,12,02,25,,,,,,,,4.1,2.0,3.5*38
$GPGSV,3,1,10,02,60,174,30,04,57,071,24,09,55,237,31,27,49,215,23*7B
$GPGSV,3,2,10,12,46,316,26,17,22,060,23,25,14,306,31,10,14,116,25*79
$GPGSV,3,3,10,28,02,116,,14,02,313,26*74
$GPRMC,190750.000,A,3748.7991,N,12217.8606,W,0.47,196.01,181011,,,A*73
$GPVTG,196.01,T,,M,0.47,N,0.9,K,A*08
$GPGGA,190751.000,3748.7993,N,12217.8604,W,1,05,2.0,7.7,M,-25.1,M,,0000*68
$GPGSA,A,3,09,04,12,02,25,,,,,,,,4.1,2.0,3.5*38
$GPRMC,190751.000,A,3748.7993,N,12217.8604,W,0.54,55.90,181011,,,A*46
$GPVTG,55.90,T,,M,0.54,N,1.0,K,A*34
$GPGGA,190752.000,3748.7991,N,12217.8606,W,1,05,2.0,8.3,M,-25.1,M,,0000*60
$GPGSA,A,3,09,04,12,02,25,,,,,,,,4.1,2.0,3.5*38
$GPRMC,190752.000,A,3748.7991,N,12217.8606,W,0.41,81.88,181011,,,A*41
$GPVTG,81.88,T,,M,0.41,N,0.8,K,A*39
$GPGGA,190753.000,3748.7996,N,12217.8600,W,1,05,2.0,8.4,M,-25.1,M,,0000*67
$GPGSA,A,3,09,04,12,02,25,,,,,,,,4.1,2.0,3.5*38
$GPRMC,190753.000,A,3748.7996,N,12217.8600,W,0.87,76.47,181011,,,A*40
$GPVTG,76.47,T,,M,0.87,N,1.6,K,A*37
$GPGGA,190754.000,3748.8000,N,12217.8597,W,1,05,2.0,9.2,M,-25.1,M,,0000*63
$GPGSA,A,3,09,04,12,02,25,,,,,,,,4.1,2.0,3.5*38
$GPRMC,190754.000,A,3748.8000,N,12217.8597,W,1.47,89.33,181011,,,A*4D
$GPVTG,89.33,T,,M,1.47,N,2.7,K,A*3B
$GPGGA,190755.000,3748.8002,N,12217.8595,W,1,05,2.0,8.8,M,-25.1,M,,0000*69
$GPGSA,A,3,09,04,12,02,25,,,,,,,,4.1,2.0,3.5*38
$GPGSV,3,1,11,02,60,174,33,04,57,071,35,09,55,237,27,27,49,215,25*78
$GPGSV,3,2,11,12,46,316,30,17,22,060,27,25,14,306,35,10,14,116,36*7D
$GPRMC,190755.000,A,3748.8002,N,12217.8595,W,0.17,84.93,181011,,,A*4F
$GPVTG,84.93,T,,M,0.17,N,0.3,K,A*3E
$GPGGA,190756.000,3748.8004,N,12217.8594,W,1,05,2.1,8.4,M,-25.1,M,,0000*60
$GPGSA,A,3,09,04,12,02,25,,,,,,,,4.1,2.1,3.5*39
$GPRMC,190756.000,A,3748.8004,N,12217.8594,W,0.11,109.28,181011,,,A*79
$GPVTG,109.28,T,,M,0.11,N,0.2,K,A*0D
$GPGGA,190757.000,3748.8007,N,12217.8596,W,1,05,2.1,8.7,M,-25.1,M,,0000*63
$GPGSA,A,3,09,04,12,02,25,,,,,,,,4.1,2.1,3.5*39
$GPRMC,190757.000,A,3748.8007,N,12217.8596,W,0.20,64.62,181011,,,A*4F
$GPVTG,64.62,T,,M,0.20,N,0.4,K,A*3D
$GPGGA,190758.000,3748.8007,N,12217.8596,W,1,05,2.1,8.5,M,-25.1,M,,0000*6E
$GPGSA,A,3,09,04,12,02,25,,,,,,,,4.1,2.1,3.5*39
$GPRMC,190758.000,A,3748.8007,N,12217.8596,W,0.52,46.11,181011,,,A*41
$GPVTG,46.11,T,,M,0.52,N,1.0,K,A*39
$GPGGA,190759.000,3748.8005,N,12217.8600,W,1,05,2.1,8.4,M,-25.1,M,,0000*60
$GPGSA,A,3,09,04,12,02,25,,,,,,,,4.1,2.1,3.5*39
$GPRMC,190759.000,A,3748.8005,N,12217.8600,W,0.64,214.42,181011,,,A*78
$GPVTG,214.42,T,,M,0.64,N,1.2,K,A*0D
$GPGGA,190800.000,3748.8000,N,12217.8599,W,1,05,2.1,7.8,M,-25.1,M,,0000*66
$GPGSA,A,3,09,04,12,02,25,,,,,,,,4.1,2.1,3.5*39
$GPGSV,3,1,11,02,60,174,33,04,57,071,34,09,55,237,33,27,49,215,35*7D
$GPGSV,3,2,11,12,46,316,29,17,22,060,34,25,14,306,27,10,14,116,36*74
$GPGSV,3,3,11,28,02,116,23,14,02,313,21,48,44,197,33*40
$GPRMC,190800.000,A,3748.8000,N,12217.8599,W,0.66,46.48,181011,,,A*40
$GPVTG,46.48,T,,M,0.66,N,1.2,K,A*30
$GPGGA,190801.000,3748.8005,N,12217.8600,W,1,05,2.1,9.1,M,-25.1,M,,0000*66
$GPGSA,A,3,09,04,12,02,25,,,,,,,,4.1,2.1,3.5*39
$GPRMC,190801.000,A,3748.8005,N,12217.8600,W,1.17,318.31,181011,,,A*76
$GPVTG,318.31,T,,M,1.17,N,2.2,K,A*02
$GPGGA,190802.000,3748.8014,N,12217.8603,W,1,05,2.1,11.6,M,-25.1,M,,0000*58
$GPGSA,A,3,09,04,12,02,25,,,,,,,,4.1,2.1,3.5*39
$GPRMC,190802.000,A,3748.8014,N,12217.8603,W,1.24,317.04,181011,,,A*7F
$GPVTG,317.04,T,,M,1.24,N,2.3,K,A*0A
$GPGGA,190803.000,3748.8015,N,12217.8592,W,1,05,2.1,11.3,M,-25.1,M,,0000*56
$GPGSA,A,3,09,04,12,02,25,,,,,,,,4.1,2.1,3.5*39
$GPRMC,190803.000,A,3748.8015,N,12217.8592,W,0.30,155.59,181011,,,A*7C
$GPVTG,155.59,T,,M,0.30,N,0.6,K,A*05
$GPGGA,190804.000,3748.8015,N,12217.8572,W,1,06,1.7,8.1,M,-25.1,M,,0000*63
$GPGSA,A,3,09,04,12,17,02,25,,,,,,,3.0,1.7,2.5*3D
$GPRMC,190804.000,A,3748.8015,N,12217.8572,W,1.07,134.91,181011,,,A*73
$GPVTG,134.91,T,,M,1.07,N,2.0,K,A*07
$GPGGA,190805.000,3748.8010,N,12217.8554,W,1,06,1.7,7.0,M,-25.1,M,,0000*6D
$GPGSA,A,3,09,04,12,17,02,25,,,,,,,3.0,1.7,2.5*3D
$GPGSV,3,1,10,02,60,174,31,04,57,071,30,09,55,236,24,27,49,215,23*7A
$GPGSV,3,2,10,12,46,316,19,17,21,060,39,25,15,306,20,10,14,116,39*71
$GPGSV,3,3,10,28,02,116,21,14,02,313,20*71
$GPRMC,190805.000,A,3748.8010,N,12217.8554,W,1.26,129.40,181011,,,A*70
$GPVTG,129.40,T,,M,1.26,N,2.3,K,A*07
$GPGGA,190806.000,3748.8008,N,12217.8551,W,1,06,1.7,8.3,M,-25.1,M,,0000*6E
$GPGSA,A,3,09,04,12,17,02,25,,,,,,,3.0,1.7,2.5*3D
$GPRMC,190806.000,A,3748.8008,N,12217.8551,W,0.84,138.50,181011,,,A*77
$GPVTG,138.50,T,,M,0.84,N,1.6,K,A*09
$GPGGA,190807.000,3748.8006,N,12217.8548,W,1,05,1.8,8.0,M,-25.1,M,,0000*66
$GPGSA,A,3,04,12,17,02,25,,,,,,,,3.1,1.8,2.5*3A
$GPRMC,190807.000,A,3748.8006,N,12217.8548,W,0.56,137.08,181011,,,A*7D
$GPVTG,137.08,T,,M,0.56,N,1.0,K,A*02
$GPGGA,190808.000,3748.8000,N,12217.8543,W,1,05,1.8,6.2,M,-25.1,M,,0000*68
$GPGSA,A,3,04,12,17,02,25,,,,,,,,3.1,1.8,2.5*3A
$GPRMC,190808.000,A,3748.8000,N,12217.8543,W,0.56,151.04,181011,,,A*73
$GPVTG,151.04,T,,M,0.56,N,1.0,K,A*0E
$GPGGA,190809.000,3748.8004,N,12217.8549,W,1,05,1.8,7.1,M,-25.1,M,,0000*65
$GPGSA,A,3,04,12,17,02,25,,,,,,,,3.1,1.8,2.5*3A
$GPRMC,190809.000,A,3748.8004,N,12217.8549,W,0.40,152.98,181011,,,A*7D
$GPVTG,152.98,T,,M,0.40,N,0.7,K,A*09
$GPGGA,190810.000,3748.8004,N,12217.8556,W,1,05,1.8,8.3,M,-25.1,M,,0000*6E
$GPGSA,A,3,04,12,17,02,25,,,,,,,,3.1,1.8,2.5*3A
$GPGSV,3,1,10,02,60,174,22,04,57,071,24,09,55,236,,27,49,215,21*79
$GPGSV,3,2,10,12,46,316,25,17,21,060,32,25,15,306,18,10,14,116,26*70
$GPGSV,3,3,10,28,02,116,,14,02,313,*70
$GPRMC,190810.000,A,3748.8004,N,12217.8556,W,0.54,170.10,181011,,,A*7E
$GPGGA,190811.000,3748.8003,N,12217.8563,W,1,05,1.8,9.5,M,-25.1,M,,0000*69
$GPGSA,A,3,04,12,17,02,25,,,,,,,,3.1,1.8,2.5*3A
$GPRMC,190811.000,A,3748.8003,N,12217.8563,W,0.58,147.54,181011,,,A*76
$GPVTG,147.54,T,,M,0.58,N,1.1,K,A*03
$GPGGA,190812.000,3748.8002,N,12217.8567,W,1,05,1.8,10.0,M,-25.1,M,,0000*52
$GPGSA,A,3,04,12,17,02,25,,,,,,,,3.1,1.8,2.5*3A
$GPRMC,190812.000,A,3748.8002,N,12217.8567,W,0.37,122.37,181011,,,A*7F
$GPVTG,122.37,T,,M,0.37,N,0.7,K,A*0B
$GPGGA,190813.000,3748.8004,N,12217.8568,W,1,06,1.6,9.9,M,-25.1,M,,0000*66
$GPGSA,A,3,09,04,12,17,02,25,,,,,,,3.0,1.6,2.5*3C
$GPRMC,190813.000,A,3748.8004,N,12217.8568,W,0.28,32.07,181011,,,A*4A
$GPVTG,32.07,T,,M,0.28,N,0.5,K,A*34
$GPGGA,190814.000,3748.8008,N,12217.8567,W,1,06,1.6,10.0,M,-25.1,M,,0000*53
$GPGSA,A,3,09,04,12,17,02,25,,,,,,,3.0,1.6,2.5*3C
$GPRMC,190814.000,A,3748.8008,N,12217.8567,W,0.45,11.37,181011,,,A*47
$GPVTG,11.37,T,,M,0.45,N,0.8,K,A*30
$GPGGA,190815.000,3748.8000,N,12217.8572,W,1,06,1.6,9.2,M,-25.1,M,,0000*64
$GPGSA,A,3,09,04,12,17,02,25,,,,,,,3.0,1.6,2.5*3C
$GPGSV,3,1,10,02,60,174,15,04,57,071,36,09,55,236,22,27,49,215,21*7E
$GPGSV,3,2,10,12,46,316,33,17,21,060,33,25,15,306,34,10,14,116,25*7B
$GPGSV,3,3,10,28,02,116,,14,02,313,25*77
$GPRMC,190815.000,A,3748.8000,N,12217.8572,W,1.10,188.96,181011,,,A*71
$GPVTG,188.96,T,,M,1.10,N,2.0,K,A*01
$GPGGA,190816.000,3748.7992,N,12217.8576,W,1,06,1.6,8.8,M,-25.1,M,,0000*65
$GPGSA,A,3,09,04,12,17,02,25,,,,,,,3.0,1.6,2.5*3C
$GPRMC,190816.000,A,3748.7992,N,12217.8576,W,1.79,183.98,181011,,,A*71
$GPVTG,183.98,T,,M,1.79,N,3.3,K,A*09
$GPGGA,190817.000,3748.7989,N,12217.8578,W,1,06,1.6,8.7,M,-25.1,M,,0000*6F
$GPGSA,A,3,09,04,12,17,02,25,,,,,,,3.0,1.6,2.5*3C
$GPRMC,190817.000,A,3748.7989,N,12217.8578,W,1.94,181.19,181011,,,A*7C
$GPVTG,181.19,T,,M,1.94,N,3.6,K,A*04
$GPGGA,190818.000,3748.7985,N,12217.8581,W,1,06,1.6,8.0,M,-25.1,M,,0000*6D
$GPGSA,A,3,09,04,12,17,02,25,,,,,,,3.0,1.6,2.5*3C
$GPRMC,190818.000,A,3748.7985,N,12217.8581,W,1.19,171.68,181011,,,A*75
$GPVTG,171.68,T,,M,1.19,N,2.2,K,A*0D
$GPGGA,190819.000,3748.7985,N,12217.8582,W,1,05,1.9,8.7,M,-25.1,M,,0000*64
$GPGSA,A,3,09,12,17,02,25,,,,,,,,3.6,1.9,3.1*34
$GPRMC,190819.000,A,3748.7985,N,12217.8582,W,0.87,159.25,181011,,,A*72
$GPVTG,159.25,T,,M,0.87,N,1.6,K,A*0F
$GPGGA,190820.000,3748.7982,N,12217.8581,W,1,05,2.1,8.5,M,-25.1,M,,0000*63
$GPGSA,A,3,09,04,12,02,25,,,,,,,,4.1,2.1,3.6*3A
$GPGSV,3,1,11,02,61,174,29,04,57,071,22,09,55,236,36,27,49,215,34*75
$GPGSV,3,2,11,12,46,316,29,17,21,060,18,25,15,306,25,10,14,116,21*7C
$GPGSV,3,3,11,28,02,116,,14,02,313,22,48,44,197,37*46
$GPRMC,190820.000,A,3748.7982,N,12217.8581,W,1.66,131.99,181011,,,A*7B
$GPVTG,131.99,T,,M,1.66,N,3.1,K,A*0D
$GPGGA,190821.000,3748.7985,N,12217.8580,W,1,06,1.6,10.4,M,-25.1,M,,0000*5B
$GPGSA,A,3,09,04,12,17,02,25,,,,,,,3.0,1.6,2.5*3C
$GPRMC,190821.000,A,3748.7985,N,12217.8580,W,2.10,114.16,181011,,,A*7E
$GPVTG,114.16,T,,M,2.10,N,3.9,K,A*07
$GPGGA,190822.000,3748.7983,N,12217.8579,W,1,06,1.6,10.0,M,-25.1,M,,0000*5C
$GPGSA,A,3,09,04,12,17,02,25,,,,,,,3.0,1.6,2.5*3C
$GPRMC,190822.000,A,3748.7983,N,12217.8579,W,1.71,107.70,181011,,,A*7B
$GPVTG,107.70,T,,M,1.71,N,3.2,K,A*0A
$GPGGA,190823.000,3748.7980,N,12217.8574,W,1,06,1.6,10.4,M,-25.1,M,,0000*57
$GPGSA,A,3,09,04,12,17,02,25,,,,,,,3.0,1.6,2.5*3C
$GPRMC,190823.000,A,3748.7980,N,12217.8574,W,1.73,114.48,181011,,,A*7F
$GPVTG,114.48,T,,M,1.73,N,3.2,K,A*01
$GPGGA,190824.000,3748.7972,N,12217.8573,W,1,06,1.6,9.9,M,-25.1,M,,0000*6F
$GPGSA,A,3,09,04,12,17,02,25,,,,,,,3.0,1.6,2.5*3C
$GPRMC,190824.000,A,3748.7972,N,12217.8573,W,1.00,123.48,181011,,,A*72
$GPVTG,123.48,T,,M,1.00,N,1.9,K,A*08
$GPGGA,190825.000,3748.7969,N,12217.8569,W,1,06,1.6,10.5,M,-25.1,M,,0000*5B
$GPGSA,A,3,09,04,12,17,02,25,,,,,,,3.0,1.6,2.5*3C
$GPGSV,3,1,11,02,61,174,35,04,57,071,23,09,55,236,35,27,49,215,35*7B
$GPGSV,3,2,11,12,46,316,20,17,21,060,20,25,15,306,19,10,14,116,30*71
$GPGSV,3,3,11,28,02,116,,14,02,313,16,48,44,197,36*40
$GPRMC,190825.000,A,3748.7969,N,12217.8569,W,1.11,112.18,181011,,,A*75
$GPGGA,190826.000,3748.7965,N,12217.8565,W,1,06,1.6,11.3,M,-25.1,M,,0000*5F
$GPGSA,A,3,09,04,12,17,02,25,,,,,,,3.0,1.6,2.5*3C
$GPRMC,190826.000,A,3748.7965,N,12217.8565,W,2.06,130.34,181011,,,A*7D
$GPVTG,130.34,T,,M,2.06,N,3.8,K,A*07
$GPGGA,190827.000,3748.7962,N,12217.8563,W,1,06,1.6,14.5,M,-25.1,M,,0000*5C
$GPGSA,A,3,09,04,12,17,02,25,,,,,,,3.0,1.6,2.5*3C
$GPRMC,190827.000,A,3748.7962,N,12217.8563,W,1.78,131.89,181011,,,A*70
$GPVTG,131.89,T,,M,1.78,N,3.3,K,A*01
$GPGGA,190828.000,3748.7958,N,12217.8567,W,2,06,1.6,16.3,M,-25.1,M,,0000*59
$GPGSA,A,3,09,04,12,17,02,25,,,,,,,3.0,1.6,2.5*3C
$GPRMC,190828.000,A,3748.7958,N,12217.8567,W,1.34,110.00,181011,,,D*7D
$GPVTG,110.00,T,,M,1.34,N,2.5,K,D*09
$GPGGA,190829.000,3748.7959,N,12217.8569,W,2,06,1.6,18.6,M,-25.1,M,,0000*5C
$GPGSA,A,3,09,04,12,17,02,25,,,,,,,3.0,1.6,2.5*3C
$GPRMC,190829.000,A,3748.7959,N,12217.8569,W,1.26,110.88,181011,,,D*70
$GPVTG,110.88,T,,M,1.26,N,2.3,K,D*0C
$GPGGA,190830.000,3748.7958,N,12217.8561,W,2,05,2.1,20.7,M,-25.1,M,2.8,0000*74
$GPGSA,A,3,09,04,12,17,25,,,,,,,,3.3,2.1,2.6*3A
$GPGSV,3,1,11,02,61,174,32,04,57,071,24,09,55,236,34,27,49,215,35*7A
$GPGSV,3,2,11,12,46,316,20,17,21,060,23,25,15,306,25,10,14,116,25*79
$GPGSV,3,3,11,28,02,116,,14,02,313,16,48,44,197,33*45
$GPRMC,190830.000,A,3748.7958,N,12217.8561,W,1.70,104.39,181011,,,D*7D
$GPVTG,104.39,T,,M,1.70,N,3.2,K,D*00
$GPGGA,190831.000,3748.7954,N,12217.8553,W,2,06,1.6,21.2,M,-25.1,M,3.8,0000*7A
$GPGSA,A,3,09,04,12,17,02,25,,,,,,,3.0,1.6,2.5*3C
$GPRMC,190831.000,A,3748.7954,N,12217.8553,W,1.09,113.19,181011,,,D*7B
$GPVTG,113.19,T,,M,1.09,N,2.0,K,D*09
$GPGGA,190832.000,3748.7946,N,12217.8545,W,2,06,1.6,19.6,M,-25.1,M,4.8,0000*75
$GPGSA,A,3,09,04,12,17,02,25,,,,,,,3.0,1.6,2.5*3C
$GPRMC,190832.000,A,3748.7946,N,12217.8545,W,1.83,110.81,181011,,,D*7C
$GPVTG,110.81,T,,M,1.83,N,3.4,K,D*0C
$GPGGA,190833.000,3748.7941,N,12217.8542,W,2,06,1.6,19.7,M,-25.1,M,,0000*57
$GPGSA,A,3,09,04,12,17,02,25,,,,,,,3.0,1.6,2.5*3C
$GPRMC,190833.000,A,3748.7941,N,12217.8542,W,2.19,110.98,181011,,,D*75
$GPVTG,110.98,T,,M,2.19,N,4.1,K,D*06
$GPGGA,190834.000,3748.7937,N,12217.8538,W,2,06,1.6,19.4,M,-25.1,M,2.8,0000*7B
$GPGSA,A,3,09,04,12,17,02,25,,,,,,,3.0,1.6,2.5*3C
$GPRMC,190834.000,A,3748.7937,N,12217.8538,W,1.89,105.16,181011,,,D*76
$GPVTG,105.16,T,,M,1.89,N,3.5,K,D*0D
$GPGGA,190835.000,3748.7936,N,12217.8535,W,2,06,1.6,19.5,M,-25.1,M,3.8,0000*76
$GPGSA,A,3,09,04,12,17,02,25,,,,,,,3.0,1.6,2.5*3C
$GPGSV,3,1,11,02,61,174,28,04,57,071,24,09,55,236,31,27,49,215,28*78
$GPGSV,3,2,11,12,46,316,24,17,21,060,15,25,15,306,18,10,14,116,24*77
$GPGSV,3,3,11,28,02,116,,14,02,313,15,48,44,197,32*47
$GPRMC,190835.000,A,3748.7936,N,12217.8535,W,1.75,117.66,181011,,,D*7C
$GPVTG,117.66,T,,M,1.75,N,3.2,K,D*0D
$GPGGA,190836.000,3748.7932,N,12217.8529,W,2,06,1.6,19.8,M,-25.1,M,4.8,0000*76
$GPGSA,A,3,09,04,12,17,02,25,,,,,,,3.0,1.6,2.5*3C
$GPRMC,190836.000,A,3748.7932,N,12217.8529,W,1.99,123.79,181011,,,D*7D
$GPVTG,123.79,T,,M,1.99,N,3.7,K,D*03
$GPGGA,190837.000,3748.7924,N,12217.8518,W,2,06,1.6,19.0,M,-25.1,M,5.8,0000*7B
$GPGSA,A,3,09,04,12,17,02,25,,,,,,,3.0,1.6,2.5*3C
$GPRMC,190837.000,A,3748.7924,N,12217.8518,W,2.17,127.18,181011,,,D*7F
$GPVTG,127.18,T,,M,2.17,N,4.0,K,D*05
$GPGGA,190838.000,3748.7918,N,12217.8513,W,2,06,1.6,18.2,M,-25.1,M,6.8,0000*70
$GPGSA,A,3,09,04,12,17,02,25,,,,,,,3.0,1.6,2.5*3C
$GPRMC,190838.000,A,3748.7918,N,12217.8513,W,1.41,104.34,181011,,,D*7B
$GPVTG,104.34,T,,M,1.41,N,2.6,K,D*0A
$GPGGA,190839.000,3748.7918,N,12217.8508,W,2,06,1.6,17.9,M,-25.1,M,7.8,0000*7E
$GPGSA,A,3,09,04,12,17,02,25,,,,,,,3.0,1.6,2.5*3C
$GPRMC,190839.000,A,3748.7918,N,12217.8508,W,1.39,74.78,181011,,,D*41
$GPVTG,74.78,T,,M,1.39,N,2.6,K,D*3B
$GPGGA,190840.000,3748.7915,N,12217.8501,W,2,06,1.6,17.2,M,-25.1,M,,0000*5E
$GPGSA,A,3,09,04,12,17,02,25,,,,,,,3.0,1.6,2.5*3C
$GPGSV,3,1,11,02,61,174,32,04,57,071,26,09,55,236,34,27,49,215,32*7F
$GPGSV,3,2,11,12,46,316,24,17,21,060,19,25,15,306,24,10,14,116,22*72
$GPGSV,3,3,11,28,02,116,,14,02,313,17,48,44,197,32*45
$GPVTG,96.82,T,,M,1.28,N,2.4,K,D*30
$GPGGA,190841.000,3748.7918,N,12217.8493,W,2,06,1.6,18.3,M,-25.1,M,2.8,0000*72
$GPGSA,A,3,09,04,12,17,02,25,,,,,,,3.0,1.6,2.5*3C
$GPRMC,190841.000,A,3748.7918,N,12217.8493,W,2.08,113.96,181011,,,D*7C
$GPVTG,113.96,T,,M,2.08,N,3.9,K,D*04
$GPGGA,190842.000,3748.7917,N,12217.8489,W,2,06,1.6,18.5,M,-25.1,M,3.8,0000*72
$GPGSA,A,3,09,04,12,17,02,25,,,,,,,3.0,1.6,2.5*3C
$GPRMC,190842.000,A,3748.7917,N,12217.8489,W,1.32,122.24,181011,,,D*7A
$GPVTG,122.24,T,,M,1.32,N,2.4,K,D*09
$GPGGA,190843.000,3748.7915,N,12217.8487,W,2,06,1.6,18.3,M,-25.1,M,4.8,0000*7E
$GPGSA,A,3,09,04,12,17,02,25,,,,,,,3.0,1.6,2.5*3C
$GPRMC,190843.000,A,3748.7915,N,12217.8487,W,1.04,117.42,181011,,,D*74
$GPVTG,117.42,T,,M,1.04,N,1.9,K,D*04
$GPGGA,190844.000,3748.7913,N,12217.8483,W,2,06,1.6,21.2,M,-25.1,M,5.8,0000*71
$GPGSA,A,3,09,04,12,17,02,25,,,,,,,3.0,1.6,2.5*3C
$GPRMC,190844.000,A,3748.7913,N,12217.8483,W,0.71,112.98,181011,,,D*70
$GPVTG,112.98,T,,M,0.71,N,1.3,K,D*0F
$GPGGA,190845.000,3748.7909,N,12217.8480,W,2,06,1.6,20.6,M,-25.1,M,6.8,0000*7E
$GPGSA,A,3,09,04,12,17,02,25,,,,,,,3.0,1.6,2.5*3C
$GPGSV,3,1,11,02,61,174,32,04,57,071,25,09,55,236,31,27,49,215,28*72
$GPGSV,3,2,11,12,46,316,24,17,21,060,23,25,15,306,27,10,14,116,35*7E
$GPGSV,3,3,11,28,02,116,,14,02,313,18,48,44,197,34*4C
$GPRMC,190845.000,A,3748.7909,N,12217.8480,W,1.28,125.55,181011,,,D*71
$GPVTG,125.55,T,,M,1.28,N,2.4,K,D*03
$GPGGA,190846.000,3748.7908,N,12217.8473,W,2,06,1.6,21.1,M,-25.1,M,7.8,0000*77
$GPGSA,A,3,09,04,12,17,02,25,,,,,,,3.0,1.6,2.5*3C
$GPRMC,190846.000,A,3748.7908,N,12217.8473,W,1.67,94.04,181011,,,D*4B
$GPVTG,94.04,T,,M,1.67,N,3.1,K,D*33
$GPGGA,190847.000,3748.7901,N,12217.8462,W,2,06,1.6,19.0,M,-25.1,M,8.8,0000*7A
$GPGSA,A,3,09,04,12,17,02,25,,,,,,,3.0,1.6,2.5*3C
$GPRMC,190847.000,A,3748.7901,N,12217.8462,W,2.11,106.10,181011,,,D*7E
$GPVTG,106.10,T,,M,2.11,N,3.9,K,D*06
$GPGGA,190848.000,3748.7893,N,12217.8452,W,2,06,1.6,16.9,M,-25.1,M,9.8,0000*7B
$GPGSA,A,3,09,04,12,17,02,25,,,,,,,3.0,1.6,2.5*3C
$GPRMC,190848.000,A,3748.7893,N,12217.8452,W,2.75,116.72,181011,,,D*7F
$GPVTG,116.72,T,,M,2.75,N,5.1,K,D*0F
$GPGGA,190849.000,3748.7883,N,12217.8443,W,2,06,1.6,16.0,M,-25.1,M,10.8,0000*4A
$GPGSA,A,3,09,04,12,17,02,25,,,,,,,3.0,1.6,2.5*3C
$GPRMC,190849.000,A,3748.7883,N,12217.8443,W,2.82,125.70,181011,,,D*75
$GPVTG,125.70,T,,M,2.82,N,5.2,K,D*06
$GPGGA,190850.000,3748.7875,N,12217.8438,W,2,06,1.6,16.2,M,-25.1,M,11.8,0000*44
$GPGSA,A,3,09,04,12,17,02,25,,,,,,,3.0,1.6,2.5*3C
$GPGSV,3,1,11,02,61,174,33,04,57,071,22,09,55,236,32,27,49,215,33*7D
$GPGSV,3,2,11,12,46,316,23,17,21,060,25,25,15,306,22,10,14,116,28*76
$GPGSV,3,3,11,28,02,116,,14,02,313,17,48,44,197,32*45
$GPRMC,190850.000,A,3748.7875,N,12217.8438,W,2.73,125.55,181011,,,D*71
$GPVTG,125.55,T,,M,2.73,N,5.1,K,D*0C
$GPGGA,190851.000,3748.7869,N,12217.8431,W,2,06,1.6,14.9,M,-25.1,M,,0000*5E
$GPGSA,A,3,09,04,12,17,02,25,,,,,,,3.0,1.6,2.5*3C
$GPRMC,190851.000,A,3748.7869,N,12217.8431,W,2.60,100.75,181011,,,D*73
$GPVTG,100.75,T,,M,2.60,N,4.8,K,D*03
$GPGGA,190852.000,3748.7862,N,12217.8424,W,2,06,1.6,14.7,M,-25.1,M,,0000*5C
$GPGSA,A,3,09,04,12,17,02,25,,,,,,,3.0,1.6,2.5*3C
$GPRMC,190852.000,A,3748.7862,N,12217.8424,W,2.14,92.50,181011,,,D*41
$GPVTG,92.50,T,,M,2.14,N,4.0,K,D*35
$GPGGA,190853.000,3748.7861,N,12217.8418,W,2,06,1.6,15.8,M,-25.1,M,,0000*5F
$GPGSA,A,3,09,04,12,17,02,25,,,,,,,3.0,1.6,2.5*3C
$GPRMC,190853.000,A,3748.7861,N,12217.8418,W,1.36,89.53,181011,,,D*46
$GPVTG,89.53,T,,M,1.36,N,2.5,K,D*3C
$GPGGA,190854.000,3748.7857,N,12217.8419,W,2,06,1.6,16.3,M,-25.1,M,2.8,0000*70
$GPGSA,A,3,09,04,12,17,02,25,,,,,,,3.0,1.6,2.5*3C
$GPRMC,190854.000,A,3748.7857,N,12217.8419,W,1.40,117.57,181011,,,D*76
$GPVTG,117.57,T,,M,1.40,N,2.6,K,D*0C
$GPGGA,190855.000,3748.7857,N,12217.8422,W,2,06,1.6,17.8,M,-25.1,M,3.8,0000*72
$GPGSA,A,3,09,04,12,17,02,25,,,,,,,3.0,1.6,2.5*3C
$GPGSV,3,1,11,02,61,174,33,04,57,071,26,09,55,236,33,27,49,215,33*78
$GPGSV,3,2,11,12,46,316,22,17,21,060,24,25,15,306,27,10,14,116,34*7E
$GPGSV,3,3,11,28,02,116,,14,02,313,17,48,44,197,34*43
$GPVTG,124.39,T,,M,1.37,N,2.5,K,D*07
$GPGGA,190856.000,3748.7853,N,12217.8414,W,2,06,1.6,18.8,M,-25.1,M,4.8,0000*78
$GPGSA,A,3,09,04,12,17,02,25,,,,,,,3.0,1.6,2.5*3C
$GPRMC,190856.000,A,3748.7853,N,12217.8414,W,1.24,109.79,181011,,,D*7C
$GPVTG,109.79,T,,M,1.24,N,2.3,K,D*08
$GPGGA,190857.000,3748.7854,N,12217.8409,W,2,06,1.6,20.9,M,-25.1,M,,0000*5A
$GPGSA,A,3,09,04,12,17,02,25,,,,,,,3.0,1.6,2.5*3C
$GPRMC,190857.000,A,3748.7854,N,12217.8409,W,1.52,97.54,181011,,,D*4E
$GPVTG,97.54,T,,M,1.52,N,2.8,K,D*3B
$GPGGA,190858.000,3748.7855,N,12217.8399,W,2,06,1.6,21.8,M,-25.1,M,,0000*5A
$GPGSA,A,3,09,04,12,17,02,25,,,,,,,3.0,1.6,2.5*3C
$GPRMC,190858.000,A,3748.7855,N,12217.8399,W,1.80,109.14,181011,,,D*73
$GPVTG,109.14,T,,M,1.80,N,3.3,K,D*0C
$GPGGA,190859.000,3748.7856,N,12217.8398,W,2,06,1.6,24.4,M,-25.1,M,2.8,0000*74
$GPGSA,A,3,09,04,12,17,02,25,,,,,,,3.0,1.6,2.5*3C
$GPRMC,190859.000,A,3748.7856,N,12217.8398,W,1.95,114.41,181011,,,D*78
$GPVTG,114.41,T,,M,1.95,N,3.6,K,D*01
$GPGGA,190900.000,3748.7855,N,12217.8400,W,2,06,1.6,26.7,M,-25.1,M,,0000*59
$GPGSA,A,3,09,04,12,17,02,25,,,,,,,3.0,1.6,2.5*3C
$GPGSV,3,1,11,02,61,174,34,04,57,071,24,09,55,236,33,27,49,215,35*7B
$GPGSV,3,2,11,12,46,316,22,17,21,060,23,25,15,306,22,10,14,116,28*71
$GPGSV,3,3,11,28,02,116,,14,02,313,17,48,44,197,40*40
$GPRMC,190900.000,A,3748.7855,N,12217.8400,W,1.36,97.68,181011,,,D*48
$GPVTG,97.68,T,,M,1.36,N,2.5,K,D*3B
$GPGGA,190901.000,3748.7850,N,12217.8397,W,2,06,1.6,28.7,M,-25.1,M,2.8,0000*7E
$GPGSA,A,3,09,04,12,17,02,25,,,,,,,3.0,1.6,2.5*3C
$GPRMC,190901.000,A,3748.7850,N,12217.8397,W,1.87,111.77,181011,,,D*7E
$GPVTG,111.77,T,,M,1.87,N,3.5,K,D*01
$GPGGA,190902.000,3748.7852,N,12217.8390,W,2,06,1.6,32.0,M,-25.1,M,3.8,0000*75
$GPGSA,A,3,09,04,12,17,02,25,,,,,,,3.0,1.6,2.5*3C
$GPRMC,190902.000,A,3748.7852,N,12217.8390,W,2.16,87.20,181011,,,D*4F
$GPVTG,87.20,T,,M,2.16,N,4.0,K,D*34
$GPGGA,190903.000,3748.7851,N,12217.8387,W,2,06,1.6,31.8,M,-25.1,M,,0000*5F
$GPGSA,A,3,09,04,12,17,02,25,,,,,,,3.0,1.6,2.5*3C
$GPRMC,190903.000,A,3748.7851,N,12217.8387,W,1.07,104.70,181011,,,D*77
$GPVTG,104.70,T,,M,1.07,N,2.0,K,D*0E
$GPGGA,190904.000,3748.7847,N,12217.8385,W,2,06,1.6,32.4,M,-25.1,M,,0000*52
$GPGSA,A,3,09,04,12,17,02,25,,,,,,,3.0,1.6,2.5*3C
$GPRMC,190904.000,A,3748.7847,N,12217.8385,W,1.03,126.72,181011,,,D*73
$GPVTG,126.72,T,,M,1.03,N,1.9,K,D*02
$GPGGA,190905.000,3748.7844,N,12217.8378,W,2,06,1.6,33.9,M,-25.1,M,2.8,0000*7A
$GPGSA,A,3,09,04,12,17,02,25,,,,,,,3.0,1.6,2.5*3C
$GPGSV,3,1,11,02,61,174,33,04,57,071,25,09,55,236,33,27,49,215,35*7D
$GPGSV,3,2,11,12,46,316,22,17,21,060,22,25,15,306,23,10,14,116,29*70
$GPGSV,3,3,11,28,02,116,,14,02,313,17,48,44,197,39*4E
$GPRMC,190905.000,A,3748.7844,N,12217.8378,W,1.91,107.34,181011,,,D*79
$GPVTG,107.34,T,,M,1.91,N,3.5,K,D*06
$GPGGA,190906.000,3748.7844,N,12217.8367,W,2,06,1.6,36.6,M,-25.1,M,3.8,0000*7C
$GPGSA,A,3,09,04,12,17,02,25,,,,,,,3.0,1.6,2.5*3C
$GPRMC,190906.000,A,3748.7844,N,12217.8367,W,2.26,101.31,181011,,,D*78
$GPVTG,101.31,T,,M,2.26,N,4.2,K,D*0A
$GPGGA,190907.000,3748.7841,N,12217.8359,W,2,06,1.6,37.1,M,-25.1,M,,0000*56
$GPGSA,A,3,09,04,12,17,02,25,,,,,,,3.0,1.6,2.5*3C
$GPRMC,190907.000,A,3748.7841,N,12217.8359,W,2.03,103.88,181011,,,D*76
$GPVTG,103.88,T,,M,2.03,N,3.8,K,D*00
$GPGGA,190908.000,3748.7835,N,12217.8356,W,2,06,1.6,36.8,M,-25.1,M,2.8,0000*79
$GPGSA,A,3,09,04,12,17,02,25,,,,,,,3.0,1.6,2.5*3C
$GPRMC,190908.000,A,3748.7835,N,12217.8356,W,1.65,110.57,181011,,,D*76
$GPVTG,110.57,T,,M,1.65,N,3.1,K,D*0A
$GPGGA,190909.000,3748.7831,N,12217.8357,W,2,06,1.6,36.5,M,-25.1,M,,0000*54
$GPGSA,A,3,09,04,12,17,02,25,,,,,,,3.0,1.6,2.5*3C
$GPRMC,190909.000,A,3748.7831,N,12217.8357,W,0.69,98.89,181011,,,D*4D
$GPVTG,98.89,T,,M,0.69,N,1.3,K,D*35
$GPGGA,190910.000,3748.7824,N,12217.8350,W,2,06,1.6,35.6,M,-25.1,M,2.8,0000*7B
$GPGSA,A,3,09,04,12,17,02,25,,,,,,,3.0,1.6,2.5*3C
$GPGSV,3,1,11,02,61,174,29,04,57,071,25,09,55,236,33,27,49,215,32*71
$GPGSV,3,2,11,12,46,316,23,17,21,060,22,25,15,306,24,10,14,116,36*78
$GPGSV,3,3,11,28,02,116,,14,02,313,17,48,44,197,28*4E
$GPVTG,130.11,T,,M,1.18,N,2.2,K,D*02
$GPGGA,190911.000,3748.7827,N,12217.8342,W,2,06,1.6,36.3,M,-25.1,M,3.8,0000*7D
$GPGSA,A,3,09,04,12,17,02,25,,,,,,,3.0,1.6,2.5*3C
$GPRMC,190911.000,A,3748.7827,N,12217.8342,W,1.39,122.35,181011,,,D*74
$GPVTG,122.35,T,,M,1.39,N,2.6,K,D*00
$GPGGA,190912.000,3748.7825,N,12217.8331,W,2,06,1.6,36.1,M,-25.1,M,4.8,0000*7D
$GPGSA,A,3,09,04,12,17,02,25,,,,,,,3.0,1.6,2.5*3C
$GPRMC,190912.000,A,3748.7825,N,12217.8331,W,1.21,112.65,181011,,,D*7E
$GPVTG,112.65,T,,M,1.21,N,2.2,K,D*0B
$GPGGA,190913.000,3748.7824,N,12217.8320,W,2,06,1.6,36.2,M,-25.1,M,5.8,0000*7F
$GPGSA,A,3,09,04,12,17,02,25,,,,,,,3.0,1.6,2.5*3C
$GPRMC,190913.000,A,3748.7824,N,12217.8320,W,1.37,118.66,181011,,,D*70
$GPVTG,118.66,T,,M,1.37,N,2.5,K,D*02
$GPGGA,190914.000,3748.7819,N,12217.8312,W,2,06,1.6,35.6,M,-25.1,M,1.8,0000*74
$GPGSA,A,3,09,04,12,17,02,25,,,,,,,3.0,1.6,2.5*3C
$GPRMC,190914.000,A,3748.7819,N,12217.8312,W,1.60,124.67,181011,,,D*74
$GPVTG,124.67,T,,M,1.60,N,3.0,K,D*0A
$GPGGA,190915.000,3748.7814,N,12217.8303,W,2,06,1.6,34.7,M,-25.1,M,7.8,0000*7E
$GPGSA,A,3,09,04,12,17,02,25,,,,,,,3.0,1.6,2.5*3C
$GPGSV,3,1,11,02,61,173,32,04,57,070,25,09,54,235,33,27,49,214,33*7F
$GPGSV,3,2,11,12,47,316,23,17,21,060,23,25,15,306,25,10,15,115,36*7B
$GPGSV,3,3,11,28,02,116,,14,02,313,18,48,44,197,39*41
$GPRMC,190915.000,A,3748.7814,N,12217.8303,W,2.20,111.18,181011,,,D*71
$GPVTG,111.18,T,,M,2.20,N,4.1,K,D*05
$GPGGA,190916.000,3748.7811,N,12217.8297,W,2,06,1.6,33.8,M,-25.1,M,1.8,0000*7A
$GPGSA,A,3,09,04,12,17,02,25,,,,,,,3.0,1.6,2.5*3C
$GPRMC,190916.000,A,3748.7811,N,12217.8297,W,2.25,109.51,181011,,,D*7A
$GPVTG,109.51,T,,M,2.25,N,4.2,K,D*07
$GPGGA,190917.000,3748.7808,N,12217.8286,W,2,06,1.6,32.5,M,-25.1,M,1.8,0000*7F
$GPGSA,A,3,09,04,12,17,02,25,,,,,,,3.0,1.6,2.5*3C
$GPRMC,190917.000,A,3748.7808,N,12217.8286,W,2.04,98.44,181011,,,D*4D
$GPVTG,98.44,T,,M,2.04,N,3.8,K,D*34
$GPGGA,190918.000,3748.7805,N,12217.8277,W,2,06,1.6,31.0,M,-25.1,M,1.8,0000*75
$GPGSA,A,3,09,04,12,17,02,25,,,,,,,3.0,1.6,2.5*3C
$GPRMC,190918.000,A,3748.7805,N,12217.8277,W,1.84,115.61,181011,,,D*79
$GPVTG,115.61,T,,M,1.84,N,3.4,K,D*00
$GPGGA,190919.000,3748.7804,N,12217.8267,W,2,06,1.6,30.7,M,-25.1,M,2.8,0000*71
$GPGSA,A,3,09,04,12,17,02,25,,,,,,,3.0,1.6,2.5*3C
$GPRMC,190919.000,A,3748.7804,N,12217.8267,W,2.05,99.84,181011,,,D*4C
$GPVTG,99.84,T,,M,2.05,N,3.8,K,D*38
$GPGGA,190920.000,3748.7798,N,12217.8257,W,2,06,1.6,29.0,M,-25.1,M,3.8,0000*7C
$GPGSA,A,3,09,04,12,17,02,25,,,,,,,3.0,1.6,2.5*3C
$GPGSV,3,1,11,02,61,173,33,04,57,070,25,09,54,235,34,27,48,214,34*7F
$GPGSV,3,2,11,12,47,316,24,17,21,060,23,25,15,306,25,10,15,115,36*7C
$GPGSV,3,3,11,28,02,116,,14,02,313,18,48,44,197,35*4D
$GPRMC,190920.000,A,3748.7798,N,12217.8257,W,1.60,90.43,181011,,,D*4D
$GPVTG,90.43,T,,M,1.60,N,3.0,K,D*32
$GPGGA,190921.000,3748.7794,N,12217.8246,W,2,06,1.6,27.3,M,-25.1,M,1.8,0000*7E
$GPGSA,A,3,09,04,12,17,02,25,,,,,,,3.0,1.6,2.5*3C
$GPRMC,190921.000,A,3748.7794,N,12217.8246,W,1.70,100.80,181011,,,D*76
$GPVTG,100.80,T,,M,1.70,N,3.2,K,D*06
$GPGGA,190922.000,3748.7788,N,12217.8234,W,2,07,1.2,24.1,M,-25.1,M,2.8,0000*72
$GPGSA,A,3,09,04,12,10,17,02,25,,,,,,2.0,1.2,1.6*38
$GPRMC,190922.000,A,3748.7788,N,12217.8234,W,1.48,104.09,181011,,,D*73
$GPVTG,104.09,T,,M,1.48,N,2.7,K,D*0C
$GPGGA,190923.000,3748.7781,N,12217.8226,W,2,07,1.2,21.2,M,-25.1,M,1.8,0000*7C
$GPGSA,A,3,09,04,12,10,17,02,25,,,,,,2.0,1.2,1.6*38
$GPRMC,190923.000,A,3748.7781,N,12217.8226,W,1.85,137.76,181011,,,D*71
$GPVTG,137.76,T,,M,1.85,N,3.4,K,D*07
$GPGGA,190924.000,3748.7773,N,12217.8221,W,2,07,1.2,18.6,M,-25.1,M,2.8,0000*7C
$GPGSA,A,3,09,04,12,10,17,02,25,,,,,,2.0,1.2,1.6*38
$GPRMC,190924.000,A,3748.7773,N,12217.8221,W,1.71,145.75,181011,,,D*71
$GPVTG,145.75,T,,M,1.71,N,3.2,K,D*0C
$GPGGA,190925.000,3748.7768,N,12217.8215,W,2,07,1.2,16.5,M,-25.1,M,3.8,0000*7C
$GPGSA,A,3,09,04,12,10,17,02,25,,,,,,2.0,1.2,1.6*38
$GPGSV,3,1,11,02,61,173,34,04,57,070,26,09,54,235,36,27,48,214,35*78
$GPGSV,3,2,11,12,47,316,24,17,21,060,19,25,15,306,25,10,15,115,35*76
$GPGSV,3,3,11,28,02,116,,14,02,312,17,48,44,197,36*40
$GPRMC,190925.000,A,3748.7768,N,12217.8215,W,1.99,129.79,181011,,,D*7D
$GPVTG,129.79,T,,M,1.99,N,3.7,K,D*09
$GPGGA,190926.000,3748.7767,N,12217.8204,W,2,07,1.2,16.4,M,-25.1,M,4.8,0000*76
$GPGSA,A,3,09,04,12,10,17,02,25,,,,,,2.0,1.2,1.6*38
$GPRMC,190926.000,A,3748.7767,N,12217.8204,W,2.14,118.47,181011,,,D*78
$GPVTG,118.47,T,,M,2.14,N,4.0,K,D*00
$GPGGA,190927.000,3748.7763,N,12217.8197,W,2,07,1.2,15.4,M,-25.1,M,1.8,0000*7C
$GPGSA,A,3,09,04,12,10,17,02,25,,,,,,2.0,1.2,1.6*38
$GPRMC,190927.000,A,3748.7763,N,12217.8197,W,1.99,116.17,181011,,,D*79
$GPVTG,116.17,T,,M,1.99,N,3.7,K,D*0D
$GPGGA,190928.000,3748.7758,N,12217.8189,W,2,07,1.2,14.3,M,-25.1,M,1.8,0000*72
$GPGSA,A,3,09,04,12,10,17,02,25,,,,,,2.0,1.2,1.6*38
$GPRMC,190928.000,A,3748.7758,N,12217.8189,W,2.27,116.83,181011,,,D*7A
$GPVTG,116.83,T,,M,2.27,N,4.2,K,D*04
$GPGGA,190929.000,3748.7754,N,12217.8181,W,2,07,1.2,13.3,M,-25.1,M,1.8,0000*70
$GPGSA,A,3,09,04,12,10,17,02,25,,,,,,2.0,1.2,1.6*38
$GPRMC,190929.000,A,3748.7754,N,12217.8181,W,2.12,115.96,181011,,,D*7E
$GPVTG,115.96,T,,M,2.12,N,3.9,K,D*09
$GPGGA,190930.000,3748.7751,N,12217.8172,W,2,07,1.2,13.1,M,-25.1,M,1.8,0000*73
$GPGSA,A,3,09,04,12,10,17,02,25,,,,,,2.0,1.2,1.6*38
$GPGSV,3,1,11,02,61,173,34,04,57,070,26,09,54,235,36,27,48,214,35*78
$GPGSV,3,2,11,12,47,316,24,17,21,060,20,25,15,306,26,10,15,115,35*7F
$GPGSV,3,3,11,28,02,116,,14,02,312,17,48,44,197,35*43
$GPRMC,190930.000,A,3748.7751,N,12217.8172,W,2.11,113.48,181011,,,D*79
$GPGGA,190931.000,3748.7749,N,12217.8162,W,2,07,1.2,13.3,M,-25.1,M,1.8,0000*78
$GPGSA,A,3,09,04,12,10,17,02,25,,,,,,2.0,1.2,1.6*38
$GPRMC,190931.000,A,3748.7749,N,12217.8162,W,2.21,128.49,181011,,,D*7A
$GPVTG,128.49,T,,M,2.21,N,4.1,K,D*0A
$GPGGA,190932.000,3748.7742,N,12217.8158,W,2,07,1.2,12.0,M,-25.1,M,2.8,0000*78
$GPGSA,A,3,09,04,12,10,17,02,25,,,,,,2.0,1.2,1.6*38
$GPRMC,190932.000,A,3748.7742,N,12217.8158,W,2.17,126.10,181011,,,D*7C
$GPVTG,126.10,T,,M,2.17,N,4.0,K,D*0C
$GPGGA,190933.000,3748.7738,N,12217.8150,W,2,07,1.2,11.7,M,-25.1,M,1.8,0000*7B
$GPGSA,A,3,09,04,12,10,17,02,25,,,,,,2.0,1.2,1.6*38
$GPRMC,190933.000,A,3748.7738,N,12217.8150,W,2.23,118.81,181011,,,D*7A
$GPVTG,118.81,T,,M,2.23,N,4.1,K,D*0F
$GPGGA,190934.000,3748.7733,N,12217.8145,W,2,07,1.2,10.7,M,-25.1,M,1.8,0000*72
$GPGSA,A,3,09,04,12,10,17,02,25,,,,,,2.0,1.2,1.6*38
$GPRMC,190934.000,A,3748.7733,N,12217.8145,W,1.60,123.13,181011,,,D*75
$GPVTG,123.13,T,,M,1.60,N,3.0,K,D*0E
$GPGGA,190935.000,3748.7734,N,12217.8138,W,2,07,1.2,10.2,M,-25.1,M,1.8,0000*7B
$GPGSA,A,3,09,04,12,10,17,02,25,,,,,,2.0,1.2,1.6*38
$GPGSV,3,1,11,02,61,173,34,04,57,070,25,09,54,235,35,27,48,214,35*78
$GPGSV,3,2,11,12,47,316,23,17,21,060,21,25,15,306,26,10,15,115,35*79
$GPGSV,3,3,11,28,02,116,18,14,02,312,17,48,44,197,37*48
$GPRMC,190935.000,A,3748.7734,N,12217.8138,W,1.82,114.48,181011,,,D*7F
$GPVTG,114.48,T,,M,1.82,N,3.4,K,D*0C
$GPGGA,190936.000,3748.7728,N,12217.8131,W,2,07,1.2,10.0,M,-25.1,M,2.8,0000*7D
$GPGSA,A,3,09,04,12,10,17,02,25,,,,,,2.0,1.2,1.6*38
$GPRMC,190936.000,A,3748.7728,N,12217.8131,W,2.13,132.11,181011,,,D*7B
$GPVTG,132.11,T,,M,2.13,N,3.9,K,D*02
$GPGGA,190937.000,3748.7724,N,12217.8125,W,2,07,1.2,9.3,M,-25.1,M,3.8,0000*4F
$GPGSA,A,3,09,04,12,10,17,02,25,,,,,,2.0,1.2,1.6*38
$GPRMC,190937.000,A,3748.7724,N,12217.8125,W,1.66,112.93,181011,,,D*7A
$GPVTG,112.93,T,,M,1.66,N,3.1,K,D*03
$GPGGA,190938.000,3748.7720,N,12217.8118,W,2,07,1.2,9.2,M,-25.1,M,4.8,0000*4C
$GPGSA,A,3,09,04,12,10,17,02,25,,,,,,2.0,1.2,1.6*38
$GPRMC,190938.000,A,3748.7720,N,12217.8118,W,2.09,127.29,181011,,,D*72
$GPVTG,127.29,T,,M,2.09,N,3.9,K,D*06
$GPGGA,190939.000,3748.7720,N,12217.8109,W,2,07,1.2,9.6,M,-25.1,M,1.8,0000*4C
$GPGSA,A,3,09,04,12,10,17,02,25,,,,,,2.0,1.2,1.6*38
$GPRMC,190939.000,A,3748.7720,N,12217.8109,W,2.16,111.69,181011,,,D*7C
$GPVTG,111.69,T,,M,2.16,N,4.0,K,D*07
$GPGGA,190940.000,3748.7717,N,12217.8101,W,2,07,1.2,9.8,M,-25.1,M,1.8,0000*40
$GPGSA,A,3,09,04,12,10,17,02,25,,,,,,2.0,1.2,1.6*38
$GPGSV,3,1,11,02,61,173,34,04,57,070,26,09,54,235,35,27,48,214,35*7B
$GPGSV,3,2,11,12,47,316,21,17,21,060,21,25,15,306,25,10,15,115,35*78
$GPGSV,3,3,11,28,02,116,17,14,02,312,17,48,44,197,36*46
$GPRMC,190940.000,A,3748.7717,N,12217.8101,W,1.53,108.34,181011,,,D*7C
$GPVTG,108.34,T,,M,1.53,N,2.8,K,D*0B
$GPGGA,190941.000,3748.7715,N,12217.8094,W,2,07,1.2,9.9,M,-25.1,M,1.8,0000*4F
$GPGSA,A,3,09,04,12,10,17,02,25,,,,,,2.0,1.2,1.6*38
$GPRMC,190941.000,A,3748.7715,N,12217.8094,W,1.44,88.18,181011,,,D*43
$GPVTG,88.18,T,,M,1.44,N,2.7,K,D*35
$GPGGA,190942.000,3748.7710,N,12217.8086,W,2,07,1.2,10.4,M,-25.1,M,1.8,0000*7F
$GPGSA,A,3,09,04,12,10,17,02,25,,,,,,2.0,1.2,1.6*38
$GPRMC,190942.000,A,3748.7710,N,12217.8086,W,1.73,101.58,181011,,,D*76
$GPVTG,101.58,T,,M,1.73,N,3.2,K,D*01
$GPGGA,190943.000,3748.7710,N,12217.8076,W,2,07,1.2,11.2,M,-25.1,M,2.8,0000*75
$GPGSA,A,3,09,04,12,10,17,02,25,,,,,,2.0,1.2,1.6*38
$GPRMC,190943.000,A,3748.7710,N,12217.8076,W,1.85,100.23,181011,,,D*7C
$GPVTG,100.23,T,,M,1.85,N,3.4,K,D*03
$GPGGA,190944.000,3748.7708,N,12217.8066,W,2,07,1.2,12.1,M,-25.1,M,3.8,0000*7B
$GPGSA,A,3,09,04,12,10,17,02,25,,,,,,2.0,1.2,1.6*38
$GPRMC,190944.000,A,3748.7708,N,12217.8066,W,1.81,88.58,181011,,,D*4A
$GPVTG,88.58,T,,M,1.81,N,3.4,K,D*3A
$GPGGA,190945.000,3748.7705,N,12217.8060,W,2,07,1.2,11.8,M,-25.1,M,1.8,0000*79
$GPGSA,A,3,09,04,12,10,17,02,25,,,,,,2.0,1.2,1.6*38
$GPGSV,3,1,11,02,61,173,34,04,57,070,26,09,54,235,36,27,48,214,35*78
$GPGSV,3,2,11,12,47,316,21,17,21,060,20,25,15,306,25,10,15,115,34*78
$GPGSV,3,3,11,14,02,312,16,28,02,116,,48,44,197,36*41
$GPVTG,88.67,T,,M,1.45,N,2.7,K,D*3C
$GPGGA,190946.000,3748.7702,N,12217.8056,W,2,07,1.2,11.8,M,-25.1,M,1.8,0000*78
$GPGSA,A,3,09,04,12,10,17,02,25,,,,,,2.0,1.2,1.6*38
$GPRMC,190946.000,A,3748.7702,N,12217.8056,W,1.38,101.67,181011,,,D*7F
$GPVTG,101.67,T,,M,1.38,N,2.6,K,D*07
$GPGGA,190947.000,3748.7700,N,12217.8050,W,2,07,1.2,11.9,M,-25.1,M,1.8,0000*7C
$GPGSA,A,3,09,04,12,10,17,02,25,,,,,,2.0,1.2,1.6*38
$GPRMC,190947.000,A,3748.7700,N,12217.8050,W,1.94,120.18,181011,,,D*77
$GPVTG,120.18,T,,M,1.94,N,3.6,K,D*0B
$GPGGA,190948.000,3748.7696,N,12217.8044,W,2,07,1.2,11.5,M,-25.1,M,2.8,0000*77
$GPGSA,A,3,09,04,12,10,17,02,25,,,,,,2.0,1.2,1.6*38
$GPRMC,190948.000,A,3748.7696,N,12217.8044,W,2.23,117.61,181011,,,D*76
$GPVTG,117.61,T,,M,2.23,N,4.1,K,D*0E
$GPGGA,190949.000,3748.7691,N,12217.8037,W,2,07,1.2,11.4,M,-25.1,M,3.8,0000*75
$GPGSA,A,3,09,04,12,10,17,02,25,,,,,,2.0,1.2,1.6*38
$GPRMC,190949.000,A,3748.7691,N,12217.8037,W,2.21,116.55,181011,,,D*70
$GPVTG,116.55,T,,M,2.21,N,4.1,K,D*0A
$GPGGA,190950.000,3748.7689,N,12217.8028,W,2,07,1.2,11.9,M,-25.1,M,4.8,0000*70
$GPGSA,A,3,09,04,12,10,17,02,25,,,,,,2.0,1.2,1.6*38
$GPGSV,3,1,11,02,61,173,35,04,57,069,26,09,54,235,35,27,48,214,35*72
$GPGSV,3,2,11,12,47,316,22,17,21,060,22,25,15,306,26,10,15,115,29*76
$GPGSV,3,3,11,14,02,312,16,28,02,116,,48,44,197,37*40
$GPRMC,190950.000,A,3748.7689,N,12217.8028,W,2.04,116.42,181011,,,D*7E
$GPVTG,116.42,T,,M,2.04,N,3.8,K,D*05
$GPGGA,190951.000,3748.7687,N,12217.8020,W,2,07,1.2,12.2,M,-25.1,M,1.8,0000*7A
$GPGSA,A,3,09,04,12,10,17,02,25,,,,,,2.0,1.2,1.6*38
$GPRMC,190951.000,A,3748.7687,N,12217.8020,W,2.13,112.51,181011,,,D*79
$GPVTG,112.51,T,,M,2.13,N,4.0,K,D*0A
$GPGGA,190952.000,3748.7683,N,12217.8015,W,2,07,1.2,11.7,M,-25.1,M,1.8,0000*7D
$GPGSA,A,3,09,04,12,10,17,02,25,,,,,,2.0,1.2,1.6*38
$GPRMC,190952.000,A,3748.7683,N,12217.8015,W,1.95,108.83,181011,,,D*71
$GPVTG,108.83,T,,M,1.95,N,3.6,K,D*02
$GPGGA,190953.000,3748.7678,N,12217.8008,W,2,07,1.2,11.7,M,-25.1,M,1.8,0000*74
$GPGSA,A,3,09,04,12,10,17,02,25,,,,,,2.0,1.2,1.6*38
$GPRMC,190953.000,A,3748.7678,N,12217.8008,W,1.78,102.67,181011,,,D*7B
$GPVTG,102.67,T,,M,1.78,N,3.3,K,D*04
$GPGGA,190954.000,3748.7673,N,12217.8001,W,2,07,1.2,12.0,M,-25.1,M,1.8,0000*75
$GPGSA,A,3,09,04,12,10,17,02,25,,,,,,2.0,1.2,1.6*38
$GPRMC,190954.000,A,3748.7673,N,12217.8001,W,1.83,120.02,181011,,,D*79
$GPVTG,120.02,T,,M,1.83,N,3.4,K,D*04
$GPGGA,190955.000,3748.7667,N,12217.7996,W,2,07,1.2,11.8,M,-25.1,M,1.8,0000*72
$GPGSA,A,3,09,04,12,10,17,02,25,,,,,,2.0,1.2,1.6*38
$GPGSV,3,1,11,02,61,173,34,04,57,069,27,09,54,235,35,27,48,214,35*72
$GPGSV,3,2,11,12,47,316,23,17,21,060,22,25,15,306,20,10,15,115,29*71
$GPGSV,3,3,11,14,02,312,17,28,02,116,,48,44,197,37*41
$GPRMC,190955.000,A,3748.7667,N,12217.7996,W,2.05,129.96,181011,,,D*7C
$GPVTG,129.96,T,,M,2.05,N,3.8,K,D*01
$GPGGA,190956.000,3748.7667,N,12217.7990,W,2,07,1.2,12.1,M,-25.1,M,2.8,0000*7E
$GPGSA,A,3,09,04,12,10,17,02,25,,,,,,2.0,1.2,1.6*38
$GPRMC,190956.000,A,3748.7667,N,12217.7990,W,1.41,107.14,181011,,,D*7C
$GPVTG,107.14,T,,M,1.41,N,2.6,K,D*0B
$GPGGA,190957.000,3748.7666,N,12217.7986,W,2,07,1.2,12.4,M,-25.1,M,1.8,0000*7F
$GPGSA,A,3,09,04,12,10,17,02,25,,,,,,2.0,1.2,1.6*38
$GPRMC,190957.000,A,3748.7666,N,12217.7986,W,0.93,115.31,181011,,,D*71
$GPVTG,115.31,T,,M,0.93,N,1.7,K,D*03
$GPGGA,190958.000,3748.7668,N,12217.7983,W,2,07,1.2,12.7,M,-25.1,M,1.8,0000*78
$GPGSA,A,3,09,04,12,10,17,02,25,,,,,,2.0,1.2,1.6*38
$GPRMC,190958.000,A,3748.7668,N,12217.7983,W,0.60,125.94,181011,,,D*75
$GPVTG,125.94,T,,M,0.60,N,1.1,K,D*05
$GPGGA,190959.000,3748.7670,N,12217.7977,W,2,07,1.2,13.7,M,-25.1,M,2.8,0000*79
$GPGSA,A,3,09,04,12,10,17,02,25,,,,,,2.0,1.2,1.6*38
$GPRMC,190959.000,A,3748.7670,N,12217.7977,W,0.45,75.33,181011,,,D*48
$GPVTG,75.33,T,,M,0.45,N,0.8,K,D*33
$GPGGA,191000.000,3748.7673,N,12217.7977,W,2,07,1.2,13.5,M,-25.1,M,3.8,0000*7D
$GPGSA,A,3,09,04,12,10,17,02,25,,,,,,2.0,1.2,1.6*38
$GPGSV,3,1,11,02,61,173,25,04,57,069,26,09,54,235,30,27,48,214,31*72
$GPGSV,3,2,11,12,47,316,38,17,21,060,21,25,15,306,29,10,15,115,17*7C
$GPGSV,3,3,11,14,02,312,26,28,02,116,,48,44,197,29*4C
$GPRMC,191000.000,A,3748.7673,N,12217.7977,W,0.42,105.34,181011,,,D*79
$GPVTG,105.34,T,,M,0.42,N,0.8,K,D*05
$GPGGA,191001.000,3748.7673,N,12217.7978,W,2,07,1.2,13.3,M,-25.1,M,4.8,0000*72
$GPGSA,A,3,09,04,12,10,17,02,25,,,,,,2.0,1.2,1.6*38
$GPRMC,191001.000,A,3748.7673,N,12217.7978,W,0.34,135.23,181011,,,D*73
$GPVTG,135.23,T,,M,0.34,N,0.6,K,D*0F
$GPGGA,191002.000,3748.7671,N,12217.7979,W,2,07,1.2,13.1,M,-25.1,M,1.8,0000*75
$GPGSA,A,3,09,04,12,10,17,02,25,,,,,,2.0,1.2,1.6*38
$GPRMC,191002.000,A,3748.7671,N,12217.7979,W,0.26,106.38,181011,,,D*7A
$GPVTG,106.38,T,,M,0.26,N,0.5,K,D*05
$GPGGA,191003.000,3748.7669,N,12217.7981,W,2,07,1.2,11.7,M,-25.1,M,1.8,0000*7E
$GPGSA,A,3,09,04,12,10,17,02,25,,,,,,2.0,1.2,1.6*38
$GPRMC,191003.000,A,3748.7669,N,12217.7981,W,0.26,143.05,181011,,,D*7A
$GPVTG,143.05,T,,M,0.26,N,0.5,K,D*0A
$GPGGA,191004.000,3748.7669,N,12217.7980,W,2,07,1.2,11.8,M,-25.1,M,1.8,0000*77
$GPGSA,A,3,09,04,12,10,17,02,25,,,,,,2.0,1.2,1.6*38
$GPRMC,191004.000,A,3748.7669,N,12217.7980,W,0.35,57.32,181011,,,D*4E
$GPVTG,57.32,T,,M,0.35,N,0.6,K,D*3B
$GPGGA,191005.000,3748.7669,N,12217.7980,W,2,07,1.2,11.7,M,-25.1,M,1.8,0000*79
$GPGSA,A,3,09,04,12,10,17,02,25,,,,,,2.0,1.2,1.6*38
$GPGSV,3,1,11,02,61,173,23,04,57,069,14,09,54,235,32,27,48,214,33*75
$GPGSV,3,2,11,12,47,316,32,17,21,060,19,25,15,306,28,10,15,115,16*7D
$GPGSV,3,3,11,14,02,312,27,28,02,116,,48,44,197,31*44
$GPRMC,191005.000,A,3748.7669,N,12217.7980,W,0.68,85.74,181011,,,D*4A
$GPGGA,191006.000,3748.7669,N,12217.7977,W,2,07,1.2,11.5,M,-25.1,M,1.8,0000*70
$GPGSA,A,3,09,04,12,10,17,02,25,,,,,,2.0,1.2,1.6*38
$GPRMC,191006.000,A,3748.7669,N,12217.7977,W,0.52,60.98,181011,,,D*41
$GPVTG,60.98,T,,M,0.52,N,1.0,K,D*39
$GPGGA,191007.000,3748.7669,N,12217.7977,W,2,07,1.2,11.4,M,-25.1,M,2.8,0000*73
$GPGSA,A,3,09,04,12,10,17,02,25,,,,,,2.0,1.2,1.6*38
$GPRMC,191007.000,A,3748.7669,N,12217.7977,W,0.09,231.36,181011,,,D*7C
$GPVTG,231.36,T,,M,0.09,N,0.2,K,D*06
$GPGGA,191008.000,3748.7669,N,12217.7976,W,2,07,1.2,11.4,M,-25.1,M,3.8,0000*7C
$GPGSA,A,3,09,04,12,10,17,02,25,,,,,,2.0,1.2,1.6*38
$GPRMC,191008.000,A,3748.7669,N,12217.7976,W,0.43,160.78,181011,,,D*71
$GPVTG,160.78,T,,M,0.43,N,0.8,K,D*0F
$GPGGA,191009.000,3748.7667,N,12217.7979,W,2,07,1.2,10.8,M,-25.1,M,4.8,0000*76
$GPGSA,A,3,09,04,12,10,17,02,25,,,,,,2.0,1.2,1.6*38
$GPRMC,191009.000,A,3748.7667,N,12217.7979,W,0.74,181.37,181011,,,D*71
$GPVTG,181.37,T,,M,0.74,N,1.4,K,D*02
$GPGGA,191010.000,3748.7668,N,12217.7980,W,2,07,1.2,10.8,M,-25.1,M,1.8,0000*72
$GPGSA,A,3,09,04,12,10,17,02,25,,,,,,2.0,1.2,1.6*38
$GPGSV,3,1,11,02,61,173,25,04,57,069,24,09,54,235,36,27,48,214,33*74
$GPGSV,3,2,11,12,47,316,37,17,21,060,20,25,15,306,35,10,15,115,17*7F
$GPGSV,3,3,11,14,02,312,31,28,02,116,,48,44,197,33*41
$GPRMC,191010.000,A,3748.7668,N,12217.7980,W,0.24,332.96,181011,,,D*74
$GPVTG,332.96,T,,M,0.24,N,0.4,K,D*07
$GPGGA,191011.000,3748.7670,N,12217.7981,W,2,07,1.2,10.5,M,-25.1,M,1.8,0000*76
$GPGSA,A,3,09,04,12,10,17,02,25,,,,,,2.0,1.2,1.6*38
$GPRMC,191011.000,A,3748.7670,N,12217.7981,W,0.29,83.00,181011,,,D*46
$GPVTG,83.00,T,,M,0.29,N,0.5,K,D*3D
$GPGGA,191012.000,3748.7672,N,12217.7981,W,2,07,1.2,10.4,M,-25.1,M,2.8,0000*75
$GPGSA,A,3,09,04,12,10,17,02,25,,,,,,2.0,1.2,1.6*38
$GPRMC,191012.000,A,3748.7672,N,12217.7981,W,0.73,168.16,181011,,,D*7B
$GPVTG,168.16,T,,M,0.73,N,1.3,K,D*06
$GPGGA,191013.000,3748.7674,N,12217.7979,W,2,07,1.2,11.0,M,-25.1,M,3.8,0000*71
$GPGSA,A,3,09,04,12,10,17,02,25,,,,,,2.0,1.2,1.6*38
$GPRMC,191013.000,A,3748.7674,N,12217.7979,W,1.23,160.47,181011,,,D*73
$GPVTG,160.47,T,,M,1.23,N,2.3,K,D*0D
$GPGGA,191014.000,3748.7670,N,12217.7984,W,2,07,1.2,11.5,M,-25.1,M,4.8,0000*72
$GPGSA,A,3,09,04,12,10,17,02,25,,,,,,2.0,1.2,1.6*38
$GPRMC,191014.000,A,3748.7670,N,12217.7984,W,2.30,158.82,181011,,,D*71
$GPVTG,158.82,T,,M,2.30,N,4.3,K,D*08
$GPGGA,191015.000,3748.7660,N,12217.7981,W,2,07,1.2,10.2,M,-25.1,M,1.8,0000*74
$GPGSA,A,3,09,04,12,10,17,02,25,,,,,,2.0,1.2,1.6*38
$GPGSV,3,1,11,02,61,173,32,04,57,069,22,09,54,235,35,27,48,214,38*7C
$GPGSV,3,2,11,12,47,316,28,17,21,060,20,25,15,306,27,10,15,115,28*7E
$GPGSV,3,3,11,14,02,312,19,28,02,116,,48,44,197,40*4F
$GPRMC,191015.000,A,3748.7660,N,12217.7981,W,2.51,144.50,181011,,,D*71
$GPVTG,144.50,T,,M,2.51,N,4.7,K,D*09
$GPGGA,191016.000,3748.7647,N,12217.7977,W,2,07,1.2,8.6,M,-25.1,M,1.8,0000*46
$GPGSA,A,3,09,04,12,10,17,02,25,,,,,,2.0,1.2,1.6*38
$GPRMC,191016.000,A,3748.7647,N,12217.7977,W,2.57,137.19,181011,,,D*71
$GPVTG,137.19,T,,M,2.57,N,4.8,K,D*09
$GPGGA,191017.000,3748.7639,N,12217.7973,W,2,07,1.2,7.7,M,-25.1,M,1.8,0000*44
$GPGSA,A,3,09,04,12,10,17,02,25,,,,,,2.0,1.2,1.6*38
$GPRMC,191017.000,A,3748.7639,N,12217.7973,W,2.53,137.34,181011,,,D*76
$GPVTG,137.34,T,,M,2.53,N,4.7,K,D*0D
$GPGGA,191018.000,3748.7636,N,12217.7965,W,2,07,1.2,8.0,M,-25.1,M,2.8,0000*48
$GPGSA,A,3,09,04,12,10,17,02,25,,,,,,2.0,1.2,1.6*38
$GPRMC,191018.000,A,3748.7636,N,12217.7965,W,2.15,130.73,181011,,,D*77
$GPVTG,130.73,T,,M,2.15,N,4.0,K,D*0C
$GPGGA,191019.000,3748.7635,N,12217.7956,W,2,07,1.2,9.1,M,-25.1,M,1.8,0000*49
$GPGSA,A,3,09,04,12,10,17,02,25,,,,,,2.0,1.2,1.6*38
$GPRMC,191019.000,A,3748.7635,N,12217.7956,W,1.75,94.54,181011,,,D*4A
$GPVTG,94.54,T,,M,1.75,N,3.2,K,D*36
$GPGGA,191020.000,3748.7632,N,12217.7950,W,2,07,1.2,9.7,M,-25.1,M,2.8,0000*47
$GPGSA,A,3,09,04,12,10,17,02,25,,,,,,2.0,1.2,1.6*38
$GPGSV,3,1,11,02,62,173,33,04,57,069,27,09,54,234,35,27,48,214,36*74
$GPGSV,3,2,11,12,47,316,21,17,21,060,24,25,15,307,20,10,15,115,30*7C
$GPRMC,191020.000,A,3748.7632,N,12217.7950,W,1.50,110.32,181011,,,D*7B
$GPVTG,110.32,T,,M,1.50,N,2.8,K,D*07
$GPGGA,191021.000,3748.7628,N,12217.7947,W,2,07,1.2,10.9,M,-25.1,M,1.8,0000*7E
$GPGSA,A,3,09,04,12,10,17,02,25,,,,,,2.0,1.2,1.6*38
$GPRMC,191021.000,A,3748.7628,N,12217.7947,W,1.45,114.92,181011,,,D*7D
$GPVTG,114.92,T,,M,1.45,N,2.7,K,D*02
$GPGGA,191022.000,3748.7623,N,12217.7945,W,2,07,1.2,10.3,M,-25.1,M,1.8,0000*7E
$GPGSA,A,3,09,04,12,10,17,02,25,,,,,,2.0,1.2,1.6*38
$GPRMC,191022.000,A,3748.7623,N,12217.7945,W,1.55,122.64,181011,,,D*7A
$GPVTG,122.64,T,,M,1.55,N,2.9,K,D*01
$GPGGA,191023.000,3748.7619,N,12217.7941,W,2,07,1.2,9.7,M,-25.1,M,1.8,0000*4E
$GPGSA,A,3,09,04,12,10,17,02,25,,,,,,2.0,1.2,1.6*38
$GPRMC,191023.000,A,3748.7619,N,12217.7941,W,1.81,119.88,181011,,,D*75
$GPVTG,119.88,T,,M,1.81,N,3.3,K,D*09
$GPGGA,191024.000,3748.7616,N,12217.7935,W,2,07,1.2,9.3,M,-25.1,M,2.8,0000*42
$GPGSA,A,3,09,04,12,10,17,02,25,,,,,,2.0,1.2,1.6*38
$GPRMC,191024.000,A,3748.7616,N,12217.7935,W,1.81,115.70,181011,,,D*75
$GPVTG,115.70,T,,M,1.81,N,3.4,K,D*05
$GPGGA,191025.000,3748.7610,N,12217.7933,W,2,07,1.2,7.8,M,-25.1,M,1.8,0000*45
$GPGSA,A,3,09,04,12,10,17,02,25,,,,,,2.0,1.2,1.6*38
$GPGSV,3,1,11,02,62,173,34,04,57,069,24,09,54,234,35,27,48,214,36*70
$GPGSV,3,2,11,12,47,316,22,17,21,060,23,25,15,307,27,10,15,115,24*7A
$GPGSV,3,3,11,14,02,312,17,28,01,116,,48,44,197,39*4C
$GPRMC,191025.000,A,3748.7610,N,12217.7933,W,1.80,112.41,181011,,,D*70
$GPVTG,112.41,T,,M,1.80,N,3.3,K,D*06
$GPGGA,191026.000,3748.7602,N,12217.7930,W,2,07,1.2,6.1,M,-25.1,M,2.8,0000*4D
$GPGSA,A,3,09,04,12,10,17,02,25,,,,,,2.0,1.2,1.6*38
$GPRMC,191026.000,A,3748.7602,N,12217.7930,W,1.74,123.74,181011,,,D*7C
$GPVTG,123.74,T,,M,1.74,N,3.2,K,D*08
$GPGGA,191027.000,3748.7598,N,12217.7922,W,2,07,1.2,5.9,M,-25.1,M,1.8,0000*47
$GPGSA,A,3,09,04,12,10,17,02,25,,,,,,2.0,1.2,1.6*38
$GPRMC,191027.000,A,3748.7598,N,12217.7922,W,2.13,123.23,181011,,,D*7E
$GPVTG,123.23,T,,M,2.13,N,3.9,K,D*03
$GPGGA,191028.000,3748.7600,N,12217.7911,W,2,07,1.2,6.9,M,-25.1,M,1.8,0000*49
$GPGSA,A,3,09,04,12,10,17,02,25,,,,,,2.0,1.2,1.6*38
$GPRMC,191028.000,A,3748.7600,N,12217.7911,W,1.93,116.28,181011,,,D*75
$GPVTG,116.28,T,,M,1.93,N,3.6,K,D*0A
$GPGGA,191029.000,3748.7600,N,12217.7899,W,2,07,1.2,7.7,M,-25.1,M,1.8,0000*46
$GPGSA,A,3,09,04,12,10,17,02,25,,,,,,2.0,1.2,1.6*38
$GPRMC,191029.000,A,3748.7600,N,12217.7899,W,1.71,100.47,181011,,,D*77
$GPVTG,100.47,T,,M,1.71,N,3.2,K,D*0C
$GPGGA,191030.000,3748.7587,N,12217.7896,W,2,06,1.6,8.4,M,-25.1,M,2.8,0000*47
$GPGSA,A,3,09,04,12,17,02,25,,,,,,,3.0,1.6,2.5*3C
$GPGSV,3,1,11,02,62,173,32,04,57,069,14,09,54,234,30,27,48,214,33*75
$GPGSV,3,2,11,12,47,316,22,17,21,060,16,25,15,307,23,10,15,115,18*77
$GPGSV,3,3,11,14,02,312,16,28,01,116,,48,44,197,30*44
$GPRMC,191030.000,A,3748.7587,N,12217.7896,W,2.34,151.69,181011,,,D*76
$GPVTG,151.69,T,,M,2.34,N,4.3,K,D*00
$GPGGA,191031.000,3748.7577,N,12217.7892,W,2,06,1.5,8.0,M,-25.1,M,3.8,0000*4B
$GPGSA,A,3,09,04,12,10,02,25,,,,,,,2.2,1.5,1.6*3B
$GPRMC,191031.000,A,3748.7577,N,12217.7892,W,2.13,139.84,181011,,,D*74
$GPVTG,139.84,T,,M,2.13,N,4.0,K,D*0B
$GPGGA,191032.000,3748.7569,N,12217.7888,W,2,07,1.2,7.2,M,-25.1,M,4.8,0000*40
$GPGSA,A,3,09,04,12,10,17,02,25,,,,,,2.0,1.2,1.6*38
$GPRMC,191032.000,A,3748.7569,N,12217.7888,W,2.07,129.33,181011,,,D*7B
$GPVTG,129.33,T,,M,2.07,N,3.8,K,D*0C
$GPGGA,191033.000,3748.7560,N,12217.7885,W,2,07,1.2,5.6,M,-25.1,M,5.8,0000*42
$GPGSA,A,3,09,04,12,10,17,02,25,,,,,,2.0,1.2,1.6*38
$GPRMC,191033.000,A,3748.7560,N,12217.7885,W,2.02,124.28,181011,,,D*7C
$GPVTG,124.28,T,,M,2.02,N,3.7,K,D*01
$GPGGA,191034.000,3748.7553,N,12217.7880,W,2,07,1.2,4.8,M,-25.1,M,1.8,0000*4B
$GPGSA,A,3,09,04,12,10,17,02,25,,,,,,2.0,1.2,1.6*38
$GPRMC,191034.000,A,3748.7553,N,12217.7880,W,1.86,115.18,181011,,,D*70
$GPVTG,115.18,T,,M,1.86,N,3.4,K,D*0C
