$ADVER,3080,2.3
$GPRMC,211752.908,A,3747.7085,N,12215.4845,W,0.24,130.86,020412,,,A*75
$GPGGA,211753.908,3747.7083,N,12215.4846,W,1,03,5.7,25.1,M,-25.1,M,,0000*50
$GPGSA,A,2,23,20,13,,,,,,,,,,5.8,5.7,1.0*3C
$GPRMC,211753.908,A,3747.7083,N,12215.4846,W,0.35,113.50,020412,,,A*7B
$GPVTG,113.50,T,,M,0.35,N,0.6,K,N*04
$GPGGA,211754.908,3747.7080,N,12215.4849,W,1,03,5.7,25.1,M,-25.1,M,,0000*5B
$GPGSA,A,2,23,20,13,,,,,,,,,,5.8,5.7,1.0*3C
$GPRMC,211754.908,A,3747.7080,N,12215.4849,W,0.26,157.73,020412,,,A*73
$GPVTG,157.73,T,,M,0.26,N,0.5,K,N*04
$GPGGA,211755.908,3747.7077,N,12215.4852,W,1,03,5.7,25.1,M,-25.1,M,,0000*58
$GPGSA,A,2,23,20,13,,,,,,,,,,5.8,5.7,1.0*3C
$GPRMC,211755.908,A,3747.7077,N,12215.4852,W,0.20,79.82,020412,,,A*45
$GPVTG,79.82,T,,M,0.20,N,0.4,K,N*30
$GPGGA,211756.908,3747.7074,N,12215.4854,W,1,03,5.7,25.1,M,-25.1,M,,0000*5E
$GPGSA,A,2,23,20,13,,,,,,,,,,5.8,5.7,1.0*3C
$GPGSV,3,1,11,20,78,275,36,23,49,301,42,13,22,281,32,30,43,099,*77
$GPGSV,3,2,11,16,32,132,,31,27,044,,01,23,212,37,24,09,185,*7F
$GPGSV,3,3,11,11,07,201,,04,07,320,,07,05,225,*48
$GPRMC,211756.908,A,3747.7074,N,12215.4854,W,0.25,117.00,020412,,,A*75
$GPVTG,117.00,T,,M,0.25,N,0.5,K,N*07
$GPGGA,211757.908,3747.7073,N,12215.4856,W,1,03,5.7,25.1,M,-25.1,M,,0000*5A
$GPGSA,A,2,23,20,13,,,,,,,,,,5.8,5.7,1.0*3C
$GPRMC,211757.908,A,3747.7073,N,12215.4856,W,0.26,129.13,020412,,,A*7D
$GPVTG,129.13,T,,M,0.26,N,0.5,K,N*0B
$GPGGA,211758.908,3747.7071,N,12215.4857,W,1,03,5.7,25.1,M,-25.1,M,,0000*56
$GPGSA,A,2,23,20,13,,,,,,,,,,5.8,5.7,1.0*3C
$GPRMC,211758.908,A,3747.7071,N,12215.4857,W,0.20,98.73,020412,,,A*4A
$GPVTG,98.73,T,,M,0.20,N,0.4,K,N*31
$GPGGA,211759.908,3747.7074,N,12215.4856,W,1,03,5.7,25.1,M,-25.1,M,,0000*53
$GPGSA,A,2,23,20,13,,,,,,,,,,5.8,5.7,1.0*3C
$GPRMC,211759.908,A,3747.7074,N,12215.4856,W,0.71,27.07,020412,,,A*4C
$GPVTG,27.07,T,,M,0.71,N,1.3,K,N*34
$GPGGA,211800.908,3747.7074,N,12215.4856,W,1,03,5.7,25.1,M,-25.1,M,,0000*50
$GPGSA,A,2,23,20,13,,,,,,,,,,5.8,5.7,1.0*3C
$GPRMC,211800.908,A,3747.7074,N,12215.4856,W,0.47,167.35,020412,,,A*7E
$GPVTG,167.35,T,,M,0.47,N,0.9,K,N*0E
$GPGGA,211801.908,3747.7074,N,12215.4855,W,1,03,5.7,25.1,M,-25.1,M,,0000*52
$GPGSA,A,2,23,20,13,,,,,,,,,,5.8,5.7,1.0*3C
$GPGSV,3,1,11,20,78,275,30,23,49,301,41,13,22,281,32,30,43,099,*72
$GPGSV,3,2,11,16,32,132,,31,27,044,,01,23,212,30,24,09,185,*78
$GPGSV,3,3,11,11,07,201,,04,07,320,,07,05,225,27*4D
$GPRMC,211801.908,A,3747.7074,N,12215.4855,W,0.36,119.91,020412,,,A*7D
$GPVTG,119.91,T,,M,0.36,N,0.7,K,N*01
$GPGGA,211802.908,3747.7075,N,12215.4856,W,1,03,5.7,25.1,M,-25.1,M,,0000*53
$GPGSA,A,2,23,20,13,,,,,,,,,,5.8,5.7,1.0*3C
$GPRMC,211802.908,A,3747.7075,N,12215.4856,W,0.38,159.88,020412,,,A*7E
$GPVTG,159.88,T,,M,0.38,N,0.7,K,N*03
$GPGGA,211803.908,3747.7076,N,12215.4856,W,1,03,5.7,25.1,M,-25.1,M,,0000*51
$GPGSA,A,2,23,20,13,,,,,,,,,,5.8,5.7,1.0*3C
$GPRMC,211803.908,A,3747.7076,N,12215.4856,W,0.21,180.74,020412,,,A*73
$GPVTG,180.74,T,,M,0.21,N,0.4,K,N*0F
$GPGGA,211804.908,3747.7077,N,12215.4857,W,1,03,5.7,25.1,M,-25.1,M,,0000*56
$GPGSA,A,2,23,20,13,,,,,,,,,,5.8,5.7,1.0*3C
$GPRMC,211804.908,A,3747.7077,N,12215.4857,W,0.23,128.39,020412,,,A*7D
$GPVTG,128.39,T,,M,0.23,N,0.4,K,N*06
$GPGGA,211806.911,3747.7075,N,12215.4913,W,1,03,5.7,25.1,M,-25.1,M,,0000*5F
$GPGSA,A,2,23,20,13,,,,,,,,,,5.8,5.7,1.0*3C
$GPGSV,3,1,11,20,78,275,33,23,49,301,41,13,22,281,32,30,43,099,*71
$GPGSV,3,2,11,16,32,132,25,31,27,044,,01,23,212,33,24,09,185,*7C
$GPGSV,3,3,11,11,07,201,,04,07,320,,07,05,225,27*4D
$GPRMC,211806.911,A,3747.7075,N,12215.4913,W,1.80,244.43,020412,,,A*78
$GPVTG,244.43,T,,M,1.80,N,3.3,K,N*0E
$GPGGA,211807.911,3747.6939,N,12215.4944,W,1,03,5.7,25.1,M,-25.1,M,,0000*5C
$GPGSA,A,2,23,20,13,,,,,,,,,,5.8,5.7,1.0*3C
$GPRMC,211807.911,A,3747.6939,N,12215.4944,W,0.40,21.66,020412,,,A*40
$GPVTG,21.66,T,,M,0.40,N,0.7,K,N*32
$GPGGA,211808.911,3747.7016,N,12215.4889,W,1,03,5.7,25.1,M,-25.1,M,,0000*56
$GPGSA,A,2,23,20,13,,,,,,,,,,5.8,5.7,1.0*3C
$GPRMC,211808.911,A,3747.7016,N,12215.4889,W,0.23,145.17,020412,,,A*7A
$GPVTG,145.17,T,,M,0.23,N,0.4,K,N*01
$GPGGA,211809.911,3747.7037,N,12215.4920,W,1,03,5.7,25.1,M,-25.1,M,,0000*56
$GPGSA,A,2,23,20,13,,,,,,,,,,5.8,5.7,1.0*3C
$GPRMC,211809.911,A,3747.7037,N,12215.4920,W,0.19,175.96,020412,,,A*79
$GPVTG,175.96,T,,M,0.19,N,0.4,K,N*02
$GPGGA,211810.911,3747.7043,N,12215.4971,W,1,03,5.7,25.1,M,-25.1,M,,0000*59
$GPGSA,A,2,23,20,13,,,,,,,,,,5.8,5.7,1.0*3C
$GPRMC,211810.911,A,3747.7043,N,12215.4971,W,0.27,74.57,020412,,,A*46
$GPVTG,74.57,T,,M,0.27,N,0.5,K,N*33
$GPGGA,211811.911,3747.7101,N,12215.4946,W,1,03,5.7,25.1,M,-25.1,M,,0000*5B
$GPGSA,A,2,23,20,13,,,,,,,,,,5.8,5.7,1.0*3C
$GPGSV,3,1,12,20,78,275,32,23,49,301,40,13,22,281,32,30,43,099,*72
$GPGSV,3,2,12,16,32,132,27,31,27,044,,01,23,212,31,24,09,185,*7F
$GPGSV,3,3,12,11,07,201,21,04,07,320,,07,05,225,27,48,00,000,35*77
$GPVTG,169.73,T,,M,0.27,N,0.5,K,N*08
$GPGGA,211812.911,3747.7015,N,12215.4919,W,1,03,5.7,25.1,M,-25.1,M,,0000*56
$GPGSA,A,2,23,20,13,,,,,,,,,,5.8,5.7,1.0*3C
$GPRMC,211812.911,A,3747.7015,N,12215.4919,W,0.35,156.21,020412,,,A*7A
$GPVTG,156.21,T,,M,0.35,N,0.6,K,N*03
$GPGGA,211813.911,3747.7050,N,12215.4891,W,1,03,5.7,25.1,M,-25.1,M,,0000*57
$GPGSA,A,2,23,20,13,,,,,,,,,,5.8,5.7,1.0*3C
$GPRMC,211813.911,A,3747.7050,N,12215.4891,W,0.41,125.09,020412,,,A*76
$GPVTG,125.09,T,,M,0.41,N,0.8,K,N*00
$GPGGA,211814.911,3747.7057,N,12215.4887,W,1,03,5.7,25.1,M,-25.1,M,,0000*50
$GPGSA,A,2,23,20,13,,,,,,,,,,5.8,5.7,1.0*3C
$GPRMC,211814.911,A,3747.7057,N,12215.4887,W,0.31,61.74,020412,,,A*4D
$GPVTG,61.74,T,,M,0.31,N,0.6,K,N*32
$GPGGA,211815.911,3747.7037,N,12215.4850,W,1,03,5.7,25.1,M,-25.1,M,,0000*5D
$GPGSA,A,2,23,20,13,,,,,,,,,,5.8,5.7,1.0*3C
$GPRMC,211815.911,A,3747.7037,N,12215.4850,W,0.14,144.87,020412,,,A*7D
$GPVTG,144.87,T,,M,0.14,N,0.3,K,N*0A
$GPGGA,211816.911,3747.7054,N,12215.4872,W,1,03,5.7,25.1,M,-25.1,M,,0000*5B
$GPGSA,A,2,23,20,13,,,,,,,,,,5.8,5.7,1.0*3C
$GPGSV,3,1,12,20,78,275,24,23,49,301,38,13,22,281,39,30,43,099,*71
$GPGSV,3,2,12,16,32,132,22,31,27,044,,01,23,212,31,24,09,185,*7A
$GPGSV,3,3,12,11,07,201,21,04,07,320,,07,05,225,27,48,00,000,32*70
$GPRMC,211816.911,A,3747.7054,N,12215.4872,W,2.60,150.91,020412,,,A*78
$GPVTG,150.91,T,,M,2.60,N,4.8,K,N*06
$GPGGA,211817.911,3747.7020,N,12215.4865,W,1,03,5.7,25.1,M,-25.1,M,,0000*5F
$GPGSA,A,2,23,20,13,,,,,,,,,,5.8,5.7,1.0*3C
$GPRMC,211817.911,A,3747.7020,N,12215.4865,W,0.80,149.93,020412,,,A*7A
$GPVTG,149.93,T,,M,0.80,N,1.5,K,N*08
$GPGGA,211818.911,3747.7062,N,12215.4895,W,1,03,5.7,25.1,M,-25.1,M,,0000*59
$GPGSA,A,2,23,20,13,,,,,,,,,,5.8,5.7,1.0*3C
$GPRMC,211818.911,A,3747.7062,N,12215.4895,W,0.20,296.95,020412,,,A*71
$GPVTG,296.95,T,,M,0.20,N,0.4,K,N*05
$GPGGA,211819.911,3747.7084,N,12215.4916,W,1,03,5.7,25.1,M,-25.1,M,,0000*5A
$GPGSA,A,2,23,20,13,,,,,,,,,,5.8,5.7,1.0*3C
$GPRMC,211819.911,A,3747.7084,N,12215.4916,W,1.41,160.22,020412,,,A*72
$GPVTG,160.22,T,,M,1.41,N,2.6,K,N*05
$GPGGA,211820.911,3747.7064,N,12215.4905,W,1,03,5.7,25.1,M,-25.1,M,,0000*5C
$GPGSA,A,2,23,20,13,,,,,,,,,,5.8,5.7,1.0*3C
$GPRMC,211820.911,A,3747.7064,N,12215.4905,W,0.26,109.26,020412,,,A*7F
$GPVTG,109.26,T,,M,0.26,N,0.5,K,N*0F
$GPGGA,211821.911,3747.7067,N,12215.4904,W,1,03,5.7,25.1,M,-25.1,M,,0000*5F
$GPGSA,A,2,23,20,13,,,,,,,,,,5.8,5.7,1.0*3C
$GPGSV,3,1,12,20,78,275,32,23,49,301,38,13,22,281,39,30,43,099,*76
$GPGSV,3,2,12,16,32,132,,31,27,044,,01,23,212,29,24,09,185,*73
$GPGSV,3,3,12,11,07,201,16,04,07,320,,07,05,225,26,48,00,000,33*74
$GPRMC,211821.911,A,3747.7067,N,12215.4904,W,0.13,82.77,020412,,,A*4C
$GPVTG,82.77,T,,M,0.13,N,0.2,K,N*38
$GPGGA,211822.911,3747.7062,N,12215.4906,W,1,03,5.7,25.1,M,-25.1,M,,0000*5B
$GPGSA,A,2,23,20,13,,,,,,,,,,5.8,5.7,1.0*3C
$GPRMC,211822.911,A,3747.7062,N,12215.4906,W,0.37,141.31,020412,,,A*72
$GPVTG,141.31,T,,M,0.37,N,0.7,K,N*07
$GPGGA,211823.911,3747.7056,N,12215.4906,W,1,03,5.7,25.1,M,-25.1,M,,0000*5D
$GPGSA,A,2,23,20,13,,,,,,,,,,5.8,5.7,1.0*3C
$GPRMC,211823.911,A,3747.7056,N,12215.4906,W,0.36,77.10,020412,,,A*42
$GPVTG,77.10,T,,M,0.36,N,0.7,K,N*31
$GPGGA,211824.911,3747.7129,N,12215.4949,W,1,03,5.7,25.1,M,-25.1,M,,0000*58
$GPGSA,A,2,23,20,13,,,,,,,,,,5.8,5.7,1.0*3C
$GPRMC,211824.911,A,3747.7129,N,12215.4949,W,0.19,97.45,020412,,,A*44
$GPVTG,97.45,T,,M,0.19,N,0.4,K,N*31
$GPGGA,211825.911,3747.7086,N,12215.4919,W,1,03,5.7,25.1,M,-25.1,M,,0000*58
$GPGSA,A,2,23,20,13,,,,,,,,,,5.8,5.7,1.0*3C
$GPRMC,211825.911,A,3747.7086,N,12215.4919,W,1.91,154.52,020412,,,A*7D
$GPVTG,154.52,T,,M,1.91,N,3.5,K,N*0A
$GPGGA,211826.911,3747.7103,N,12215.4925,W,1,03,5.7,25.1,M,-25.1,M,,0000*58
$GPGSA,A,2,23,20,13,,,,,,,,,,5.8,5.7,1.0*3C
$GPGSV,3,1,12,20,78,275,26,23,49,301,37,13,22,281,38,30,43,099,*7D
$GPGSV,3,2,12,16,32,132,25,31,27,044,,01,23,212,34,24,09,185,*78
$GPGSV,3,3,12,11,07,201,25,04,07,320,,07,05,225,29,48,00,000,34*7C
$GPRMC,211826.911,A,3747.7103,N,12215.4925,W,0.93,150.46,020412,,,A*7F
$GPGGA,211827.911,3747.7106,N,12215.4923,W,1,03,5.7,25.1,M,-25.1,M,,0000*5A
$GPGSA,A,2,23,20,13,,,,,,,,,,5.8,5.7,1.0*3C
$GPRMC,211827.911,A,3747.7106,N,12215.4923,W,0.34,73.05,020412,,,A*47
$GPVTG,73.05,T,,M,0.34,N,0.6,K,N*32
$GPGGA,211828.911,3747.7130,N,12215.4936,W,1,03,5.7,25.1,M,-25.1,M,,0000*54
$GPGSA,A,2,23,20,13,,,,,,,,,,5.8,5.7,1.0*3C
$GPRMC,211828.911,A,3747.7130,N,12215.4936,W,1.23,150.98,020412,,,A*7A
$GPVTG,150.98,T,,M,1.23,N,2.3,K,N*06
$GPGGA,211829.911,3747.7158,N,12215.4954,W,1,03,5.7,25.1,M,-25.1,M,,0000*5F
$GPGSA,A,2,23,20,13,,,,,,,,,,5.8,5.7,1.0*3C
$GPRMC,211829.911,A,3747.7158,N,12215.4954,W,0.55,141.84,020412,,,A*7C
$GPVTG,141.84,T,,M,0.55,N,1.0,K,N*0B
$GPGGA,211830.911,3747.7149,N,12215.4948,W,1,03,5.7,25.1,M,-25.1,M,,0000*5A
$GPGSA,A,2,23,20,13,,,,,,,,,,5.8,5.7,1.0*3C
$GPRMC,211830.911,A,3747.7149,N,12215.4948,W,0.48,46.74,020412,,,A*4C
$GPVTG,46.74,T,,M,0.48,N,0.9,K,N*36
$GPGGA,211831.911,3747.7156,N,12215.4910,W,1,03,5.7,25.1,M,-25.1,M,,0000*58
$GPGSA,A,2,23,20,13,,,,,,,,,,5.8,5.7,1.0*3C
$GPGSV,3,1,12,20,78,275,30,23,49,301,40,13,22,281,28,30,43,099,*7B
$GPGSV,3,2,12,16,32,132,21,31,27,044,,01,23,212,25,24,09,185,*7C
$GPGSV,3,3,12,11,07,201,12,04,07,320,,07,05,225,23,48,00,000,28*7F
$GPRMC,211831.911,A,3747.7156,N,12215.4910,W,1.52,207.63,020412,,,A*75
$GPVTG,207.63,T,,M,1.52,N,2.8,K,N*0E
$GPGGA,211832.911,3747.7122,N,12215.4924,W,1,03,5.7,25.1,M,-25.1,M,,0000*5F
$GPGSA,A,2,23,20,13,,,,,,,,,,5.8,5.7,1.0*3C
$GPRMC,211832.911,A,3747.7122,N,12215.4924,W,0.41,53.83,020412,,,A*4C
$GPVTG,53.83,T,,M,0.41,N,0.8,K,N*32
$GPGGA,211833.911,3747.7144,N,12215.4881,W,1,03,5.7,25.1,M,-25.1,M,,0000*50
$GPGSA,A,2,23,20,13,,,,,,,,,,5.8,5.7,1.0*3C
$GPRMC,211833.911,A,3747.7144,N,12215.4881,W,3.45,45.61,020412,,,A*4F
$GPVTG,45.61,T,,M,3.45,N,6.4,K,N*34
$GPGGA,211834.911,3747.7072,N,12215.4779,W,1,04,2.6,3.2,M,-25.1,M,,0000*6D
$GPGSA,A,3,23,20,01,13,,,,,,,,,2.7,2.6,1.0*32
$GPRMC,211834.911,A,3747.7072,N,12215.4779,W,0.19,125.30,020412,,,A*7D
$GPVTG,125.30,T,,M,0.19,N,0.3,K,A*03
$GPGGA,211835.911,3747.7073,N,12215.4788,W,1,04,2.6,4.5,M,-25.1,M,,0000*63
$GPGSA,A,3,23,20,01,13,,,,,,,,,2.7,2.6,1.0*32
$GPRMC,211835.911,A,3747.7073,N,12215.4788,W,0.27,113.46,020412,,,A*7A
$GPVTG,113.46,T,,M,0.27,N,0.5,K,A*0C
$GPGGA,211836.911,3747.7072,N,12215.4798,W,1,04,2.6,5.5,M,-25.1,M,,0000*61
$GPGSA,A,3,23,20,01,13,,,,,,,,,2.7,2.6,1.0*32
$GPGSV,3,1,12,20,79,274,29,23,49,302,40,01,23,211,28,13,22,281,30*75
$GPGSV,3,2,12,30,43,099,,16,32,132,,31,27,044,,24,09,185,*7D
$GPGSV,3,3,12,04,07,320,,11,07,200,10,07,05,225,26,48,44,197,33*7C
$GPVTG,109.68,T,,M,0.15,N,0.3,K,A*0C
$GPGGA,211838.000,3747.7071,N,12215.4805,W,1,04,2.6,6.3,M,-25.1,M,,0000*6B
$GPGSA,A,3,23,20,01,13,,,,,,,,,2.7,2.6,1.0*32
$GPRMC,211838.000,A,3747.7071,N,12215.4805,W,0.24,120.10,020412,,,A*76
$GPVTG,120.10,T,,M,0.24,N,0.4,K,A*0D
$GPGGA,211839.000,3747.7068,N,12215.4810,W,1,04,2.6,9.0,M,-25.1,M,,0000*6A
$GPGSA,A,3,23,20,01,13,,,,,,,,,2.7,2.6,1.0*32
$GPRMC,211839.000,A,3747.7068,N,12215.4810,W,0.10,193.86,020412,,,A*7B
$GPVTG,193.86,T,,M,0.10,N,0.2,K,A*0B
$GPGGA,211840.000,3747.7064,N,12215.4815,W,1,04,2.6,12.0,M,-25.1,M,,0000*57
$GPGSA,A,3,23,20,01,13,,,,,,,,,2.7,2.6,1.0*32
$GPRMC,211840.000,A,3747.7064,N,12215.4815,W,0.22,122.44,020412,,,A*79
$GPVTG,122.44,T,,M,0.22,N,0.4,K,A*08
$GPGGA,211841.000,3747.7061,N,12215.4819,W,1,04,2.6,14.2,M,-25.1,M,,0000*5B
$GPGSA,A,3,23,20,01,13,,,,,,,,,2.7,2.6,1.0*32
$GPRMC,211841.000,A,3747.7061,N,12215.4819,W,0.18,129.67,020412,,,A*72
$GPVTG,129.67,T,,M,0.18,N,0.3,K,A*0C
$GPGGA,211842.000,3747.7060,N,12215.4822,W,1,04,2.6,15.4,M,-25.1,M,,0000*56
$GPGSA,A,3,23,20,01,13,,,,,,,,,2.7,2.6,1.0*32
$GPGSV,3,1,12,20,79,274,29,23,49,302,40,01,23,211,28,13,22,281,36*73
$GPGSV,3,2,12,30,43,099,,16,32,132,,31,27,044,,24,09,185,*7D
$GPGSV,3,3,12,04,07,320,,11,07,200,,07,05,225,19,48,44,197,24*77
$GPRMC,211842.000,A,3747.7060,N,12215.4822,W,0.18,135.72,020412,,,A*71
$GPVTG,135.72,T,,M,0.18,N,0.3,K,A*05
$GPGGA,211843.000,3747.7060,N,12215.4826,W,1,04,2.6,16.4,M,-25.1,M,,0000*50
$GPGSA,A,3,23,20,01,13,,,,,,,,,2.7,2.6,1.0*32
$GPRMC,211843.000,A,3747.7060,N,12215.4826,W,0.51,172.42,020412,,,A*79
$GPVTG,172.42,T,,M,0.51,N,0.9,K,A*02
$GPGGA,211844.000,3747.7055,N,12215.4826,W,1,04,2.6,16.6,M,-25.1,M,,0000*53
$GPGSA,A,3,23,20,01,13,,,,,,,,,2.7,2.6,1.0*32
$GPRMC,211844.000,A,3747.7055,N,12215.4826,W,0.76,178.05,020412,,,A*74
$GPVTG,178.05,T,,M,0.76,N,1.4,K,A*02
$GPGGA,211845.000,3747.7053,N,12215.4827,W,1,04,2.6,16.8,M,-25.1,M,,0000*5B
$GPGSA,A,3,23,20,01,13,,,,,,,,,2.7,2.6,1.0*32
$GPRMC,211845.000,A,3747.7053,N,12215.4827,W,0.22,157.05,020412,,,A*7E
$GPVTG,157.05,T,,M,0.22,N,0.4,K,A*0F
$GPGGA,211846.000,3747.7052,N,12215.4828,W,1,04,2.6,16.9,M,-25.1,M,,0000*57
$GPGSA,A,3,23,20,01,13,,,,,,,,,2.7,2.6,1.0*32
$GPRMC,211846.000,A,3747.7052,N,12215.4828,W,0.20,149.58,020412,,,A*76
$GPVTG,149.58,T,,M,0.20,N,0.4,K,A*0A
$GPGGA,211847.000,3747.7052,N,12215.4828,W,1,04,2.6,16.9,M,-25.1,M,,0000*56
$GPGSA,A,3,23,20,01,13,,,,,,,,,2.7,2.6,1.0*32
$GPGSV,3,1,12,20,79,273,30,23,49,302,40,30,43,098,,16,32,132,27*7E
$GPGSV,3,2,12,31,27,044,,01,23,211,25,13,22,281,36,24,09,185,*76
$GPGSV,3,3,12,04,07,320,,11,07,200,,07,05,225,25,48,44,197,32*7F
$GPRMC,211847.000,A,3747.7052,N,12215.4828,W,0.12,111.25,020412,,,A*71
$GPVTG,111.25,T,,M,0.12,N,0.2,K,A*0A
$GPGGA,211848.000,3747.7051,N,12215.4829,W,1,04,2.6,16.9,M,-25.1,M,,0000*5B
$GPGSA,A,3,23,20,01,13,,,,,,,,,2.7,2.6,1.0*32
$GPRMC,211848.000,A,3747.7051,N,12215.4829,W,0.14,123.10,020412,,,A*7D
$GPVTG,123.10,T,,M,0.14,N,0.3,K,A*0A
$GPGGA,211849.000,3747.7052,N,12215.4829,W,1,04,2.6,16.9,M,-25.1,M,,0000*59
$GPGSA,A,3,23,20,01,13,,,,,,,,,2.7,2.6,1.0*32
$GPRMC,211849.000,A,3747.7052,N,12215.4829,W,0.12,128.15,020412,,,A*77
$GPVTG,128.15,T,,M,0.12,N,0.2,K,A*03
$GPGGA,211850.000,3747.7052,N,12215.4829,W,1,04,2.6,16.8,M,-25.1,M,,0000*50
$GPGSA,A,3,23,20,01,13,,,,,,,,,2.7,2.6,1.0*32
$GPRMC,211850.000,A,3747.7052,N,12215.4829,W,0.18,101.86,020412,,,A*74
$GPVTG,101.86,T,,M,0.18,N,0.3,K,A*09
$GPGGA,211851.000,3747.7051,N,12215.4829,W,1,04,2.6,16.7,M,-25.1,M,,0000*5D
$GPGSA,A,3,23,20,01,13,,,,,,,,,2.7,2.6,1.0*32
$GPRMC,211851.000,A,3747.7051,N,12215.4829,W,0.23,133.85,020412,,,A*7C
$GPVTG,133.85,T,,M,0.23,N,0.4,K,A*04
$GPGGA,211852.000,3747.7051,N,12215.4829,W,1,04,2.6,16.5,M,-25.1,M,,0000*5C
$GPGSA,A,3,23,20,01,13,,,,,,,,,2.7,2.6,1.0*32
$GPGSV,3,1,12,20,79,273,30,23,49,302,39,30,43,098,,16,32,132,25*72
$GPGSV,3,2,12,31,27,044,,01,23,211,28,13,22,281,37,24,09,185,*7A
$GPGSV,3,3,12,04,07,320,,11,07,200,,07,05,225,27,48,44,197,33*7C
$GPVTG,121.04,T,,M,0.17,N,0.3,K,A*0E
$GPGGA,211853.000,3747.7051,N,12215.4828,W,1,04,2.6,16.3,M,-25.1,M,,0000*5A
$GPGSA,A,3,23,20,01,13,,,,,,,,,2.7,2.6,1.0*32
$GPRMC,211853.000,A,3747.7051,N,12215.4828,W,0.23,116.42,020412,,,A*73
$GPVTG,116.42,T,,M,0.23,N,0.4,K,A*08
$GPGGA,211854.000,3747.7050,N,12215.4828,W,1,04,2.6,16.0,M,-25.1,M,,0000*5F
$GPGSA,A,3,23,20,01,13,,,,,,,,,2.7,2.6,1.0*32
$GPRMC,211854.000,A,3747.7050,N,12215.4828,W,0.14,127.35,020412,,,A*73
$GPVTG,127.35,T,,M,0.14,N,0.3,K,A*09
$GPGGA,211855.000,3747.7050,N,12215.4827,W,1,04,2.6,15.7,M,-25.1,M,,0000*55
$GPGSA,A,3,23,20,01,13,,,,,,,,,2.7,2.6,1.0*32
$GPRMC,211855.000,A,3747.7050,N,12215.4827,W,0.36,134.90,020412,,,A*70
$GPVTG,134.90,T,,M,0.36,N,0.7,K,A*00
$GPGGA,211856.000,3747.7050,N,12215.4827,W,1,03,5.7,15.6,M,-25.1,M,,0000*56
$GPGSA,A,2,23,20,13,,,,,,,,,,5.7,5.7,1.0*33
$GPRMC,211856.000,A,3747.7050,N,12215.4827,W,0.26,124.99,020412,,,A*7A
$GPVTG,124.99,T,,M,0.26,N,0.5,K,N*04
$GPGGA,211857.000,3747.7050,N,12215.4827,W,1,03,5.7,15.4,M,-25.1,M,,0000*55
$GPGSA,A,2,23,20,13,,,,,,,,,,5.7,5.7,1.0*33
$GPGSV,3,1,12,20,79,273,30,23,49,302,39,30,43,098,,16,32,132,*75
$GPGSV,3,2,12,31,27,044,,01,23,211,,13,22,281,32,24,09,185,*75
$GPGSV,3,3,12,04,07,320,,11,07,200,,07,05,225,27,48,44,197,30*7F
$GPRMC,211857.000,A,3747.7050,N,12215.4827,W,0.21,127.58,020412,,,A*72
$GPVTG,127.58,T,,M,0.21,N,0.4,K,N*0C
$GPGGA,211858.000,3747.7050,N,12215.4827,W,1,03,5.7,15.3,M,-25.1,M,,0000*5D
$GPGSA,A,2,23,20,13,,,,,,,,,,5.7,5.7,1.0*33
$GPRMC,211858.000,A,3747.7050,N,12215.4827,W,0.22,93.00,020412,,,A*4D
$GPVTG,93.00,T,,M,0.22,N,0.4,K,N*3C
$GPGGA,211859.000,3747.7051,N,12215.4828,W,1,04,2.6,15.5,M,-25.1,M,,0000*55
$GPGSA,A,3,23,20,01,13,,,,,,,,,2.7,2.6,1.0*32
$GPRMC,211859.000,A,3747.7051,N,12215.4828,W,0.51,163.04,020412,,,A*7C
$GPVTG,163.04,T,,M,0.51,N,0.9,K,A*00
$GPGGA,211900.000,3747.7051,N,12215.4828,W,1,03,5.7,15.5,M,-25.1,M,,0000*59
$GPGSA,A,2,23,20,13,,,,,,,,,,5.7,5.7,1.0*33
$GPRMC,211900.000,A,3747.7051,N,12215.4828,W,0.36,155.93,020412,,,A*7B
$GPVTG,155.93,T,,M,0.36,N,0.7,K,N*0B
$GPGGA,211901.000,3747.7053,N,12215.4829,W,1,04,2.6,15.8,M,-25.1,M,,0000*57
$GPGSA,A,3,23,20,01,13,,,,,,,,,2.7,2.6,1.0*32
$GPRMC,211901.000,A,3747.7053,N,12215.4829,W,0.57,168.05,020412,,,A*7F
$GPVTG,168.05,T,,M,0.57,N,1.1,K,A*05
$GPGGA,211902.000,3747.7050,N,12215.4831,W,1,03,5.7,15.8,M,-25.1,M,,0000*5F
$GPGSA,A,2,23,20,13,,,,,,,,,,5.7,5.7,1.0*33
$GPGSV,3,1,12,20,79,273,31,23,49,302,39,30,43,098,,16,32,132,*74
$GPGSV,3,2,12,31,27,044,,01,23,211,19,13,22,281,32,24,09,185,*7D
$GPGSV,3,3,12,04,07,320,,11,07,200,,07,05,225,27,48,44,197,26*78
$GPRMC,211902.000,A,3747.7050,N,12215.4831,W,1.20,182.87,020412,,,A*79
$GPVTG,182.87,T,,M,1.20,N,2.2,K,A*0A
$GPGGA,211903.000,3747.7056,N,12215.4832,W,1,04,2.6,16.3,M,-25.1,M,,0000*52
$GPGSA,A,3,23,20,01,13,,,,,,,,,2.7,2.6,1.0*32
$GPRMC,211903.000,A,3747.7056,N,12215.4832,W,0.20,81.11,020412,,,A*41
$GPVTG,81.11,T,,M,0.20,N,0.4,K,A*32
$GPGGA,211904.000,3747.7052,N,12215.4832,W,1,04,2.6,16.0,M,-25.1,M,,0000*52
$GPGSA,A,3,23,20,01,13,,,,,,,,,2.7,2.6,1.0*32
$GPRMC,211904.000,A,3747.7052,N,12215.4832,W,0.22,71.37,020412,,,A*4B
$GPVTG,71.37,T,,M,0.22,N,0.4,K,A*3B
$GPGGA,211905.000,3747.7049,N,12215.4832,W,1,04,2.6,15.7,M,-25.1,M,,0000*5D
$GPGSA,A,3,23,20,01,13,,,,,,,,,2.7,2.6,1.0*32
$GPRMC,211905.000,A,3747.7049,N,12215.4832,W,0.20,97.11,020412,,,A*4E
$GPVTG,97.11,T,,M,0.20,N,0.4,K,A*35
$GPGGA,211906.000,3747.7045,N,12215.4832,W,1,04,2.6,15.4,M,-25.1,M,,0000*51
$GPGSA,A,3,23,20,01,13,,,,,,,,,2.7,2.6,1.0*32
$GPRMC,211906.000,A,3747.7045,N,12215.4832,W,0.20,148.45,020412,,,A*73
$GPVTG,148.45,T,,M,0.20,N,0.4,K,A*07
$GPGGA,211907.000,3747.7047,N,12215.4832,W,1,04,2.6,15.5,M,-25.1,M,,0000*53
$GPGSA,A,3,23,20,01,13,,,,,,,,,2.7,2.6,1.0*32
$GPGSV,3,1,12,20,79,273,32,23,49,302,38,30,43,098,,16,32,132,*76
$GPGSV,3,2,12,31,27,044,,01,23,211,29,13,22,281,32,24,09,185,*7E
$GPGSV,3,3,12,04,07,320,,11,07,200,,07,05,225,28,48,44,197,32*72
$GPRMC,211907.000,A,3747.7047,N,12215.4832,W,0.14,132.47,020412,,,A*78
$GPVTG,132.47,T,,M,0.14,N,0.3,K,A*08
$GPGGA,211908.000,3747.7051,N,12215.4833,W,1,04,2.6,15.9,M,-25.1,M,,0000*56
$GPGSA,A,3,23,20,01,13,,,,,,,,,2.7,2.6,1.0*32
$GPRMC,211908.000,A,3747.7051,N,12215.4833,W,0.24,82.06,020412,,,A*4D
$GPVTG,82.06,T,,M,0.24,N,0.4,K,A*33
$GPGGA,211909.000,3747.7055,N,12215.4834,W,1,04,2.6,16.3,M,-25.1,M,,0000*5D
$GPGSA,A,3,23,20,01,13,,,,,,,,,2.7,2.6,1.0*32
$GPRMC,211909.000,A,3747.7055,N,12215.4834,W,0.28,85.58,020412,,,A*4F
$GPVTG,85.58,T,,M,0.28,N,0.5,K,A*32
$GPGGA,211910.000,3747.7057,N,12215.4834,W,1,04,2.6,16.5,M,-25.1,M,,0000*51
$GPGSA,A,3,23,20,01,13,,,,,,,,,2.7,2.6,1.0*32
$GPRMC,211910.000,A,3747.7057,N,12215.4834,W,0.26,91.87,020412,,,A*4C
$GPVTG,91.87,T,,M,0.26,N,0.5,K,A*3B
$GPGGA,211911.000,3747.7058,N,12215.4835,W,1,04,2.6,16.7,M,-25.1,M,,0000*5C
$GPGSA,A,3,23,20,01,13,,,,,,,,,2.7,2.6,1.0*32
$GPRMC,211911.000,A,3747.7058,N,12215.4835,W,0.26,89.42,020412,,,A*43
$GPVTG,89.42,T,,M,0.26,N,0.5,K,A*3B
$GPGGA,211912.000,3747.7059,N,12215.4836,W,1,04,2.6,16.9,M,-25.1,M,,0000*53
$GPGSA,A,3,23,20,01,13,,,,,,,,,2.7,2.6,1.0*32
$GPGSV,3,1,12,20,79,273,33,23,49,302,38,30,43,098,,16,32,132,*77
$GPGSV,3,2,12,31,27,044,,01,23,211,29,13,22,281,32,24,09,185,*7E
$GPGSV,3,3,12,04,07,320,,11,07,200,,07,05,225,28,48,44,197,30*70
$GPRMC,211912.000,A,3747.7059,N,12215.4836,W,0.24,95.32,020412,,,A*4A
$GPVTG,95.32,T,,M,0.24,N,0.4,K,A*32
$GPGGA,211913.000,3747.7060,N,12215.4837,W,1,04,2.6,17.0,M,-25.1,M,,0000*51
$GPGSA,A,3,23,20,01,13,,,,,,,,,2.7,2.6,1.0*32
$GPRMC,211913.000,A,3747.7060,N,12215.4837,W,0.29,93.83,020412,,,A*41
$GPVTG,93.83,T,,M,0.29,N,0.5,K,A*32
$GPGGA,211914.000,3747.7061,N,12215.4838,W,1,04,2.6,17.2,M,-25.1,M,,0000*5A
$GPGSA,A,3,23,20,01,13,,,,,,,,,2.7,2.6,1.0*32
$GPRMC,211914.000,A,3747.7061,N,12215.4838,W,0.23,112.97,020412,,,A*7F
$GPVTG,112.97,T,,M,0.23,N,0.4,K,A*04
$GPGGA,211915.000,3747.7061,N,12215.4839,W,1,04,2.6,17.4,M,-25.1,M,,0000*5C
$GPGSA,A,3,23,20,01,13,,,,,,,,,2.7,2.6,1.0*32
$GPRMC,211915.000,A,3747.7061,N,12215.4839,W,0.23,102.05,020412,,,A*75
$GPVTG,102.05,T,,M,0.23,N,0.4,K,A*0E
$GPGGA,211916.000,3747.7061,N,12215.4840,W,2,04,2.6,17.5,M,-25.1,M,1.8,0000*74
$GPGSA,A,3,23,20,01,13,,,,,,,,,2.7,2.6,1.0*32
$GPRMC,211916.000,A,3747.7061,N,12215.4840,W,0.25,106.22,020412,,,D*7A
$GPVTG,106.22,T,,M,0.25,N,0.5,K,D*0D
$GPGGA,211917.000,3747.7061,N,12215.4840,W,2,04,2.6,17.6,M,-25.1,M,1.8,0000*76
$GPGSA,A,3,23,20,01,13,,,,,,,,,2.7,2.6,1.0*32
$GPGSV,3,1,12,20,79,273,34,23,49,302,38,30,43,098,,16,32,132,23*71
$GPGSV,3,2,12,31,27,044,,01,23,211,33,13,22,281,33,24,09,185,*74
$GPGSV,3,3,12,04,07,320,,11,07,200,,07,05,225,32,48,44,197,32*79
$GPRMC,211917.000,A,3747.7061,N,12215.4840,W,0.21,94.25,020412,,,D*42
$GPVTG,94.25,T,,M,0.21,N,0.4,K,D*35
$GPGGA,211918.000,3747.7061,N,12215.4840,W,2,04,2.6,17.7,M,-25.1,M,1.8,0000*78
$GPGSA,A,3,23,20,01,13,,,,,,,,,2.7,2.6,1.0*32
$GPRMC,211918.000,A,3747.7061,N,12215.4840,W,0.26,98.27,020412,,,D*44
$GPVTG,98.27,T,,M,0.26,N,0.5,K,D*3D
$GPGGA,211919.000,3747.7061,N,12215.4840,W,2,04,2.6,17.8,M,-25.1,M,2.8,0000*75
$GPGSA,A,3,23,20,01,13,,,,,,,,,2.7,2.6,1.0*32
$GPRMC,211919.000,A,3747.7061,N,12215.4840,W,0.29,97.10,020412,,,D*41
$GPVTG,97.10,T,,M,0.29,N,0.5,K,D*39
$GPGGA,211920.000,3747.7061,N,12215.4840,W,2,04,2.6,17.9,M,-25.1,M,3.8,0000*7F
$GPGSA,A,3,23,20,01,13,,,,,,,,,2.7,2.6,1.0*32
$GPRMC,211920.000,A,3747.7061,N,12215.4840,W,0.28,99.66,020412,,,D*45
$GPVTG,99.66,T,,M,0.28,N,0.5,K,D*37
$GPGGA,211921.000,3747.7060,N,12215.4840,W,2,04,2.6,17.9,M,-25.1,M,4.8,0000*78
$GPGSA,A,3,23,20,01,13,,,,,,,,,2.7,2.6,1.0*32
$GPRMC,211921.000,A,3747.7060,N,12215.4840,W,0.20,114.34,020412,,,D*7E
$GPVTG,114.34,T,,M,0.20,N,0.4,K,D*0D
$GPGGA,211922.000,3747.7060,N,12215.4840,W,2,04,2.6,18.0,M,-25.1,M,5.8,0000*7C
$GPGSA,A,3,23,20,01,13,,,,,,,,,2.7,2.6,1.0*32
$GPGSV,3,1,11,20,79,273,30,23,49,302,32,30,43,098,,16,32,132,*7D
$GPGSV,3,2,11,31,27,044,,01,23,211,32,13,22,281,33,24,09,185,*76
$GPGSV,3,3,11,04,07,320,,11,07,200,,07,05,225,31*4B
$GPRMC,211922.000,A,3747.7060,N,12215.4840,W,0.23,111.14,020412,,,D*79
$GPVTG,111.14,T,,M,0.23,N,0.4,K,D*09
$GPGGA,211923.000,3747.7059,N,12215.4841,W,2,04,2.6,18.0,M,-25.1,M,6.8,0000*75
$GPGSA,A,3,23,20,01,13,,,,,,,,,2.7,2.6,1.0*32
$GPRMC,211923.000,A,3747.7059,N,12215.4841,W,0.22,116.67,020412,,,D*71
$GPVTG,116.67,T,,M,0.22,N,0.4,K,D*0B
$GPGGA,211924.000,3747.7058,N,12215.4841,W,2,04,2.6,18.1,M,-25.1,M,7.8,0000*73
$GPGSA,A,3,23,20,01,13,,,,,,,,,2.7,2.6,1.0*32
$GPRMC,211924.000,A,3747.7058,N,12215.4841,W,0.19,112.39,020412,,,D*70
$GPVTG,112.39,T,,M,0.19,N,0.4,K,D*0C
$GPGGA,211925.000,3747.7058,N,12215.4841,W,2,04,2.6,18.1,M,-25.1,M,8.8,0000*7D
$GPGSA,A,3,23,20,01,13,,,,,,,,,2.7,2.6,1.0*32
$GPRMC,211925.000,A,3747.7058,N,12215.4841,W,0.13,117.61,020412,,,D*73
$GPVTG,117.61,T,,M,0.13,N,0.2,K,D*08
$GPGGA,211926.000,3747.7057,N,12215.4841,W,2,04,2.6,18.1,M,-25.1,M,9.8,0000*70
$GPGSA,A,3,23,20,01,13,,,,,,,,,2.7,2.6,1.0*32
$GPRMC,211926.000,A,3747.7057,N,12215.4841,W,0.21,91.86,020412,,,D*48
$GPVTG,91.86,T,,M,0.21,N,0.4,K,D*39
$GPGGA,211927.000,3747.7057,N,12215.4842,W,2,04,2.6,18.1,M,-25.1,M,10.8,0000*4A
$GPGSA,A,3,23,20,01,13,,,,,,,,,2.7,2.6,1.0*32
$GPGSV,3,1,12,20,79,273,31,23,49,302,35,30,43,098,,16,32,132,21*7B
$GPGSV,3,2,12,31,27,044,,01,23,211,32,13,22,281,33,24,09,185,*75
$GPGSV,3,3,12,04,07,320,,11,07,200,,07,05,225,27,48,44,197,35*7A
$GPRMC,211927.000,A,3747.7057,N,12215.4842,W,0.19,127.02,020412,,,D*71
$GPVTG,127.02,T,,M,0.19,N,0.3,K,D*05
$GPGGA,211928.000,3747.7056,N,12215.4842,W,2,04,2.6,18.1,M,-25.1,M,11.8,0000*45
$GPGSA,A,3,23,20,01,13,,,,,,,,,2.7,2.6,1.0*32
$GPRMC,211928.000,A,3747.7056,N,12215.4842,W,0.19,129.01,020412,,,D*72
$GPVTG,129.01,T,,M,0.19,N,0.4,K,D*0F
$GPGGA,211929.000,3747.7055,N,12215.4842,W,2,04,2.6,18.1,M,-25.1,M,12.8,0000*44
$GPGSA,A,3,23,20,01,13,,,,,,,,,2.7,2.6,1.0*32
$GPRMC,211929.000,A,3747.7055,N,12215.4842,W,0.17,123.99,020412,,,D*75
$GPVTG,123.99,T,,M,0.17,N,0.3,K,D*0D
$GPGGA,211930.000,3747.7054,N,12215.4842,W,2,04,2.6,18.1,M,-25.1,M,13.8,0000*4C
$GPGSA,A,3,23,20,01,13,,,,,,,,,2.7,2.6,1.0*32
$GPRMC,211930.000,A,3747.7054,N,12215.4842,W,0.12,155.34,020412,,,D*7F
$GPVTG,155.34,T,,M,0.12,N,0.2,K,D*0F
$GPGGA,211931.000,3747.7053,N,12215.4842,W,2,04,2.6,18.1,M,-25.1,M,14.8,0000*4D
$GPGSA,A,3,23,20,01,13,,,,,,,,,2.7,2.6,1.0*32
$GPRMC,211931.000,A,3747.7053,N,12215.4842,W,0.14,141.02,020412,,,D*7F
$GPVTG,141.02,T,,M,0.14,N,0.3,K,D*08
$GPGGA,211932.000,3747.7052,N,12215.4842,W,2,04,2.6,18.0,M,-25.1,M,15.8,0000*4F
$GPGSA,A,3,23,20,01,13,,,,,,,,,2.7,2.6,1.0*32
$GPGSV,3,1,12,20,79,273,32,23,49,302,40,30,43,098,,16,32,132,26*7D
$GPGSV,3,2,12,31,27,044,,01,23,211,31,13,22,281,34,24,09,185,*71
$GPGSV,3,3,12,04,07,320,,11,07,200,,07,05,225,30,48,44,197,31*78
$GPRMC,211932.000,A,3747.7052,N,12215.4842,W,0.19,139.20,020412,,,D*7F
$GPVTG,139.20,T,,M,0.19,N,0.3,K,D*0A
$GPGGA,211933.000,3747.7051,N,12215.4842,W,2,04,2.6,18.0,M,-25.1,M,16.8,0000*4E
$GPGSA,A,3,23,20,01,13,,,,,,,,,2.7,2.6,1.0*32
$GPRMC,211933.000,A,3747.7051,N,12215.4842,W,0.18,108.65,020412,,,D*7F
$GPVTG,108.65,T,,M,0.18,N,0.3,K,D*08
$GPGGA,211934.000,3747.7050,N,12215.4842,W,2,04,2.6,18.0,M,-25.1,M,17.8,0000*49
$GPGSA,A,3,23,20,01,13,,,,,,,,,2.7,2.6,1.0*32
$GPRMC,211934.000,A,3747.7050,N,12215.4842,W,0.16,139.31,020412,,,D*74
$GPVTG,139.31,T,,M,0.16,N,0.3,K,D*05
$GPGGA,211935.000,3747.7049,N,12215.4843,W,1,04,2.6,17.9,M,-25.1,M,,0000*54
$GPGSA,A,3,23,20,01,13,,,,,,,,,2.7,2.6,1.0*32
$GPRMC,211935.000,A,3747.7049,N,12215.4843,W,0.17,150.39,020412,,,A*7F
$GPVTG,150.39,T,,M,0.17,N,0.3,K,A*06
$GPGGA,211936.000,3747.7048,N,12215.4844,W,1,04,2.6,17.9,M,-25.1,M,,0000*51
$GPGSA,A,3,23,20,01,13,,,,,,,,,2.7,2.6,1.0*32
$GPRMC,211936.000,A,3747.7048,N,12215.4844,W,0.14,147.61,020412,,,A*72
$GPVTG,147.61,T,,M,0.14,N,0.3,K,A*0E
$GPGGA,211937.000,3747.7048,N,12215.4845,W,1,04,2.6,17.9,M,-25.1,M,,0000*51
$GPGSA,A,3,23,20,01,13,,,,,,,,,2.7,2.6,1.0*32
$GPGSV,3,1,12,20,79,273,32,23,49,302,40,30,43,098,,16,32,132,21*7A
$GPGSV,3,2,12,31,27,044,,01,23,211,31,13,22,281,35,24,09,185,*70
$GPGSV,3,3,12,04,07,320,,11,07,200,,07,05,225,22,48,44,197,29*72
$GPRMC,211937.000,A,3747.7048,N,12215.4845,W,0.14,145.11,020412,,,A*77
$GPGGA,211938.000,3747.7047,N,12215.4846,W,1,04,2.6,17.8,M,-25.1,M,,0000*53
$GPGSA,A,3,23,20,01,13,,,,,,,,,2.7,2.6,1.0*32
$GPRMC,211938.000,A,3747.7047,N,12215.4846,W,0.11,150.20,020412,,,A*77
$GPVTG,150.20,T,,M,0.11,N,0.2,K,A*09
$GPGGA,211939.000,3747.7046,N,12215.4847,W,1,04,2.6,17.8,M,-25.1,M,,0000*52
$GPGSA,A,3,23,20,01,13,,,,,,,,,2.7,2.6,1.0*32
$GPRMC,211939.000,A,3747.7046,N,12215.4847,W,0.14,141.89,020412,,,A*70
$GPVTG,141.89,T,,M,0.14,N,0.3,K,A*0E
$GPGGA,211940.000,3747.7045,N,12215.4847,W,2,04,2.6,17.9,M,-25.1,M,1.8,0000*7A
$GPGSA,A,3,23,20,01,13,,,,,,,,,2.7,2.6,1.0*32
$GPRMC,211940.000,A,3747.7045,N,12215.4847,W,0.29,155.53,020412,,,D*74
$GPVTG,155.53,T,,M,0.29,N,0.5,K,D*01
$GPGGA,211941.000,3747.7045,N,12215.4847,W,2,04,2.6,17.9,M,-25.1,M,2.8,0000*78
$GPGSA,A,3,23,20,01,13,,,,,,,,,2.7,2.6,1.0*32
$GPRMC,211941.000,A,3747.7045,N,12215.4847,W,0.23,142.64,020412,,,D*7D
$GPVTG,142.64,T,,M,0.23,N,0.4,K,D*08
$GPGGA,211942.000,3747.7044,N,12215.4847,W,2,04,2.6,17.9,M,-25.1,M,1.8,0000*79
$GPGSA,A,3,23,20,01,13,,,,,,,,,2.7,2.6,1.0*32
$GPGSV,3,1,12,20,79,273,31,23,49,302,37,30,43,098,,16,32,132,19*72
$GPGSV,3,2,12,31,27,044,,01,23,211,31,13,22,281,35,24,09,185,*70
$GPGSV,3,3,12,04,07,320,,11,07,200,,07,05,225,21,48,44,197,29*71
$GPRMC,211942.000,A,3747.7044,N,12215.4847,W,0.17,102.00,020412,,,D*7E
$GPVTG,102.00,T,,M,0.17,N,0.3,K,D*0E
$GPGGA,211943.000,3747.7044,N,12215.4847,W,2,04,2.6,18.0,M,-25.1,M,1.8,0000*7E
$GPGSA,A,3,23,20,01,13,,,,,,,,,2.7,2.6,1.0*32
$GPRMC,211943.000,A,3747.7044,N,12215.4847,W,0.22,123.39,020412,,,D*70
$GPVTG,123.39,T,,M,0.22,N,0.4,K,D*06
$GPGGA,211944.000,3747.7043,N,12215.4847,W,2,04,2.6,18.0,M,-25.1,M,2.8,0000*7D
$GPGSA,A,3,23,20,01,13,,,,,,,,,2.7,2.6,1.0*32
$GPRMC,211944.000,A,3747.7043,N,12215.4847,W,0.28,154.32,020412,,,D*71
$GPVTG,154.32,T,,M,0.28,N,0.5,K,D*06
$GPGGA,211945.000,3747.7041,N,12215.4847,W,2,04,2.6,18.0,M,-25.1,M,3.8,0000*7F
$GPGSA,A,3,23,20,01,13,,,,,,,,,2.7,2.6,1.0*32
$GPRMC,211945.000,A,3747.7041,N,12215.4847,W,0.87,178.36,020412,,,D*7D
$GPVTG,178.36,T,,M,0.87,N,1.6,K,D*0B
$GPGGA,211946.000,3747.7038,N,12215.4847,W,2,04,2.6,18.1,M,-25.1,M,1.8,0000*71
$GPGSA,A,3,23,20,01,13,,,,,,,,,2.7,2.6,1.0*32
$GPRMC,211946.000,A,3747.7038,N,12215.4847,W,1.04,170.12,020412,,,D*74
$GPVTG,170.12,T,,M,1.04,N,1.9,K,D*00
$GPGGA,211947.000,3747.7033,N,12215.4845,W,2,04,2.6,18.4,M,-25.1,M,1.8,0000*7C
$GPGSA,A,3,23,20,01,13,,,,,,,,,2.7,2.6,1.0*32
$GPGSV,3,1,12,20,79,273,29,23,49,302,26,30,43,098,,16,32,132,37*77
$GPGSV,3,2,12,31,27,044,,01,23,211,34,13,22,281,26,24,09,185,*77
$GPGSV,3,3,12,04,07,320,,11,07,200,,07,05,225,27,48,44,197,34*7B
$GPRMC,211947.000,A,3747.7033,N,12215.4845,W,0.72,160.53,020412,,,D*78
$GPVTG,160.53,T,,M,0.72,N,1.3,K,D*0E
$GPGGA,211948.000,3747.7031,N,12215.4843,W,2,04,2.6,18.5,M,-25.1,M,2.8,0000*75
$GPGSA,A,3,23,20,01,13,,,,,,,,,2.7,2.6,1.0*32
$GPRMC,211948.000,A,3747.7031,N,12215.4843,W,0.98,146.33,020412,,,D*75
$GPVTG,146.33,T,,M,0.98,N,1.8,K,D*03
$GPGGA,211949.000,3747.7028,N,12215.4841,W,2,04,2.6,18.4,M,-25.1,M,3.8,0000*7E
$GPGSA,A,3,23,20,01,13,,,,,,,,,2.7,2.6,1.0*32
$GPRMC,211949.000,A,3747.7028,N,12215.4841,W,0.78,143.35,020412,,,D*73
$GPVTG,143.35,T,,M,0.78,N,1.4,K,D*02
$GPGGA,211950.000,3747.7024,N,12215.4836,W,2,04,2.6,18.2,M,-25.1,M,4.8,0000*7B
$GPGSA,A,3,23,20,01,13,,,,,,,,,2.7,2.6,1.0*32
$GPRMC,211950.000,A,3747.7024,N,12215.4836,W,1.15,137.22,020412,,,D*78
$GPVTG,137.22,T,,M,1.15,N,2.1,K,D*0B
$GPGGA,211951.000,3747.7024,N,12215.4835,W,2,04,2.6,17.9,M,-25.1,M,5.8,0000*7C
$GPGSA,A,3,23,20,01,13,,,,,,,,,2.7,2.6,1.0*32
$GPRMC,211951.000,A,3747.7024,N,12215.4835,W,0.11,120.51,020412,,,D*7D
$GPVTG,120.51,T,,M,0.11,N,0.2,K,D*0D
$GPGGA,211952.000,3747.7026,N,12215.4833,W,2,04,2.6,17.9,M,-25.1,M,6.8,0000*78
$GPGSA,A,3,23,20,01,13,,,,,,,,,2.7,2.6,1.0*32
$GPGSV,3,1,12,20,79,273,26,23,49,302,29,30,43,098,,16,32,132,24*75
$GPGSV,3,2,12,31,27,044,,01,23,211,27,13,22,281,33,24,09,185,*71
$GPGSV,3,3,12,04,07,320,,11,07,200,21,07,05,225,21,48,44,197,29*72
$GPRMC,211952.000,A,3747.7026,N,12215.4833,W,0.46,109.30,020412,,,D*74
$GPGGA,211953.000,3747.7029,N,12215.4830,W,2,04,2.6,18.4,M,-25.1,M,7.8,0000*76
$GPGSA,A,3,23,20,01,13,,,,,,,,,2.7,2.6,1.0*32
$GPRMC,211953.000,A,3747.7029,N,12215.4830,W,0.21,89.05,020412,,,D*47
$GPVTG,89.05,T,,M,0.21,N,0.4,K,D*3B
$GPGGA,211954.000,3747.7033,N,12215.4826,W,2,04,2.6,18.9,M,-25.1,M,8.8,0000*7F
$GPGSA,A,3,23,20,01,13,,,,,,,,,2.7,2.6,1.0*32
$GPRMC,211954.000,A,3747.7033,N,12215.4826,W,0.60,84.87,020412,,,D*4E
$GPVTG,84.87,T,,M,0.60,N,1.1,K,D*3D
$GPGGA,211955.000,3747.7036,N,12215.4822,W,2,04,2.6,19.4,M,-25.1,M,9.8,0000*72
$GPGSA,A,3,23,20,01,13,,,,,,,,,2.7,2.6,1.0*32
$GPRMC,211955.000,A,3747.7036,N,12215.4822,W,0.60,73.68,020412,,,D*47
$GPVTG,73.68,T,,M,0.60,N,1.1,K,D*34
$GPGGA,211956.000,3747.7039,N,12215.4818,W,2,04,2.6,20.0,M,-25.1,M,10.8,0000*41
$GPGSA,A,3,23,20,01,13,,,,,,,,,2.7,2.6,1.0*32
$GPRMC,211956.000,A,3747.7039,N,12215.4818,W,0.52,93.14,020412,,,D*46
$GPVTG,93.14,T,,M,0.52,N,1.0,K,D*31
$GPGGA,211957.000,3747.7043,N,12215.4814,W,2,04,2.6,20.5,M,-25.1,M,11.8,0000*45
$GPGSA,A,3,23,20,01,13,,,,,,,,,2.7,2.6,1.0*32
$GPGSV,3,1,12,20,79,273,31,23,49,302,37,30,43,098,,16,32,132,21*79
$GPGSV,3,2,12,31,27,044,,01,23,211,23,13,22,281,33,24,09,185,*75
$GPGSV,3,3,12,04,07,320,,11,07,200,22,07,05,225,23,48,44,197,31*7A
$GPRMC,211957.000,A,3747.7043,N,12215.4814,W,0.59,113.29,020412,,,D*7A
$GPVTG,113.29,T,,M,0.59,N,1.1,K,D*0C
$GPGGA,211958.000,3747.7044,N,12215.4812,W,2,04,2.6,20.9,M,-25.1,M,1.8,0000*76
$GPGSA,A,3,23,20,01,13,,,,,,,,,2.7,2.6,1.0*32
$GPRMC,211958.000,A,3747.7044,N,12215.4812,W,0.40,107.49,020412,,,D*7F
$GPVTG,107.49,T,,M,0.40,N,0.7,K,D*00
$GPGGA,211959.000,3747.7045,N,12215.4810,W,2,04,2.6,21.3,M,-25.1,M,1.8,0000*7F
$GPGSA,A,3,23,20,01,13,,,,,,,,,2.7,2.6,1.0*32
$GPRMC,211959.000,A,3747.7045,N,12215.4810,W,0.46,72.60,020412,,,D*43
$GPVTG,72.60,T,,M,0.46,N,0.9,K,D*30
$GPGGA,212000.000,3747.7045,N,12215.4806,W,2,04,2.6,21.6,M,-25.1,M,2.8,0000*78
$GPGSA,A,3,23,20,01,13,,,,,,,,,2.7,2.6,1.0*32
$GPRMC,212000.000,A,3747.7045,N,12215.4806,W,1.33,125.27,020412,,,D*71
$GPVTG,125.27,T,,M,1.33,N,2.5,K,D*0D
$GPGGA,212001.000,3747.7043,N,12215.4803,W,2,04,2.6,21.8,M,-25.1,M,3.8,0000*75
$GPGSA,A,3,23,20,01,13,,,,,,,,,2.7,2.6,1.0*32
$GPRMC,212001.000,A,3747.7043,N,12215.4803,W,1.19,131.48,020412,,,D*77
$GPVTG,131.48,T,,M,1.19,N,2.2,K,D*0E
$GPGGA,212002.000,3747.7040,N,12215.4814,W,2,04,2.6,22.2,M,-25.1,M,4.8,0000*7D
$GPGSA,A,3,23,20,01,13,,,,,,,,,2.7,2.6,1.0*32
$GPGSV,3,1,12,20,79,273,27,23,49,302,25,30,43,098,19,16,32,132,37*72
$GPGSV,3,2,12,31,27,044,,01,23,211,35,13,22,281,24,24,09,185,*74
$GPGSV,3,3,12,04,07,320,,11,07,200,23,07,05,225,34,48,44,197,32*7E
$GPRMC,212002.000,A,3747.7040,N,12215.4814,W,0.91,196.39,020412,,,D*7B
$GPVTG,196.39,T,,M,0.91,N,1.7,K,D*02
$GPGGA,212003.000,3747.7036,N,12215.4817,W,2,04,2.6,22.5,M,-25.1,M,0.8,0000*7D
$GPGSA,A,3,23,20,01,13,,,,,,,,,2.7,2.6,1.0*32
$GPRMC,212003.000,A,3747.7036,N,12215.4817,W,0.86,199.59,020412,,,D*77
$GPVTG,199.59,T,,M,0.86,N,1.6,K,D*0C
$GPGGA,212004.000,3747.7028,N,12215.4817,W,2,04,2.6,22.7,M,-25.1,M,1.8,0000*76
$GPGSA,A,3,23,20,01,13,,,,,,,,,2.7,2.6,1.0*32
$GPRMC,212004.000,A,3747.7028,N,12215.4817,W,1.15,156.37,020412,,,D*7F
$GPVTG,156.37,T,,M,1.15,N,2.1,K,D*08
$GPGGA,212005.000,3747.7014,N,12215.4820,W,2,04,2.6,23.5,M,-25.1,M,1.8,0000*7F
$GPGSA,A,3,23,20,01,13,,,,,,,,,2.7,2.6,1.0*32
$GPRMC,212005.000,A,3747.7014,N,12215.4820,W,1.66,152.92,020412,,,D*7A
$GPVTG,152.92,T,,M,1.66,N,3.1,K,D*06
$GPGGA,212006.000,3747.7006,N,12215.4817,W,2,04,2.6,23.7,M,-25.1,M,1.8,0000*79
$GPGSA,A,3,23,20,01,13,,,,,,,,,2.7,2.6,1.0*32
$GPRMC,212006.000,A,3747.7006,N,12215.4817,W,1.63,161.82,020412,,,D*7A
$GPVTG,161.82,T,,M,1.63,N,3.0,K,D*03
$GPGGA,212007.000,3747.6997,N,12215.4816,W,2,04,2.6,24.3,M,-25.1,M,2.8,0000*79
$GPGSA,A,3,23,20,01,13,,,,,,,,,2.7,2.6,1.0*32
$GPGSV,3,1,12,20,79,273,27,23,49,302,26,30,43,098,19,16,32,132,37*71
$GPGSV,3,2,12,31,27,044,,01,23,211,34,13,22,281,26,24,09,185,*77
$GPGSV,3,3,12,04,07,320,,11,07,200,23,07,05,225,20,48,44,197,32*7B
$GPVTG,143.58,T,,M,1.62,N,3.0,K,D*05
$GPGGA,212008.000,3747.6990,N,12215.4816,W,2,04,2.6,24.8,M,-25.1,M,3.8,0000*7B
$GPGSA,A,3,23,20,01,13,,,,,,,,,2.7,2.6,1.0*32
$GPRMC,212008.000,A,3747.6990,N,12215.4816,W,1.69,145.32,020412,,,D*75
$GPVTG,145.32,T,,M,1.69,N,3.1,K,D*05
$GPGGA,212009.000,3747.6983,N,12215.4814,W,2,04,2.6,25.0,M,-25.1,M,4.8,0000*74
$GPGSA,A,3,23,20,01,13,,,,,,,,,2.7,2.6,1.0*32
$GPRMC,212009.000,A,3747.6983,N,12215.4814,W,2.14,142.36,020412,,,D*7E
$GPVTG,142.36,T,,M,2.14,N,4.0,K,D*09
$GPGGA,212010.000,3747.6973,N,12215.4813,W,2,04,2.6,25.6,M,-25.1,M,5.8,0000*73
$GPGSA,A,3,23,20,01,13,,,,,,,,,2.7,2.6,1.0*32
$GPRMC,212010.000,A,3747.6973,N,12215.4813,W,1.87,144.19,020412,,,D*7C
$GPVTG,144.19,T,,M,1.87,N,3.5,K,D*09
$GPGGA,212011.000,3747.6969,N,12215.4805,W,2,04,2.6,25.3,M,-25.1,M,6.8,0000*78
$GPGSA,A,3,23,20,01,13,,,,,,,,,2.7,2.6,1.0*32
$GPRMC,212011.000,A,3747.6969,N,12215.4805,W,1.97,135.43,020412,,,D*79
$GPVTG,135.43,T,,M,1.97,N,3.6,K,D*02
$GPGGA,212012.000,3747.6962,N,12215.4802,W,2,04,2.6,25.6,M,-25.1,M,1.8,0000*75
$GPGSA,A,3,23,20,01,13,,,,,,,,,2.7,2.6,1.0*32
$GPGSV,3,1,12,20,79,273,28,23,49,302,28,30,43,098,20,16,32,132,36*7B
$GPGSV,3,2,12,31,27,044,,01,23,211,34,13,22,281,27,24,09,185,*76
$GPGSV,3,3,12,04,07,320,,11,07,200,36,07,05,225,19,48,44,197,28*7E
$GPRMC,212012.000,A,3747.6962,N,12215.4802,W,2.14,136.59,020412,,,D*76
$GPVTG,136.59,T,,M,2.14,N,4.0,K,D*03
$GPGGA,212013.000,3747.6957,N,12215.4793,W,2,04,2.6,25.4,M,-25.1,M,2.8,0000*74
$GPGSA,A,3,23,20,01,13,,,,,,,,,2.7,2.6,1.0*32
$GPRMC,212013.000,A,3747.6957,N,12215.4793,W,1.90,143.80,020412,,,D*7F
$GPVTG,143.80,T,,M,1.90,N,3.5,K,D*08
$GPGGA,212014.000,3747.6950,N,12215.4789,W,2,04,2.6,25.6,M,-25.1,M,1.8,0000*7E
$GPGSA,A,3,23,20,01,13,,,,,,,,,2.7,2.6,1.0*32
$GPRMC,212014.000,A,3747.6950,N,12215.4789,W,1.29,140.75,020412,,,D*7F
$GPVTG,140.75,T,,M,1.29,N,2.4,K,D*03
$GPGGA,212015.000,3747.6944,N,12215.4783,W,2,04,2.6,25.9,M,-25.1,M,2.8,0000*7C
$GPGSA,A,3,23,20,01,13,,,,,,,,,2.7,2.6,1.0*32
$GPRMC,212015.000,A,3747.6944,N,12215.4783,W,1.76,127.32,020412,,,D*79
$GPVTG,127.32,T,,M,1.76,N,3.3,K,D*0D
$GPGGA,212016.000,3747.6937,N,12215.4785,W,2,04,2.6,26.4,M,-25.1,M,1.8,0000*70
$GPGSA,A,3,23,20,01,13,,,,,,,,,2.7,2.6,1.0*32
$GPRMC,212016.000,A,3747.6937,N,12215.4785,W,1.31,159.21,020412,,,D*70
$GPVTG,159.21,T,,M,1.31,N,2.4,K,D*03
$GPGGA,212017.000,3747.6934,N,12215.4780,W,2,04,2.6,26.7,M,-25.1,M,1.8,0000*74
$GPGSA,A,3,23,20,01,13,,,,,,,,,2.7,2.6,1.0*32
$GPGSV,3,1,12,20,79,273,27,23,49,302,22,30,43,098,21,16,32,132,37*7E
$GPGSV,3,2,12,31,27,044,16,01,23,211,31,13,22,281,27,24,09,185,*74
$GPGSV,3,3,12,04,07,320,,11,07,200,32,07,05,225,19,48,44,197,34*77
$GPRMC,212017.000,A,3747.6934,N,12215.4780,W,0.46,108.91,020412,,,D*79
$GPVTG,108.91,T,,M,0.46,N,0.9,K,D*02
$GPGGA,212018.000,3747.6931,N,12215.4791,W,2,04,2.6,26.9,M,-25.1,M,1.8,0000*70
$GPGSA,A,3,23,20,01,13,,,,,,,,,2.7,2.6,1.0*32
$GPRMC,212018.000,A,3747.6931,N,12215.4791,W,0.49,287.94,020412,,,D*7D
$GPVTG,287.94,T,,M,0.49,N,0.9,K,D*0C
$GPGGA,212019.000,3747.6925,N,12215.4782,W,2,04,2.6,27.7,M,-25.1,M,2.8,0000*7A
$GPGSA,A,3,23,20,01,13,,,,,,,,,2.7,2.6,1.0*32
$GPRMC,212019.000,A,3747.6925,N,12215.4782,W,0.74,88.63,020412,,,D*40
$GPVTG,88.63,T,,M,0.74,N,1.4,K,D*3B
$GPGGA,212020.000,3747.6920,N,12215.4783,W,2,04,2.6,28.1,M,-25.1,M,1.8,0000*7E
$GPGSA,A,3,23,20,01,13,,,,,,,,,2.7,2.6,1.0*32
$GPRMC,212020.000,A,3747.6920,N,12215.4783,W,0.42,113.84,020412,,,D*71
$GPVTG,113.84,T,,M,0.42,N,0.8,K,D*09
$GPGGA,212021.000,3747.6920,N,12215.4774,W,2,04,2.6,27.4,M,-25.1,M,2.8,0000*7E
$GPGSA,A,3,23,20,01,13,,,,,,,,,2.7,2.6,1.0*32
$GPRMC,212021.000,A,3747.6920,N,12215.4774,W,0.55,180.78,020412,,,D*77
$GPVTG,180.78,T,,M,0.55,N,1.0,K,D*0F
$GPGGA,212022.000,3747.6918,N,12215.4771,W,2,04,2.6,27.3,M,-25.1,M,1.8,0000*77
$GPGSA,A,3,23,20,01,13,,,,,,,,,2.7,2.6,1.0*32
$GPGSV,3,1,12,20,79,273,26,23,49,302,21,30,43,098,21,16,32,132,37*7C
$GPGSV,3,2,12,31,27,044,15,01,23,211,32,13,22,281,24,24,09,185,*77
$GPGSV,3,3,12,04,07,320,,11,07,200,33,07,05,225,19,48,44,197,35*77
$GPVTG,227.34,T,,M,0.10,N,0.2,K,D*0B
$GPGGA,212023.000,3747.6914,N,12215.4773,W,2,04,2.6,27.6,M,-25.1,M,1.8,0000*7D
$GPGSA,A,3,23,20,01,13,,,,,,,,,2.7,2.6,1.0*32
$GPRMC,212023.000,A,3747.6914,N,12215.4773,W,0.51,134.28,020412,,,D*7B
$GPVTG,134.28,T,,M,0.51,N,0.9,K,D*09
$GPGGA,212024.000,3747.6909,N,12215.4770,W,2,04,2.6,28.1,M,-25.1,M,2.8,0000*7E
$GPGSA,A,3,23,20,01,13,,,,,,,,,2.7,2.6,1.0*32
$GPRMC,212024.000,A,3747.6909,N,12215.4770,W,1.33,125.05,020412,,,D*79
$GPVTG,125.05,T,,M,1.33,N,2.5,K,D*0D
$GPGGA,212025.000,3747.6905,N,12215.4772,W,2,04,2.6,28.4,M,-25.1,M,3.8,0000*75
$GPGSA,A,3,23,20,01,13,,,,,,,,,2.7,2.6,1.0*32
$GPRMC,212025.000,A,3747.6905,N,12215.4772,W,1.32,115.84,020412,,,D*7D
$GPVTG,115.84,T,,M,1.32,N,2.4,K,D*07
$GPGGA,212026.000,3747.6901,N,12215.4770,W,2,04,2.6,28.6,M,-25.1,M,4.8,0000*75
$GPGSA,A,3,23,20,01,13,,,,,,,,,2.7,2.6,1.0*32
$GPRMC,212026.000,A,3747.6901,N,12215.4770,W,0.86,111.01,020412,,,D*7F
$GPVTG,111.01,T,,M,0.86,N,1.6,K,D*01
$GPGGA,212027.000,3747.6896,N,12215.4775,W,2,04,2.6,29.2,M,-25.1,M,1.8,0000*7E
$GPGSA,A,3,23,20,01,13,,,,,,,,,2.7,2.6,1.0*32
$GPGSV,3,1,12,20,79,273,25,23,49,302,22,30,43,098,21,16,32,132,36*7D
$GPGSV,3,2,12,31,27,044,16,01,23,211,33,13,22,281,25,24,09,185,*74
$GPGSV,3,3,12,04,07,320,,11,07,200,33,07,05,225,32,48,44,197,33*78
$GPRMC,212027.000,A,3747.6896,N,12215.4775,W,1.00,167.10,020412,,,D*7A
$GPVTG,167.10,T,,M,1.00,N,1.9,K,D*00
$GPGGA,212028.000,3747.6895,N,12215.4774,W,2,04,2.6,28.9,M,-25.1,M,1.8,0000*79
$GPGSA,A,3,23,20,01,13,,,,,,,,,2.7,2.6,1.0*32
$GPRMC,212028.000,A,3747.6895,N,12215.4774,W,0.99,156.59,020412,,,D*79
$GPVTG,156.59,T,,M,0.99,N,1.8,K,D*0F
$GPGGA,212029.000,3747.6888,N,12215.4772,W,2,04,2.6,29.3,M,-25.1,M,2.8,0000*7A
$GPGSA,A,3,23,20,01,13,,,,,,,,,2.7,2.6,1.0*32
$GPRMC,212029.000,A,3747.6888,N,12215.4772,W,1.50,134.94,020412,,,D*73
$GPVTG,134.94,T,,M,1.50,N,2.8,K,D*0D
$GPGGA,212030.000,3747.6884,N,12215.4775,W,2,04,2.6,29.3,M,-25.1,M,1.8,0000*7A
$GPGSA,A,3,23,20,01,13,,,,,,,,,2.7,2.6,1.0*32
$GPRMC,212030.000,A,3747.6884,N,12215.4775,W,0.90,148.98,020412,,,D*7A
$GPVTG,148.98,T,,M,0.90,N,1.7,K,D*0B
$GPGGA,212031.000,3747.6879,N,12215.4769,W,2,04,2.6,29.5,M,-25.1,M,2.8,0000*71
$GPGSA,A,3,23,20,01,13,,,,,,,,,2.7,2.6,1.0*32
$GPRMC,212031.000,A,3747.6879,N,12215.4769,W,0.89,118.82,020412,,,D*72
$GPVTG,118.82,T,,M,0.89,N,1.6,K,D*0C
$GPGGA,212032.000,3747.6873,N,12215.4769,W,2,04,2.6,29.6,M,-25.1,M,3.8,0000*7A
$GPGSA,A,3,23,20,01,13,,,,,,,,,2.7,2.6,1.0*32
$GPGSV,3,1,12,20,79,273,25,23,49,302,22,30,43,098,21,16,32,132,35*7E
$GPGSV,3,2,12,31,27,044,16,01,23,211,33,13,22,281,26,24,09,185,*77
$GPGSV,3,3,12,04,07,320,,11,07,200,34,07,05,225,29,48,44,197,32*74
$GPRMC,212032.000,A,3747.6873,N,12215.4769,W,1.09,102.19,020412,,,D*7B
$GPVTG,102.19,T,,M,1.09,N,2.0,K,D*09
$GPGGA,212033.000,3747.6866,N,12215.4766,W,2,04,2.6,31.0,M,-25.1,M,4.8,0000*78
$GPGSA,A,3,23,20,01,13,,,,,,,,,2.7,2.6,1.0*32
$GPRMC,212033.000,A,3747.6866,N,12215.4766,W,2.64,98.02,020412,,,D*41
$GPVTG,98.02,T,,M,2.64,N,4.9,K,D*36
$GPGGA,212034.000,3747.6859,N,12215.4765,W,2,04,2.6,32.1,M,-25.1,M,1.8,0000*77
$GPGSA,A,3,23,20,01,13,,,,,,,,,2.7,2.6,1.0*32
$GPRMC,212034.000,A,3747.6859,N,12215.4765,W,2.60,105.11,020412,,,D*7A
$GPVTG,105.11,T,,M,2.60,N,4.8,K,D*04
$GPGGA,212035.000,3747.6848,N,12215.4768,W,2,04,2.6,33.7,M,-25.1,M,2.8,0000*7F
$GPGSA,A,3,23,20,01,13,,,,,,,,,2.7,2.6,1.0*32
$GPRMC,212035.000,A,3747.6848,N,12215.4768,W,2.38,115.81,020412,,,D*73
$GPVTG,115.81,T,,M,2.38,N,4.4,K,D*0D
$GPGGA,212036.000,3747.6844,N,12215.4763,W,2,04,2.6,34.3,M,-25.1,M,3.8,0000*79
$GPGSA,A,3,23,20,01,13,,,,,,,,,2.7,2.6,1.0*32
$GPRMC,212036.000,A,3747.6844,N,12215.4763,W,1.49,110.77,020412,,,D*7E
$GPVTG,110.77,T,,M,1.49,N,2.8,K,D*0E
$GPGGA,212037.000,3747.6841,N,12215.4764,W,2,04,2.6,35.0,M,-25.1,M,4.8,0000*7F
$GPGSA,A,3,23,20,01,13,,,,,,,,,2.7,2.6,1.0*32
$GPGSV,3,1,12,20,79,273,26,23,49,302,23,30,43,098,21,16,32,132,35*7C
$GPGSV,3,2,12,31,27,044,16,01,23,211,34,13,22,281,28,24,09,185,*7E
$GPGSV,3,3,12,04,07,320,,11,07,200,35,07,05,225,30,48,44,197,32*7D
$GPVTG,110.22,T,,M,0.90,N,1.7,K,D*07
$GPGGA,212038.000,3747.6834,N,12215.4769,W,2,04,2.6,36.0,M,-25.1,M,5.8,0000*7D
$GPGSA,A,3,23,20,01,13,,,,,,,,,2.7,2.6,1.0*32
$GPRMC,212038.000,A,3747.6834,N,12215.4769,W,1.18,121.68,020412,,,D*75
$GPVTG,121.68,T,,M,1.18,N,2.2,K,D*0C
$GPGGA,212039.000,3747.6832,N,12215.4760,W,2,04,2.6,36.5,M,-25.1,M,6.8,0000*75
$GPGSA,A,3,23,20,01,13,,,,,,,,,2.7,2.6,1.0*32
$GPRMC,212039.000,A,3747.6832,N,12215.4760,W,1.11,114.74,020412,,,D*79
$GPVTG,114.74,T,,M,1.11,N,2.0,K,D*0C
$GPGGA,212040.000,3747.6829,N,12215.4767,W,2,04,2.6,37.0,M,-25.1,M,1.8,0000*75
$GPGSA,A,3,23,20,01,13,,,,,,,,,2.7,2.6,1.0*32
$GPRMC,212040.000,A,3747.6829,N,12215.4767,W,0.86,143.03,020412,,,D*77
$GPVTG,143.03,T,,M,0.86,N,1.6,K,D*04
$GPGGA,212041.000,3747.6821,N,12215.4771,W,2,04,2.6,38.2,M,-25.1,M,1.8,0000*76
$GPGSA,A,3,23,20,01,13,,,,,,,,,2.7,2.6,1.0*32
$GPRMC,212041.000,A,3747.6821,N,12215.4771,W,1.36,152.95,020412,,,D*7C
$GPVTG,152.95,T,,M,1.36,N,2.5,K,D*01
$GPGGA,212042.000,3747.6816,N,12215.4771,W,2,04,2.6,38.5,M,-25.1,M,1.8,0000*76
$GPGSA,A,3,23,20,01,13,,,,,,,,,2.7,2.6,1.0*32
$GPGSV,3,1,12,20,79,273,26,23,49,302,23,30,43,098,21,16,32,132,31*78
$GPGSV,3,2,12,31,27,044,17,01,23,211,34,13,22,281,27,24,09,185,*70
$GPGSV,3,3,12,04,07,320,,11,07,200,35,07,05,225,30,48,44,197,33*7C
$GPRMC,212042.000,A,3747.6816,N,12215.4771,W,0.82,175.35,020412,,,D*7A
$GPVTG,175.35,T,,M,0.82,N,1.5,K,D*03
$GPGGA,212043.000,3747.6807,N,12215.4776,W,2,04,2.6,40.1,M,-25.1,M,1.8,0000*7B
$GPGSA,A,3,23,20,01,13,,,,,,,,,2.7,2.6,1.0*32
$GPRMC,212043.000,A,3747.6807,N,12215.4776,W,1.21,147.68,020412,,,D*7D
$GPVTG,147.68,T,,M,1.21,N,2.2,K,D*06
$GPGGA,212044.000,3747.6807,N,12215.4771,W,2,04,2.6,40.1,M,-25.1,M,2.8,0000*78
$GPGSA,A,3,23,20,01,13,,,,,,,,,2.7,2.6,1.0*32
$GPRMC,212044.000,A,3747.6807,N,12215.4771,W,1.50,124.64,020412,,,D*72
$GPVTG,124.64,T,,M,1.50,N,2.8,K,D*03
$GPGGA,212045.000,3747.6807,N,12215.4754,W,2,04,2.6,39.6,M,-25.1,M,1.8,0000*74
$GPGSA,A,3,23,20,01,13,,,,,,,,,2.7,2.6,1.0*32
$GPRMC,212045.000,A,3747.6807,N,12215.4754,W,1.31,120.24,020412,,,D*73
$GPVTG,120.24,T,,M,1.31,N,2.4,K,D*08
$GPGGA,212046.000,3747.6802,N,12215.4756,W,2,04,2.6,39.6,M,-25.1,M,1.8,0000*70
$GPGSA,A,3,23,20,01,13,,,,,,,,,2.7,2.6,1.0*32
$GPRMC,212046.000,A,3747.6802,N,12215.4756,W,1.19,171.87,020412,,,D*70
$GPVTG,171.87,T,,M,1.19,N,2.2,K,D*09
$GPGGA,212047.000,3747.6795,N,12215.4747,W,2,04,2.6,40.3,M,-25.1,M,1.8,0000*7B
$GPGSA,A,3,23,20,01,13,,,,,,,,,2.7,2.6,1.0*32
$GPGSV,3,1,12,20,79,273,26,23,49,302,21,30,43,098,21,16,32,132,33*78
$GPGSV,3,2,12,31,27,044,17,01,23,211,35,13,22,281,27,24,09,185,*71
$GPGSV,3,3,12,04,07,320,,11,07,200,35,07,05,225,30,48,44,197,30*7F
$GPRMC,212047.000,A,3747.6795,N,12215.4747,W,1.49,153.58,020412,,,D*77
$GPVTG,153.58,T,,M,1.49,N,2.8,K,D*04
$GPGGA,212048.000,3747.6786,N,12215.4743,W,2,04,2.6,41.4,M,-25.1,M,2.8,0000*77
$GPGSA,A,3,23,20,01,13,,,,,,,,,2.7,2.6,1.0*32
$GPRMC,212048.000,A,3747.6786,N,12215.4743,W,1.36,142.61,020412,,,D*7C
$GPVTG,142.61,T,,M,1.36,N,2.5,K,D*0B
$GPGGA,212049.000,3747.6779,N,12215.4748,W,2,04,2.6,42.7,M,-25.1,M,3.8,0000*7C
$GPGSA,A,3,23,20,01,13,,,,,,,,,2.7,2.6,1.0*32
$GPRMC,212049.000,A,3747.6779,N,12215.4748,W,1.17,150.30,020412,,,D*72
$GPVTG,150.30,T,,M,1.17,N,2.2,K,D*08
$GPGGA,212050.000,3747.6781,N,12215.4743,W,2,04,2.6,42.5,M,-25.1,M,4.8,0000*7D
$GPGSA,A,3,23,20,01,13,,,,,,,,,2.7,2.6,1.0*32
$GPRMC,212050.000,A,3747.6781,N,12215.4743,W,1.06,145.52,020412,,,D*76
$GPVTG,145.52,T,,M,1.06,N,2.0,K,D*0A
$GPGGA,212051.000,3747.6777,N,12215.4745,W,2,04,2.6,42.6,M,-25.1,M,5.8,0000*71
$GPGSA,A,3,23,20,01,13,,,,,,,,,2.7,2.6,1.0*32
$GPRMC,212051.000,A,3747.6777,N,12215.4745,W,0.92,157.82,020412,,,D*7A
$GPVTG,157.82,T,,M,0.92,N,1.7,K,D*0C
$GPGGA,212052.000,3747.6772,N,12215.4752,W,2,04,2.6,43.3,M,-25.1,M,6.8,0000*76
$GPGSA,A,3,23,20,01,13,,,,,,,,,2.7,2.6,1.0*32
$GPGSV,3,1,12,20,79,273,25,23,49,302,23,30,43,098,21,16,32,132,34*7E
$GPGSV,3,2,12,31,27,044,18,01,23,211,36,13,22,281,26,24,09,185,*7C
$GPGSV,3,3,12,04,07,320,,11,07,200,35,07,05,225,30,48,44,197,34*7B
$GPVTG,150.44,T,,M,1.17,N,2.2,K,D*0B
$GPGGA,212053.000,3747.6772,N,12215.4739,W,2,04,2.6,42.4,M,-25.1,M,1.8,0000*7B
$GPGSA,A,3,23,20,01,13,,,,,,,,,2.7,2.6,1.0*32
$GPRMC,212053.000,A,3747.6772,N,12215.4739,W,0.91,152.95,020412,,,D*76
$GPVTG,152.95,T,,M,0.91,N,1.7,K,D*0C
$GPGGA,212054.000,3747.6776,N,12215.4733,W,2,04,2.6,41.3,M,-25.1,M,2.8,0000*75
$GPGSA,A,3,23,20,01,13,,,,,,,,,2.7,2.6,1.0*32
$GPRMC,212054.000,A,3747.6776,N,12215.4733,W,0.18,220.03,020412,,,D*77
$GPVTG,220.03,T,,M,0.18,N,0.3,K,D*01
$GPGGA,212055.000,3747.6778,N,12215.4717,W,2,04,2.6,40.9,M,-25.1,M,3.8,0000*76
$GPGSA,A,3,23,20,01,13,,,,,,,,,2.7,2.6,1.0*32
$GPRMC,212055.000,A,3747.6778,N,12215.4717,W,1.22,100.77,020412,,,D*74
$GPVTG,100.77,T,,M,1.22,N,2.3,K,D*09
$GPGGA,212056.000,3747.6768,N,12215.4721,W,2,04,2.6,41.5,M,-25.1,M,4.8,0000*7B
$GPGSA,A,3,23,20,01,13,,,,,,,,,2.7,2.6,1.0*32
$GPRMC,212056.000,A,3747.6768,N,12215.4721,W,0.71,159.44,020412,,,D*78
$GPVTG,159.44,T,,M,0.71,N,1.3,K,D*01
$GPGGA,212057.000,3747.6765,N,12215.4699,W,2,04,2.6,41.4,M,-25.1,M,5.8,0000*75
$GPGSA,A,3,23,20,01,13,,,,,,,,,2.7,2.6,1.0*32
$GPGSV,3,1,12,20,79,273,26,23,49,302,24,30,43,098,21,16,32,132,34*7A
$GPGSV,3,2,12,31,27,044,18,01,23,211,32,13,22,281,23,24,09,185,*7D
$GPGSV,3,3,12,04,07,320,,11,07,200,33,07,05,225,30,48,44,197,30*79
$GPRMC,212057.000,A,3747.6765,N,12215.4699,W,1.59,99.03,020412,,,D*43
$GPVTG,99.03,T,,M,1.59,N,2.9,K,D*3D
$GPGGA,212058.000,3747.6758,N,12215.4704,W,2,04,2.6,42.3,M,-25.1,M,1.8,0000*71
$GPGSA,A,3,23,20,01,13,,,,,,,,,2.7,2.6,1.0*32
$GPRMC,212058.000,A,3747.6758,N,12215.4704,W,1.65,96.79,020412,,,D*4A
$GPVTG,96.79,T,,M,1.65,N,3.0,K,D*38
$GPGGA,212059.000,3747.6755,N,12215.4707,W,2,04,2.6,42.3,M,-25.1,M,1.8,0000*7E
$GPGSA,A,3,23,20,01,13,,,,,,,,,2.7,2.6,1.0*32
$GPRMC,212059.000,A,3747.6755,N,12215.4707,W,1.68,97.63,020412,,,D*42
$GPVTG,97.63,T,,M,1.68,N,3.1,K,D*3E
$GPGGA,212100.000,3747.6751,N,12215.4708,W,2,04,2.6,42.4,M,-25.1,M,1.8,0000*7F
$GPGSA,A,3,23,20,01,13,,,,,,,,,2.7,2.6,1.0*32
$GPRMC,212100.000,A,3747.6751,N,12215.4708,W,0.61,92.57,020412,,,D*4E
$GPVTG,92.57,T,,M,0.61,N,1.1,K,D*36
$GPGGA,212101.000,3747.6747,N,12215.4719,W,2,04,2.6,42.9,M,-25.1,M,1.8,0000*74
$GPGSA,A,3,23,20,01,13,,,,,,,,,2.7,2.6,1.0*32
$GPRMC,212101.000,A,3747.6747,N,12215.4719,W,0.40,270.73,020412,,,D*73
$GPVTG,270.73,T,,M,0.40,N,0.7,K,D*0A
$GPGGA,212102.000,3747.6746,N,12215.4723,W,2,04,2.6,42.8,M,-25.1,M,2.8,0000*7D
$GPGSA,A,3,23,20,01,13,,,,,,,,,2.7,2.6,1.0*32
$GPGSV,3,1,12,20,79,273,26,23,49,302,19,30,43,098,20,16,32,132,35*74
$GPGSV,3,2,12,31,27,044,,01,23,211,34,13,22,281,22,24,09,185,*73
$GPGSV,3,3,12,04,07,320,,11,07,200,33,07,05,225,26,48,44,197,37*79
$GPRMC,212102.000,A,3747.6746,N,12215.4723,W,0.41,205.19,020412,,,D*77
$GPVTG,205.19,T,,M,0.41,N,0.8,K,D*0A
$GPGGA,212103.000,3747.6744,N,12215.4720,W,2,03,2.7,42.5,M,-25.1,M,3.8,0000*77
$GPGSA,A,2,20,01,13,,,,,,,,,,2.9,2.7,1.0*3D
$GPRMC,212103.000,A,3747.6744,N,12215.4720,W,0.49,267.93,020412,,,D*79
$GPVTG,267.93,T,,M,0.49,N,0.9,K,D*05
$GPGGA,212104.000,3747.6788,N,12215.4579,W,2,06,1.9,21.1,M,-25.1,M,1.8,0000*75
$GPGSA,A,3,23,20,01,13,16,11,,,,,,,3.2,1.9,2.5*3B
$GPRMC,212104.000,A,3747.6788,N,12215.4579,W,0.55,159.62,020412,,,D*7D
$GPVTG,159.62,T,,M,0.55,N,1.0,K,D*00
$GPGGA,212105.000,3747.6794,N,12215.4570,W,2,06,1.9,18.6,M,-25.1,M,1.8,0000*7D
$GPGSA,A,3,23,20,01,13,16,11,,,,,,,3.2,1.9,2.5*3B
$GPRMC,212105.000,A,3747.6794,N,12215.4570,W,0.68,143.09,020412,,,D*70
$GPVTG,143.09,T,,M,0.68,N,1.3,K,D*0B
$GPGGA,212106.000,3747.6795,N,12215.4568,W,2,06,1.9,18.6,M,-25.1,M,1.8,0000*76
$GPGSA,A,3,23,20,01,13,16,11,,,,,,,3.2,1.9,2.5*3B
$GPRMC,212106.000,A,3747.6795,N,12215.4568,W,1.10,99.53,020412,,,D*4C
$GPVTG,99.53,T,,M,1.10,N,2.0,K,D*3C
$GPGGA,212107.000,3747.6793,N,12215.4563,W,2,06,1.9,20.2,M,-25.1,M,2.8,0000*76
$GPGSA,A,3,23,20,01,13,16,11,,,,,,,3.2,1.9,2.5*3B
$GPGSV,3,1,12,20,79,268,19,23,50,303,28,30,43,097,17,16,33,131,35*70
$GPGSV,3,2,12,31,26,044,,13,23,282,23,01,22,211,35,24,08,184,*71
$GPGSV,3,3,12,04,07,319,,07,06,225,29,11,06,200,33,48,44,197,37*7E
$GPVTG,118.53,T,,M,1.08,N,2.0,K,D*0D
$GPGGA,212108.000,3747.6793,N,12215.4556,W,2,06,1.9,20.1,M,-25.1,M,3.8,0000*7D
$GPGSA,A,3,23,20,01,13,16,11,,,,,,,3.2,1.9,2.5*3B
$GPRMC,212108.000,A,3747.6793,N,12215.4556,W,1.00,116.40,020412,,,D*7C
$GPVTG,116.40,T,,M,1.00,N,1.8,K,D*02
$GPGGA,212109.000,3747.6795,N,12215.4547,W,2,06,1.9,18.1,M,-25.1,M,1.8,0000*73
$GPGSA,A,3,23,20,01,13,16,11,,,,,,,3.2,1.9,2.5*3B
$GPRMC,212109.000,A,3747.6795,N,12215.4547,W,0.85,126.62,020412,,,D*74
$GPVTG,126.62,T,,M,0.85,N,1.6,K,D*03
$GPGGA,212109.000,3747.6792,N,12215.4546,W,2,06,1.9,19.1,M,-25.1,M,1.8,0000*74
$GPGSA,A,3,23,20,01,13,16,11,,,,,,,3.2,1.9,2.5*3B
$GPRMC,212109.000,A,3747.6792,N,12215.4546,W,0.74,143.68,020412,,,D*75
$GPVTG,143.68,T,,M,0.74,N,1.4,K,D*06
$GPGGA,212110.000,3747.6789,N,12215.4544,W,2,05,2.0,19.4,M,-25.1,M,1.8,0000*78
$GPGSA,A,3,23,20,01,13,16,,,,,,,,3.3,2.0,2.6*33
$GPRMC,212110.000,A,3747.6789,N,12215.4544,W,0.70,127.51,020412,,,D*79
$GPVTG,127.51,T,,M,0.70,N,1.3,K,D*0D
$GPGGA,212111.000,3747.6786,N,12215.4544,W,2,06,1.9,18.8,M,-25.1,M,1.8,0000*72
$GPGSA,A,3,23,20,01,13,16,11,,,,,,,3.2,1.9,2.5*3B
$GPGSV,3,1,12,20,79,268,23,23,50,303,23,30,43,097,17,16,33,131,36*71
$GPGSV,3,2,12,31,26,044,,13,23,282,24,01,22,211,34,24,08,184,*77
$GPGSV,3,3,12,04,07,319,,07,06,225,30,11,06,200,23,48,44,197,32*72
$GPRMC,212111.000,A,3747.6786,N,12215.4544,W,0.60,183.04,020412,,,D*78
$GPVTG,183.04,T,,M,0.60,N,1.1,K,D*00
$GPGGA,212112.000,3747.6789,N,12215.4542,W,2,06,1.9,17.0,M,-25.1,M,2.8,0000*7C
$GPGSA,A,3,23,20,01,13,16,11,,,,,,,3.2,1.9,2.5*3B
$GPRMC,212112.000,A,3747.6789,N,12215.4542,W,0.21,187.65,020412,,,D*74
$GPVTG,187.65,T,,M,0.21,N,0.4,K,D*02
$GPGGA,212113.000,3747.6790,N,12215.4541,W,2,06,1.9,16.4,M,-25.1,M,3.8,0000*72
$GPGSA,A,3,23,20,01,13,16,11,,,,,,,3.2,1.9,2.5*3B
$GPRMC,212113.000,A,3747.6790,N,12215.4541,W,0.57,194.00,020412,,,D*7E
$GPVTG,194.00,T,,M,0.57,N,1.1,K,D*06
$GPGGA,212114.000,3747.6791,N,12215.4537,W,2,06,1.9,15.1,M,-25.1,M,4.8,0000*74
$GPGSA,A,3,23,20,01,13,16,11,,,,,,,3.2,1.9,2.5*3B
$GPRMC,212114.000,A,3747.6791,N,12215.4537,W,0.74,153.85,020412,,,D*7E
$GPVTG,153.85,T,,M,0.74,N,1.4,K,D*04
$GPGGA,212115.000,3747.6793,N,12215.4533,W,2,06,1.9,14.0,M,-25.1,M,1.8,0000*76
$GPGSA,A,3,23,20,01,13,16,11,,,,,,,3.2,1.9,2.5*3B
$GPRMC,212115.000,A,3747.6793,N,12215.4533,W,0.80,150.26,020412,,,D*78
$GPVTG,150.26,T,,M,0.80,N,1.5,K,D*04
$GPGGA,212116.000,3747.6794,N,12215.4529,W,2,06,1.9,12.8,M,-25.1,M,1.8,0000*77
$GPGSA,A,3,23,20,01,13,16,11,,,,,,,3.2,1.9,2.5*3B
$GPGSV,3,1,12,20,79,268,24,23,50,303,29,30,43,097,24,16,33,131,35*7F
$GPGSV,3,2,12,31,26,044,16,13,23,282,23,01,22,211,36,24,08,184,*75
$GPGSV,3,3,12,04,07,319,,07,06,225,30,11,06,200,35,48,44,197,37*70
$GPRMC,212116.000,A,3747.6794,N,12215.4529,W,0.90,139.25,020412,,,D*7A
$GPVTG,139.25,T,,M,0.90,N,1.7,K,D*0B
$GPGGA,212117.000,3747.6794,N,12215.4522,W,2,06,1.9,12.3,M,-25.1,M,1.8,0000*76
$GPGSA,A,3,23,20,01,13,16,11,,,,,,,3.2,1.9,2.5*3B
$GPRMC,212117.000,A,3747.6794,N,12215.4522,W,1.73,125.93,020412,,,D*7C
$GPVTG,125.93,T,,M,1.73,N,3.2,K,D*00
$GPGGA,212118.000,3747.6794,N,12215.4515,W,2,06,1.9,11.5,M,-25.1,M,2.8,0000*7B
$GPGSA,A,3,23,20,01,13,16,11,,,,,,,3.2,1.9,2.5*3B
$GPRMC,212118.000,A,3747.6794,N,12215.4515,W,1.28,118.71,020412,,,D*7B
$GPVTG,118.71,T,,M,1.28,N,2.4,K,D*0B
$GPGGA,212119.000,3747.6793,N,12215.4508,W,2,06,1.9,10.7,M,-25.1,M,3.8,0000*73
$GPGSA,A,3,23,20,01,13,16,11,,,,,,,3.2,1.9,2.5*3B
$GPRMC,212119.000,A,3747.6793,N,12215.4508,W,1.72,124.68,020412,,,D*79
$GPVTG,124.68,T,,M,1.72,N,3.2,K,D*04
$GPGGA,212120.000,3747.6794,N,12215.4502,W,2,06,1.9,9.9,M,-25.1,M,4.8,0000*45
$GPGSA,A,3,23,20,01,13,16,11,,,,,,,3.2,1.9,2.5*3B
$GPRMC,212120.000,A,3747.6794,N,12215.4502,W,1.49,118.17,020412,,,D*71
$GPVTG,118.17,T,,M,1.49,N,2.8,K,D*00
$GPGGA,212121.000,3747.6791,N,12215.4498,W,2,06,1.9,10.8,M,-25.1,M,1.8,0000*7F
$GPGSA,A,3,23,20,01,13,16,11,,,,,,,3.2,1.9,2.5*3B
$GPGSV,3,1,12,20,79,268,22,23,50,303,22,30,43,097,35,16,33,131,35*72
$GPGSV,3,2,12,31,26,044,17,13,23,282,29,01,22,211,36,24,08,184,*7E
$GPGSV,3,3,12,04,07,319,14,07,06,225,27,11,06,200,35,48,44,197,36*72
$GPRMC,212121.000,A,3747.6791,N,12215.4498,W,1.31,116.07,020412,,,D*77
$GPVTG,116.07,T,,M,1.31,N,2.4,K,D*0C
$GPGGA,212122.000,3747.6786,N,12215.4496,W,2,06,1.9,12.3,M,-25.1,M,1.8,0000*7D
$GPGSA,A,3,23,20,01,13,16,11,,,,,,,3.2,1.9,2.5*3B
$GPRMC,212122.000,A,3747.6786,N,12215.4496,W,0.76,123.10,020412,,,D*7E
$GPVTG,123.10,T,,M,0.76,N,1.4,K,D*0D
$GPGGA,212123.000,3747.6789,N,12215.4492,W,2,06,1.9,11.3,M,-25.1,M,1.8,0000*74
$GPGSA,A,3,23,20,01,13,16,11,,,,,,,3.2,1.9,2.5*3B
$GPRMC,212123.000,A,3747.6789,N,12215.4492,W,0.57,83.74,020412,,,D*4E
$GPVTG,83.74,T,,M,0.57,N,1.0,K,D*33
$GPGGA,212124.000,3747.6790,N,12215.4490,W,2,06,1.9,11.6,M,-25.1,M,2.8,0000*7F
$GPGSA,A,3,23,20,01,13,16,11,,,,,,,3.2,1.9,2.5*3B
$GPRMC,212124.000,A,3747.6790,N,12215.4490,W,0.60,6.52,020412,,,D*7E
$GPVTG,6.52,T,,M,0.60,N,1.1,K,D*0F
$GPGGA,212125.000,3747.6789,N,12215.4488,W,2,06,1.9,10.7,M,-25.1,M,3.8,0000*7E
$GPGSA,A,3,23,20,01,13,16,11,,,,,,,3.2,1.9,2.5*3B
$GPRMC,212125.000,A,3747.6789,N,12215.4488,W,0.56,175.34,020412,,,D*7E
$GPVTG,175.34,T,,M,0.56,N,1.0,K,D*0E
$GPGGA,212126.000,3747.6786,N,12215.4488,W,2,06,1.9,9.4,M,-25.1,M,4.8,0000*4E
$GPGSA,A,3,23,20,01,13,16,11,,,,,,,3.2,1.9,2.5*3B
$GPGSV,3,1,11,20,79,268,20,23,50,303,21,30,43,097,35,16,33,131,35*70
$GPGSV,3,2,11,31,26,044,23,13,23,282,21,01,22,211,30,24,08,184,*74
$GPGSV,3,3,11,04,07,319,16,07,06,225,28,11,06,200,23*4D
$GPRMC,212126.000,A,3747.6786,N,12215.4488,W,0.92,180.84,020412,,,D*7B
$GPGGA,212127.000,3747.6784,N,12215.4488,W,2,06,1.9,9.2,M,-25.1,M,5.8,0000*4A
$GPGSA,A,3,23,20,01,13,16,11,,,,,,,3.2,1.9,2.5*3B
$GPRMC,212127.000,A,3747.6784,N,12215.4488,W,0.14,115.80,020412,,,D*7E
$GPVTG,115.80,T,,M,0.14,N,0.3,K,D*03
$GPGGA,212128.000,3747.6781,N,12215.4487,W,2,06,1.9,8.5,M,-25.1,M,6.8,0000*4A
$GPGSA,A,3,23,20,01,13,16,11,,,,,,,3.2,1.9,2.5*3B
$GPRMC,212128.000,A,3747.6781,N,12215.4487,W,0.54,160.84,020412,,,D*79
$GPVTG,160.84,T,,M,0.54,N,1.0,K,D*03
$GPGGA,212129.000,3747.6780,N,12215.4487,W,2,06,1.9,8.9,M,-25.1,M,7.8,0000*47
$GPGSA,A,3,23,20,01,13,16,11,,,,,,,3.2,1.9,2.5*3B
$GPRMC,212129.000,A,3747.6780,N,12215.4487,W,0.41,129.87,020412,,,D*73
$GPVTG,129.87,T,,M,0.41,N,0.8,K,D*00
$GPGGA,212130.000,3747.6777,N,12215.4490,W,2,06,1.9,10.9,M,-25.1,M,8.8,0000*77
$GPGSA,A,3,23,20,01,13,16,11,,,,,,,3.2,1.9,2.5*3B
$GPRMC,212130.000,A,3747.6777,N,12215.4490,W,0.38,147.92,020412,,,D*77
$GPVTG,147.92,T,,M,0.38,N,0.7,K,D*0D
$GPGGA,212131.000,3747.6774,N,12215.4491,W,2,06,1.9,11.7,M,-25.1,M,9.8,0000*7A
$GPGSA,A,3,23,20,01,13,16,11,,,,,,,3.2,1.9,2.5*3B
$GPGSV,3,1,12,20,79,268,21,23,50,303,22,30,43,097,29,16,33,131,35*7C
$GPGSV,3,2,12,31,26,044,21,13,23,282,29,01,22,211,33,24,08,184,*7E
$GPGSV,3,3,12,04,07,319,16,07,06,225,32,11,06,200,29,48,44,197,32*7D
$GPRMC,212131.000,A,3747.6774,N,12215.4491,W,0.90,160.60,020412,,,D*7E
$GPVTG,160.60,T,,M,0.90,N,1.7,K,D*06
$GPGGA,212132.000,3747.6773,N,12215.4489,W,2,06,1.9,11.1,M,-25.1,M,1.8,0000*79
$GPGSA,A,3,23,20,01,13,16,11,,,,,,,3.2,1.9,2.5*3B
$GPRMC,212132.000,A,3747.6773,N,12215.4489,W,0.93,145.38,020412,,,D*7A
$GPVTG,145.38,T,,M,0.93,N,1.7,K,D*0F
$GPGGA,212133.000,3747.6768,N,12215.4488,W,2,06,1.9,11.3,M,-25.1,M,1.8,0000*71
$GPGSA,A,3,23,20,01,13,16,11,,,,,,,3.2,1.9,2.5*3B
$GPRMC,212133.000,A,3747.6768,N,12215.4488,W,0.89,152.23,020412,,,D*77
$GPVTG,152.23,T,,M,0.89,N,1.6,K,D*09
$GPGGA,212134.000,3747.6765,N,12215.4487,W,2,06,1.9,11.9,M,-25.1,M,1.8,0000*7E
$GPGSA,A,3,23,20,01,13,16,11,,,,,,,3.2,1.9,2.5*3B
$GPRMC,212134.000,A,3747.6765,N,12215.4487,W,0.74,118.99,020412,,,D*7F
$GPVTG,118.99,T,,M,0.74,N,1.4,K,D*06
$GPGGA,212135.000,3747.6762,N,12215.4486,W,2,06,1.9,12.6,M,-25.1,M,1.8,0000*75
$GPGSA,A,3,23,20,01,13,16,11,,,,,,,3.2,1.9,2.5*3B
$GPRMC,212135.000,A,3747.6762,N,12215.4486,W,0.77,123.65,020412,,,D*70
$GPVTG,123.65,T,,M,0.77,N,1.4,K,D*0E
$GPGGA,212136.000,3747.6757,N,12215.4484,W,2,06,1.9,13.6,M,-25.1,M,2.8,0000*70
$GPGSA,A,3,23,20,01,13,16,11,,,,,,,3.2,1.9,2.5*3B
$GPGSV,3,1,12,20,79,268,22,23,50,303,21,30,43,097,31,16,33,131,35*75
$GPGSV,3,2,12,31,26,044,30,13,23,282,25,01,22,211,34,24,08,184,*75
$GPGSV,3,3,12,04,07,319,15,07,06,225,25,11,06,200,31,48,44,197,35*76
$GPRMC,212136.000,A,3747.6757,N,12215.4484,W,1.24,130.16,020412,,,D*76
$GPVTG,130.16,T,,M,1.24,N,2.3,K,D*0B
