$ADVER,3080,2.3
$GPRMC,201455.700,A,3747.6988,N,12215.4801,W,0.19,265.51,020412,,,A*74
$GPGGA,201456.700,3747.7017,N,12215.4794,W,1,03,2.1,25.1,M,-25.1,M,,0000*5D
$GPGSA,A,2,20,01,30,,,,,,,,,,2.4,2.1,1.0*37
$GPRMC,201456.700,A,3747.7017,N,12215.4794,W,0.14,260.28,020412,,,A*7C
$GPVTG,260.28,T,,M,0.14,N,0.3,K,N*0A
$GPGGA,201457.700,3747.6986,N,12215.4837,W,1,03,2.1,25.1,M,-25.1,M,,0000*5A
$GPGSA,A,2,20,01,30,,,,,,,,,,2.4,2.1,1.0*37
$GPRMC,201457.700,A,3747.6986,N,12215.4837,W,0.99,222.23,020412,,,A*73
$GPVTG,222.23,T,,M,0.99,N,1.8,K,N*08
$GPGGA,201458.700,3747.6965,N,12215.4826,W,1,03,2.1,25.1,M,-25.1,M,,0000*58
$GPGSA,A,2,20,01,30,,,,,,,,,,2.4,2.1,1.0*37
$GPGSV,3,1,12,20,52,312,30,01,47,236,35,30,25,130,25,32,78,357,22*73
$GPGSV,3,2,12,31,53,053,,24,35,194,,23,30,273,34,11,27,217,39*7D
$GPGSV,3,3,12,14,13,066,,16,09,151,34,25,06,039,,13,04,259,*72
$GPRMC,201458.700,A,3747.6965,N,12215.4826,W,0.98,246.05,020412,,,A*76
$GPVTG,246.05,T,,M,0.98,N,1.8,K,N*0F
$GPGGA,201459.700,3747.6980,N,12215.4814,W,1,03,2.1,25.1,M,-25.1,M,,0000*53
$GPGSA,A,2,20,01,30,,,,,,,,,,2.4,2.1,1.0*37
$GPRMC,201459.700,A,3747.6980,N,12215.4814,W,0.67,6.29,020412,,,A*75
$GPVTG,6.29,T,,M,0.67,N,1.2,K,N*0D
$GPGGA,201500.700,3747.6994,N,12215.4812,W,1,03,2.1,25.1,M,-25.1,M,,0000*5D
$GPGSA,A,2,20,01,30,,,,,,,,,,2.4,2.1,1.0*37
$GPRMC,201500.700,A,3747.6994,N,12215.4812,W,0.18,279.65,020412,,,A*71
$GPVTG,279.65,T,,M,0.18,N,0.3,K,N*07
$GPGGA,201501.700,3747.7001,N,12215.4831,W,1,03,2.1,25.1,M,-25.1,M,,0000*59
$GPGSA,A,2,20,01,30,,,,,,,,,,2.4,2.1,1.0*37
$GPRMC,201501.700,A,3747.7001,N,12215.4831,W,0.38,198.01,020412,,,A*79
$GPVTG,198.01,T,,M,0.38,N,0.7,K,N*0F
$GPGGA,201502.700,3747.7000,N,12215.4801,W,1,03,2.1,25.1,M,-25.1,M,,0000*58
$GPGSA,A,2,20,01,30,,,,,,,,,,2.4,2.1,1.0*37
$GPRMC,201502.700,A,3747.7000,N,12215.4801,W,0.32,207.64,020412,,,A*74
$GPVTG,207.64,T,,M,0.32,N,0.6,K,N*02
$GPGGA,201503.700,3747.6973,N,12215.4805,W,1,03,2.1,25.1,M,-25.1,M,,0000*51
$GPGSA,A,2,20,01,30,,,,,,,,,,2.4,2.1,1.0*37
$GPGSV,3,1,12,20,52,312,21,01,47,236,41,30,25,130,30,32,78,357,15*70
$GPGSV,3,2,12,31,53,053,,24,35,194,,23,30,273,38,11,27,217,38*70
$GPGSV,3,3,12,14,13,066,,16,09,151,39,25,06,039,,13,04,259,*7F
$GPRMC,201503.700,A,3747.6973,N,12215.4805,W,1.08,197.33,020412,,,A*7D
$GPVTG,197.33,T,,M,1.08,N,2.0,K,N*06
$GPGGA,201504.700,3747.7017,N,12215.4787,W,1,03,2.1,25.1,M,-25.1,M,,0000*59
$GPGSA,A,2,20,01,30,,,,,,,,,,2.4,2.1,1.0*37
$GPRMC,201504.700,A,3747.7017,N,12215.4787,W,0.14,257.91,020412,,,A*7E
$GPVTG,257.91,T,,M,0.14,N,0.3,K,N*0C
$GPGGA,201505.700,3747.7027,N,12215.4783,W,1,03,2.1,25.1,M,-25.1,M,,0000*5F
$GPGSA,A,2,20,01,30,,,,,,,,,,2.4,2.1,1.0*37
$GPRMC,201505.700,A,3747.7027,N,12215.4783,W,0.36,136.92,020412,,,A*7F
$GPVTG,136.92,T,,M,0.36,N,0.7,K,N*0F
$GPGGA,201506.700,3747.7028,N,12215.4782,W,1,03,2.1,25.1,M,-25.1,M,,0000*52
$GPGSA,A,2,20,01,30,,,,,,,,,,2.4,2.1,1.0*37
$GPRMC,201506.700,A,3747.7028,N,12215.4782,W,0.09,93.53,020412,,,A*4D
$GPVTG,93.53,T,,M,0.09,N,0.2,K,N*35
$GPGGA,201507.700,3747.7024,N,12215.4780,W,1,03,2.1,25.1,M,-25.1,M,,0000*5D
$GPGSA,A,2,20,01,30,,,,,,,,,,2.4,2.1,1.0*37
$GPRMC,201507.700,A,3747.7024,N,12215.4780,W,0.26,57.58,020412,,,A*4C
$GPVTG,57.58,T,,M,0.26,N,0.5,K,N*3C
$GPGGA,201508.700,3747.7023,N,12215.4779,W,1,03,2.1,25.1,M,-25.1,M,,0000*53
$GPGSA,A,2,20,01,30,,,,,,,,,,2.4,2.1,1.0*37
$GPGSV,3,1,12,20,52,312,40,01,47,236,41,30,25,130,27,32,78,357,36*70
$GPGSV,3,2,12,31,53,053,,24,35,194,,23,30,273,40,11,27,217,35*72
$GPGSV,3,3,12,14,13,066,,16,09,151,24,25,06,039,,13,04,259,*73
$GPRMC,201508.700,A,3747.7023,N,12215.4779,W,0.38,31.81,020412,,,A*49
$GPVTG,31.81,T,,M,0.38,N,0.7,K,N*35
$GPGGA,201509.700,3747.7023,N,12215.4779,W,1,03,2.1,25.1,M,-25.1,M,,0000*52
$GPGSA,A,2,20,01,30,,,,,,,,,,2.4,2.1,1.0*37
$GPRMC,201509.700,A,3747.7023,N,12215.4779,W,0.21,267.55,020412,,,A*78
$GPVTG,267.55,T,,M,0.21,N,0.4,K,N*06
$GPGGA,201510.700,3747.7024,N,12215.4779,W,1,03,2.1,25.1,M,-25.1,M,,0000*5D
$GPGSA,A,2,20,01,30,,,,,,,,,,2.4,2.1,1.0*37
$GPRMC,201510.700,A,3747.7024,N,12215.4779,W,0.23,234.36,020412,,,A*76
$GPVTG,234.36,T,,M,0.23,N,0.4,K,N*07
$GPGGA,201511.700,3747.7023,N,12215.4780,W,1,03,2.1,25.1,M,-25.1,M,,0000*5D
$GPGSA,A,2,20,01,30,,,,,,,,,,2.4,2.1,1.0*37
$GPRMC,201511.700,A,3747.7023,N,12215.4780,W,0.29,226.54,020412,,,A*7B
$GPVTG,226.54,T,,M,0.29,N,0.5,K,N*0B
$GPGGA,201512.700,3747.7059,N,12215.4727,W,1,03,2.1,25.1,M,-25.1,M,,0000*5E
$GPGSA,A,2,20,01,30,,,,,,,,,,2.4,2.1,1.0*37
$GPRMC,201512.700,A,3747.7059,N,12215.4727,W,0.60,213.59,020412,,,A*7E
$GPVTG,213.59,T,,M,0.60,N,1.1,K,N*08
$GPGGA,201513.700,3747.7041,N,12215.4792,W,1,03,2.1,25.1,M,-25.1,M,,0000*58
$GPGSA,A,2,20,01,30,,,,,,,,,,2.4,2.1,1.0*37
$GPGSV,3,1,12,20,52,312,41,01,47,236,33,30,25,130,24,32,78,357,38*79
$GPGSV,3,2,12,31,53,053,,24,35,194,,23,30,273,35,11,27,217,19*7E
$GPGSV,3,3,12,14,13,066,,16,09,151,27,25,06,039,,13,04,259,*70
$GPRMC,201513.700,A,3747.7041,N,12215.4792,W,0.33,239.66,020412,,,A*7A
$GPVTG,239.66,T,,M,0.33,N,0.6,K,N*0C
$GPGGA,201514.700,3747.7042,N,12215.4784,W,1,03,2.1,25.1,M,-25.1,M,,0000*5B
$GPGSA,A,2,20,01,30,,,,,,,,,,2.4,2.1,1.0*37
$GPRMC,201514.700,A,3747.7042,N,12215.4784,W,0.27,227.76,020412,,,A*72
$GPVTG,227.76,T,,M,0.27,N,0.5,K,N*04
$GPGGA,201515.700,3747.7037,N,12215.4780,W,1,03,2.1,25.1,M,-25.1,M,,0000*5C
$GPGSA,A,2,20,01,30,,,,,,,,,,2.4,2.1,1.0*37
$GPRMC,201515.700,A,3747.7037,N,12215.4780,W,0.30,235.24,020412,,,A*77
$GPVTG,235.24,T,,M,0.30,N,0.6,K,N*05
$GPGGA,201516.700,3747.7029,N,12215.4789,W,1,03,2.1,25.1,M,-25.1,M,,0000*59
$GPGSA,A,2,20,01,30,,,,,,,,,,2.4,2.1,1.0*37
$GPRMC,201516.700,A,3747.7029,N,12215.4789,W,0.30,247.44,020412,,,A*71
$GPVTG,247.44,T,,M,0.30,N,0.6,K,N*06
$GPGGA,201517.700,3747.7024,N,12215.4792,W,1,03,2.1,25.1,M,-25.1,M,,0000*5F
$GPGSA,A,2,20,01,30,,,,,,,,,,2.4,2.1,1.0*37
$GPRMC,201517.700,A,3747.7024,N,12215.4792,W,0.25,240.51,020412,,,A*70
$GPVTG,240.51,T,,M,0.25,N,0.5,K,N*02
$GPGGA,201518.700,3747.7018,N,12215.4795,W,1,03,2.1,25.1,M,-25.1,M,,0000*58
$GPGSA,A,2,20,01,30,,,,,,,,,,2.4,2.1,1.0*37
$GPGSV,3,1,12,20,52,312,41,01,47,236,33,30,25,130,29,32,78,358,38*7B
$GPGSV,3,2,12,31,53,053,21,24,35,194,,23,31,273,44,11,27,217,27*77
$GPGSV,3,3,12,14,13,066,,16,09,151,27,25,06,038,,13,04,259,*71
$GPRMC,201518.700,A,3747.7018,N,12215.4795,W,0.21,172.50,020412,,,A*70
$GPVTG,172.50,T,,M,0.21,N,0.4,K,N*04
$GPGGA,201519.700,3747.7020,N,12215.4832,W,1,03,2.1,25.1,M,-25.1,M,,0000*50
$GPGSA,A,2,20,01,30,,,,,,,,,,2.4,2.1,1.0*37
$GPRMC,201519.700,A,3747.7020,N,12215.4832,W,0.43,258.33,020412,,,A*72
$GPVTG,258.33,T,,M,0.43,N,0.8,K,N*02
$GPGGA,201520.700,3747.7017,N,12215.4802,W,1,03,2.1,25.1,M,-25.1,M,,0000*5D
$GPGSA,A,2,20,01,30,,,,,,,,,,2.4,2.1,1.0*37
$GPRMC,201520.700,A,3747.7017,N,12215.4802,W,0.50,279.51,020412,,,A*7A
$GPVTG,279.51,T,,M,0.50,N,0.9,K,N*06
$GPGGA,201521.700,3747.7016,N,12215.4796,W,1,03,2.1,25.1,M,-25.1,M,,0000*5F
$GPGSA,A,2,20,01,30,,,,,,,,,,2.4,2.1,1.0*37
$GPRMC,201521.700,A,3747.7016,N,12215.4796,W,0.67,249.18,020412,,,A*72
$GPVTG,249.18,T,,M,0.67,N,1.2,K,N*06
$GPGGA,201522.700,3747.7024,N,12215.4863,W,1,03,2.1,25.1,M,-25.1,M,,0000*58
$GPGSA,A,2,20,01,30,,,,,,,,,,2.4,2.1,1.0*37
$GPRMC,201522.700,A,3747.7024,N,12215.4863,W,0.27,133.84,020412,,,A*7A
$GPVTG,133.84,T,,M,0.27,N,0.5,K,N*0F
$GPGGA,201523.700,3747.7018,N,12215.4803,W,1,03,2.1,25.1,M,-25.1,M,,0000*50
$GPGSA,A,2,20,01,30,,,,,,,,,,2.4,2.1,1.0*37
$GPGSV,3,1,12,20,52,312,41,01,47,236,41,30,25,130,23,32,78,358,34*78
$GPGSV,3,2,12,31,53,053,,24,35,194,,23,31,273,43,11,27,217,36*73
$GPGSV,3,3,12,14,13,066,,16,09,151,23,25,06,038,,13,04,259,*75
$GPRMC,201523.700,A,3747.7018,N,12215.4803,W,0.21,112.10,020412,,,A*7A
$GPVTG,112.10,T,,M,0.21,N,0.4,K,N*06
$GPGGA,201524.700,3747.7021,N,12215.4829,W,1,03,2.1,25.1,M,-25.1,M,,0000*55
$GPGSA,A,2,20,01,30,,,,,,,,,,2.4,2.1,1.0*37
$GPRMC,201524.700,A,3747.7021,N,12215.4829,W,0.41,240.24,020412,,,A*7A
$GPVTG,240.24,T,,M,0.41,N,0.8,K,N*0F
$GPGGA,201525.700,3747.7019,N,12215.4804,W,1,03,2.1,25.1,M,-25.1,M,,0000*50
$GPGSA,A,2,20,01,30,,,,,,,,,,2.4,2.1,1.0*37
$GPRMC,201525.700,A,3747.7019,N,12215.4804,W,1.10,270.64,020412,,,A*7D
$GPVTG,270.64,T,,M,1.10,N,2.0,K,N*07
$GPGGA,201526.700,3747.7017,N,12215.4793,W,1,03,2.1,25.1,M,-25.1,M,,0000*5C
$GPGSA,A,2,20,01,30,,,,,,,,,,2.4,2.1,1.0*37
$GPRMC,201526.700,A,3747.7017,N,12215.4793,W,1.26,269.62,020412,,,A*7A
$GPVTG,269.62,T,,M,1.26,N,2.3,K,N*0F
$GPGGA,201529.700,3747.7013,N,12215.4768,W,1,03,2.1,25.1,M,-25.1,M,,0000*53
$GPGSA,A,2,20,01,30,,,,,,,,,,2.4,2.1,1.0*37
$GPRMC,201529.700,A,3747.7013,N,12215.4768,W,0.49,112.29,020412,,,A*7D
$GPVTG,112.29,T,,M,0.49,N,0.9,K,N*0F
$GPGGA,201530.700,3747.7009,N,12215.4729,W,1,03,2.1,25.1,M,-25.1,M,,0000*55
$GPGSA,A,2,20,01,30,,,,,,,,,,2.4,2.1,1.0*37
$GPRMC,201530.700,A,3747.7009,N,12215.4729,W,0.34,117.74,020412,,,A*7C
$GPVTG,117.74,T,,M,0.34,N,0.6,K,N*07
$GPGGA,201531.700,3747.7012,N,12215.4756,W,1,03,2.1,25.1,M,-25.1,M,,0000*56
$GPGSA,A,2,20,01,30,,,,,,,,,,2.4,2.1,1.0*37
$GPRMC,201531.700,A,3747.7012,N,12215.4756,W,0.11,215.03,020412,,,A*79
$GPVTG,215.03,T,,M,0.11,N,0.2,K,N*05
$GPGGA,201532.700,3747.7015,N,12215.4802,W,1,03,2.1,25.1,M,-25.1,M,,0000*5C
$GPGSA,A,2,20,01,30,,,,,,,,,,2.4,2.1,1.0*37
$GPRMC,201532.700,A,3747.7015,N,12215.4802,W,0.47,200.95,020412,,,A*7B
$GPVTG,200.95,T,,M,0.47,N,0.9,K,N*06
$GPGGA,201533.700,3747.7016,N,12215.4796,W,1,03,2.1,25.1,M,-25.1,M,,0000*5C
$GPGSA,A,2,20,01,30,,,,,,,,,,2.4,2.1,1.0*37
$GPGSV,3,1,12,20,52,312,40,01,47,236,40,30,25,130,27,32,78,358,36*7E
$GPGSV,3,2,12,31,53,053,,24,35,194,,23,31,273,43,11,27,217,35*70
$GPGSV,3,3,12,14,13,066,,16,09,151,24,25,06,038,,13,04,259,*72
$GPRMC,201533.700,A,3747.7016,N,12215.4796,W,0.61,350.16,020412,,,A*70
$GPVTG,350.16,T,,M,0.61,N,1.1,K,N*04
$GPGGA,201534.700,3747.7018,N,12215.4817,W,1,03,2.1,25.1,M,-25.1,M,,0000*53
$GPGSA,A,2,20,01,30,,,,,,,,,,2.4,2.1,1.0*37
$GPRMC,201534.700,A,3747.7018,N,12215.4817,W,0.31,225.31,020412,,,A*7C
$GPVTG,225.31,T,,M,0.31,N,0.6,K,N*01
$GPGGA,201535.700,3747.7014,N,12215.4785,W,1,03,2.1,25.1,M,-25.1,M,,0000*5A
$GPGSA,A,2,20,01,30,,,,,,,,,,2.4,2.1,1.0*37
$GPRMC,201535.700,A,3747.7014,N,12215.4785,W,0.07,170.57,020412,,,A*73
$GPVTG,170.57,T,,M,0.07,N,0.1,K,N*00
$GPGGA,201536.700,3747.7018,N,12215.4823,W,1,03,2.1,25.1,M,-25.1,M,,0000*56
$GPGSA,A,2,20,01,30,,,,,,,,,,2.4,2.1,1.0*37
$GPRMC,201536.700,A,3747.7018,N,12215.4823,W,0.35,249.40,020412,,,A*71
$GPVTG,249.40,T,,M,0.35,N,0.6,K,N*09
$GPGGA,201537.700,3747.7016,N,12215.4815,W,1,03,2.1,25.1,M,-25.1,M,,0000*5C
$GPGSA,A,2,20,01,30,,,,,,,,,,2.4,2.1,1.0*37
$GPRMC,201537.700,A,3747.7016,N,12215.4815,W,1.52,271.20,020412,,,A*76
$GPVTG,271.20,T,,M,1.52,N,2.8,K,N*08
$GPGGA,201538.700,3747.7017,N,12215.4825,W,1,03,2.1,25.1,M,-25.1,M,,0000*51
$GPGSA,A,2,20,01,30,,,,,,,,,,2.4,2.1,1.0*37
$GPGSV,3,1,12,20,52,312,41,01,47,236,39,30,25,130,21,32,78,358,36*77
$GPGSV,3,2,12,31,53,053,,24,35,194,,23,31,273,31,11,27,217,35*75
$GPGSV,3,3,12,14,13,066,,16,09,151,27,25,06,038,,13,04,259,*71
$GPRMC,201538.700,A,3747.7017,N,12215.4825,W,1.86,272.44,020412,,,A*73
$GPVTG,272.44,T,,M,1.86,N,3.4,K,N*0D
$GPGGA,201539.700,3747.7016,N,12215.4818,W,1,03,2.1,25.1,M,-25.1,M,,0000*5F
$GPGSA,A,2,20,01,30,,,,,,,,,,2.4,2.1,1.0*37
$GPRMC,201539.700,A,3747.7016,N,12215.4818,W,0.91,108.25,020412,,,A*73
$GPVTG,108.25,T,,M,0.91,N,1.7,K,N*02
$GPGGA,201540.700,3747.7009,N,12215.4756,W,1,03,2.1,25.1,M,-25.1,M,,0000*5A
$GPGSA,A,2,20,01,30,,,,,,,,,,2.4,2.1,1.0*37
$GPRMC,201540.700,A,3747.7009,N,12215.4756,W,1.10,104.88,020412,,,A*75
$GPVTG,104.88,T,,M,1.10,N,2.0,K,N*05
$GPGGA,201541.700,3747.7012,N,12215.4789,W,1,03,2.1,25.1,M,-25.1,M,,0000*53
$GPGSA,A,2,20,01,30,,,,,,,,,,2.4,2.1,1.0*37
$GPRMC,201541.700,A,3747.7012,N,12215.4789,W,0.44,268.24,020412,,,A*73
$GPVTG,268.24,T,,M,0.44,N,0.8,K,N*00
$GPGGA,201542.700,3747.7013,N,12215.4787,W,1,03,2.1,25.1,M,-25.1,M,,0000*5F
$GPGSA,A,2,20,01,30,,,,,,,,,,2.4,2.1,1.0*37
$GPRMC,201542.700,A,3747.7013,N,12215.4787,W,0.43,297.82,020412,,,A*74
$GPVTG,297.82,T,,M,0.43,N,0.8,K,N*0B
$GPGGA,201543.700,3747.7014,N,12215.4786,W,1,03,2.1,25.1,M,-25.1,M,,0000*58
$GPGSA,A,2,20,01,30,,,,,,,,,,2.4,2.1,1.0*37
$GPGSV,3,1,12,20,52,312,41,01,47,236,39,30,25,130,27,32,78,358,40*70
$GPGSV,3,2,12,31,53,053,,24,35,194,,23,31,273,41,11,27,217,36*71
$GPGSV,3,3,12,14,13,066,,16,09,151,22,25,06,038,,13,04,259,*74
$GPRMC,201543.700,A,3747.7014,N,12215.4786,W,0.07,304.09,020412,,,A*7B
$GPVTG,304.09,T,,M,0.07,N,0.1,K,N*0A
$GPGGA,201544.700,3747.7018,N,12215.4821,W,1,03,2.1,25.1,M,-25.1,M,,0000*51
$GPGSA,A,2,20,01,30,,,,,,,,,,2.4,2.1,1.0*37
$GPRMC,201544.700,A,3747.7018,N,12215.4821,W,0.22,291.78,020412,,,A*7E
$GPVTG,291.78,T,,M,0.22,N,0.4,K,N*03
$GPGGA,201545.700,3747.7019,N,12215.4836,W,1,03,2.1,25.1,M,-25.1,M,,0000*57
$GPGSA,A,2,20,01,30,,,,,,,,,,2.4,2.1,1.0*37
$GPRMC,201545.700,A,3747.7019,N,12215.4836,W,0.61,226.28,020412,,,A*76
$GPVTG,226.28,T,,M,0.61,N,1.1,K,N*09
$GPGGA,201546.700,3747.7015,N,12215.4793,W,1,03,2.1,25.1,M,-25.1,M,,0000*58
$GPGSA,A,2,20,01,30,,,,,,,,,,2.4,2.1,1.0*37
$GPRMC,201546.700,A,3747.7015,N,12215.4793,W,0.40,297.30,020412,,,A*79
$GPVTG,297.30,T,,M,0.40,N,0.7,K,N*0E
$GPGGA,201547.700,3747.7014,N,12215.4787,W,1,03,2.1,25.1,M,-25.1,M,,0000*5D
$GPGSA,A,2,20,01,30,,,,,,,,,,2.4,2.1,1.0*37
$GPRMC,201547.700,A,3747.7014,N,12215.4787,W,0.37,232.79,020412,,,A*7E
$GPVTG,232.79,T,,M,0.37,N,0.7,K,N*0C
$GPGGA,201548.700,3747.7013,N,12215.4785,W,1,03,2.1,25.1,M,-25.1,M,,0000*57
$GPGSA,A,2,20,01,30,,,,,,,,,,2.4,2.1,1.0*37
$GPGSV,3,1,12,20,52,312,42,01,47,235,40,30,26,129,36,32,78,359,32*71
$GPGSV,3,2,12,31,53,053,,24,35,194,,23,31,273,35,11,27,217,37*73
$GPGSV,3,3,12,14,12,066,,16,09,151,33,25,06,038,,13,04,259,*75
$GPRMC,201548.700,A,3747.7013,N,12215.4785,W,0.24,236.81,020412,,,A*75
$GPVTG,236.81,T,,M,0.24,N,0.4,K,N*0E
$GPGGA,201549.700,3747.7013,N,12215.4784,W,1,03,2.1,25.1,M,-25.1,M,,0000*57
$GPGSA,A,2,20,01,30,,,,,,,,,,2.4,2.1,1.0*37
$GPRMC,201549.700,A,3747.7013,N,12215.4784,W,0.16,187.74,020412,,,A*77
$GPVTG,187.74,T,,M,0.16,N,0.3,K,N*0B
$GPGGA,201550.700,3747.7013,N,12215.4782,W,1,03,2.1,25.1,M,-25.1,M,,0000*59
$GPGSA,A,2,20,01,30,,,,,,,,,,2.4,2.1,1.0*37
$GPRMC,201550.700,A,3747.7013,N,12215.4782,W,0.19,229.11,020412,,,A*72
$GPVTG,229.11,T,,M,0.19,N,0.4,K,N*07
$GPGGA,201551.700,3747.7013,N,12215.4779,W,1,03,2.1,25.1,M,-25.1,M,,0000*5C
$GPGSA,A,2,20,01,30,,,,,,,,,,2.4,2.1,1.0*37
$GPRMC,201551.700,A,3747.7013,N,12215.4779,W,0.22,216.74,020412,,,A*70
$GPVTG,216.74,T,,M,0.22,N,0.4,K,N*00
$GPGGA,201552.700,3747.7012,N,12215.4778,W,1,03,2.1,25.1,M,-25.1,M,,0000*5F
$GPGSA,A,2,20,01,30,,,,,,,,,,2.4,2.1,1.0*37
$GPRMC,201552.700,A,3747.7012,N,12215.4778,W,0.34,253.91,020412,,,A*7E
$GPVTG,253.91,T,,M,0.34,N,0.6,K,N*0F
$GPGGA,201553.700,3747.7014,N,12215.4790,W,1,03,2.1,25.1,M,-25.1,M,,0000*5E
$GPGSA,A,2,20,01,30,,,,,,,,,,2.4,2.1,1.0*37
$GPGSV,3,1,12,20,52,312,40,01,47,235,40,30,26,129,30,32,78,359,30*77
$GPGSV,3,2,12,31,53,053,,24,35,194,,23,31,273,39,11,27,217,42*7D
$GPGSV,3,3,12,14,12,066,,16,09,151,34,25,06,038,,13,04,259,*72
$GPVTG,109.93,T,,M,0.43,N,0.8,K,N*0F
$GPGGA,201554.700,3747.7020,N,12215.4810,W,2,03,2.1,25.1,M,-25.1,M,,0000*5A
$GPGSA,A,2,20,01,30,,,,,,,,,,2.3,2.1,1.0*30
$GPRMC,201554.700,A,3747.7020,N,12215.4810,W,0.92,112.80,020412,,,D*77
$GPVTG,112.80,T,,M,0.92,N,1.7,K,N*05
$GPGGA,201555.700,3747.7019,N,12215.4811,W,2,03,2.1,25.1,M,-25.1,M,2.5,0000*79
$GPGSA,A,2,20,01,30,,,,,,,,,,2.3,2.1,1.0*30
$GPRMC,201555.700,A,3747.7019,N,12215.4811,W,0.61,133.04,020412,,,D*7E
$GPVTG,133.04,T,,M,0.61,N,1.1,K,N*00
$GPGGA,201556.700,3747.7019,N,12215.4801,W,2,03,2.1,25.1,M,-25.1,M,3.5,0000*7A
$GPGSA,A,2,20,01,30,,,,,,,,,,2.3,2.1,1.0*30
$GPRMC,201556.700,A,3747.7019,N,12215.4801,W,0.54,307.83,020412,,,D*70
$GPVTG,307.83,T,,M,0.54,N,1.0,K,N*0D
$GPGGA,201557.700,3747.7016,N,12215.4797,W,2,03,2.1,25.1,M,-25.1,M,,0000*5C
$GPGSA,A,2,20,01,30,,,,,,,,,,2.3,2.1,1.0*30
$GPRMC,201557.700,A,3747.7016,N,12215.4797,W,0.32,134.92,020412,,,D*7C
$GPVTG,134.92,T,,M,0.32,N,0.6,K,N*08
$GPGGA,201558.700,3747.7016,N,12215.4793,W,2,03,2.1,25.1,M,-25.1,M,,0000*57
$GPGSA,A,2,20,01,30,,,,,,,,,,2.3,2.1,1.0*30
$GPGSV,3,1,12,20,52,312,38,01,47,235,41,30,26,129,34,32,78,359,32*7F
$GPGSV,3,2,12,31,53,053,,24,35,194,,23,31,273,39,11,27,217,40*7F
$GPGSV,3,3,12,14,12,066,,16,09,151,33,25,06,038,,13,04,259,*75
$GPRMC,201558.700,A,3747.7016,N,12215.4793,W,0.33,235.30,020412,,,D*7C
$GPVTG,235.30,T,,M,0.33,N,0.6,K,N*03
$GPGGA,201559.700,3747.7016,N,12215.4791,W,2,03,2.1,25.1,M,-25.1,M,,0000*54
$GPGSA,A,2,20,01,30,,,,,,,,,,2.3,2.1,1.0*30
$GPRMC,201559.700,A,3747.7016,N,12215.4791,W,0.28,202.93,020412,,,D*78
$GPVTG,202.93,T,,M,0.28,N,0.5,K,N*07
$GPGGA,201600.700,3747.7016,N,12215.4790,W,2,03,2.1,25.1,M,-25.1,M,2.5,0000*73
$GPGSA,A,2,20,01,30,,,,,,,,,,2.3,2.1,1.0*30
$GPRMC,201600.700,A,3747.7016,N,12215.4790,W,0.02,131.58,020412,,,D*7A
$GPVTG,131.58,T,,M,0.02,N,0.0,K,N*0E
$GPGGA,201601.700,3747.7016,N,12215.4791,W,2,03,2.1,25.1,M,-25.1,M,3.5,0000*72
$GPGSA,A,2,20,01,30,,,,,,,,,,2.3,2.1,1.0*30
$GPRMC,201601.700,A,3747.7016,N,12215.4791,W,0.24,270.82,020412,,,D*7F
$GPVTG,270.82,T,,M,0.24,N,0.4,K,N*0F
$GPGGA,201602.700,3747.7017,N,12215.4801,W,2,03,2.1,25.1,M,-25.1,M,,0000*5E
$GPGSA,A,2,20,01,30,,,,,,,,,,2.3,2.1,1.0*30
$GPRMC,201602.700,A,3747.7017,N,12215.4801,W,0.19,196.69,020412,,,D*7B
$GPVTG,196.69,T,,M,0.19,N,0.4,K,N*0F
$GPGGA,201603.700,3747.7017,N,12215.4787,W,2,03,2.1,25.1,M,-25.1,M,,0000*5E
$GPGSA,A,2,20,01,30,,,,,,,,,,2.3,2.1,1.0*30
$GPGSV,3,1,12,20,52,312,40,01,47,235,41,30,26,129,22,32,78,359,37*72
$GPGSV,3,2,12,31,53,053,,24,35,194,,23,31,273,39,11,27,217,41*7E
$GPGSV,3,3,12,14,12,066,,16,09,151,33,25,06,038,,13,04,259,*75
$GPRMC,201603.700,A,3747.7017,N,12215.4787,W,0.81,260.42,020412,,,D*79
$GPVTG,260.42,T,,M,0.81,N,1.5,K,N*0D
$GPGGA,201604.700,3747.7015,N,12215.4770,W,2,03,2.1,25.1,M,-25.1,M,1.5,0000*79
$GPGSA,A,2,20,01,30,,,,,,,,,,2.3,2.1,1.0*30
$GPRMC,201604.700,A,3747.7015,N,12215.4770,W,0.35,114.94,020412,,,D*70
$GPVTG,114.94,T,,M,0.35,N,0.6,K,N*0B
$GPGGA,201605.700,3747.7017,N,12215.4789,W,2,03,2.1,25.1,M,-25.1,M,,0000*56
$GPGSA,A,2,20,01,30,,,,,,,,,,2.3,2.1,1.0*30
$GPRMC,201605.700,A,3747.7017,N,12215.4789,W,0.17,176.66,020412,,,D*7C
$GPVTG,176.66,T,,M,0.17,N,0.3,K,N*07
$GPGGA,201606.700,3747.7014,N,12215.4757,W,2,03,2.1,25.1,M,-25.1,M,2.5,0000*7C
$GPGSA,A,2,20,01,30,,,,,,,,,,2.3,2.1,1.0*30
$GPRMC,201606.700,A,3747.7014,N,12215.4757,W,0.26,137.71,020412,,,D*7E
$GPVTG,137.71,T,,M,0.26,N,0.5,K,N*00
$GPGGA,201607.700,3747.7014,N,12215.4759,W,2,03,2.1,25.1,M,-25.1,M,3.5,0000*72
$GPGSA,A,2,20,01,30,,,,,,,,,,2.3,2.1,1.0*30
$GPRMC,201607.700,A,3747.7014,N,12215.4759,W,0.16,216.99,020412,,,D*74
$GPVTG,216.99,T,,M,0.16,N,0.3,K,N*03
$GPGGA,201608.700,3747.7015,N,12215.4770,W,2,03,2.1,25.1,M,-25.1,M,4.5,0000*70
$GPGSA,A,2,20,01,30,,,,,,,,,,2.3,2.1,1.0*30
$GPGSV,3,1,12,20,52,312,40,01,47,235,41,30,26,129,27,32,78,359,37*77
$GPGSV,3,2,12,31,53,053,,24,35,194,,23,31,273,40,11,27,217,40*71
$GPGSV,3,3,12,14,12,066,,16,09,151,34,25,06,038,,13,04,259,*72
$GPRMC,201608.700,A,3747.7015,N,12215.4770,W,0.19,234.33,020412,,,D*7E
$GPGGA,201609.700,3747.7015,N,12215.4787,W,2,03,2.1,25.1,M,-25.1,M,,0000*56
$GPGSA,A,2,20,01,30,,,,,,,,,,2.3,2.1,1.0*30
$GPRMC,201609.700,A,3747.7015,N,12215.4787,W,0.23,219.05,020412,,,D*74
$GPVTG,219.05,T,,M,0.23,N,0.4,K,N*08
$GPGGA,201610.700,3747.7016,N,12215.4795,W,2,03,2.1,25.1,M,-25.1,M,,0000*5E
$GPGSA,A,2,20,01,30,,,,,,,,,,2.3,2.1,1.0*30
$GPRMC,201610.700,A,3747.7016,N,12215.4795,W,0.23,218.82,020412,,,D*72
$GPVTG,218.82,T,,M,0.23,N,0.4,K,N*06
$GPGGA,201611.700,3747.7016,N,12215.4797,W,2,03,2.1,25.1,M,-25.1,M,,0000*5D
$GPGSA,A,2,20,01,30,,,,,,,,,,2.3,2.1,1.0*30
$GPRMC,201611.700,A,3747.7016,N,12215.4797,W,0.28,220.72,020412,,,D*7E
$GPVTG,220.72,T,,M,0.28,N,0.5,K,N*08
$GPGGA,201612.700,3747.7016,N,12215.4800,W,2,03,2.1,25.1,M,-25.1,M,2.5,0000*76
$GPGSA,A,2,20,01,30,,,,,,,,,,2.3,2.1,1.0*30
$GPRMC,201612.700,A,3747.7016,N,12215.4800,W,0.20,222.44,020412,,,D*73
$GPVTG,222.44,T,,M,0.20,N,0.4,K,N*06
$GPGGA,201613.700,3747.7020,N,12215.4833,W,2,03,2.1,25.1,M,-25.1,M,,0000*5B
$GPGSA,A,2,20,01,30,,,,,,,,,,2.3,2.1,1.0*30
$GPGSV,3,1,12,20,52,312,39,01,47,235,42,30,26,129,26,32,78,359,36*7A
$GPGSV,3,2,12,31,53,053,,24,35,194,,23,31,273,40,11,27,217,40*71
$GPGSV,3,3,12,14,12,066,,16,09,151,34,25,06,038,,13,04,259,*72
$GPRMC,201613.700,A,3747.7020,N,12215.4833,W,0.90,263.47,020412,,,D*7A
$GPVTG,263.47,T,,M,0.90,N,1.7,K,N*09
$GPGGA,201614.700,3747.7018,N,12215.4809,W,2,03,2.1,25.1,M,-25.1,M,2.5,0000*77
$GPGSA,A,2,20,01,30,,,,,,,,,,2.3,2.1,1.0*30
$GPRMC,201614.700,A,3747.7018,N,12215.4809,W,0.23,191.94,020412,,,D*77
$GPVTG,191.94,T,,M,0.23,N,0.4,K,N*03
$GPGGA,201615.700,3747.7019,N,12215.4803,W,2,03,2.1,25.1,M,-25.1,M,,0000*54
$GPGSA,A,2,20,01,30,,,,,,,,,,2.3,2.1,1.0*30
$GPRMC,201615.700,A,3747.7019,N,12215.4803,W,0.18,243.88,020412,,,D*74
$GPVTG,243.88,T,,M,0.18,N,0.3,K,N*0D
$GPGGA,201616.700,3747.7020,N,12215.4799,W,2,03,2.1,25.1,M,-25.1,M,,0000*51
$GPGSA,A,2,20,01,30,,,,,,,,,,2.3,2.1,1.0*30
$GPRMC,201616.700,A,3747.7020,N,12215.4799,W,0.12,238.12,020412,,,D*74
$GPVTG,238.12,T,,M,0.12,N,0.2,K,N*09
$GPGGA,201617.700,3747.7013,N,12215.4736,W,2,03,2.1,25.1,M,-25.1,M,,0000*55
$GPGSA,A,2,20,01,30,,,,,,,,,,2.3,2.1,1.0*30
$GPRMC,201617.700,A,3747.7013,N,12215.4736,W,0.11,255.96,020412,,,D*74
$GPVTG,255.96,T,,M,0.11,N,0.2,K,N*0D
$GPGGA,201618.700,3747.7015,N,12215.4756,W,2,03,2.1,25.1,M,-25.1,M,2.5,0000*73
$GPGSA,A,2,20,01,30,,,,,,,,,,2.3,2.1,1.0*30
$GPGSV,3,1,12,20,53,312,39,01,47,235,42,30,26,129,23,32,78,359,36*7E
$GPGSV,3,2,12,31,53,053,,24,35,194,,23,31,273,40,11,27,217,40*71
$GPGSV,3,3,12,14,12,067,,16,09,151,26,25,06,038,,13,04,259,*70
$GPRMC,201618.700,A,3747.7015,N,12215.4756,W,0.22,258.30,020412,,,D*7A
$GPVTG,258.30,T,,M,0.22,N,0.4,K,N*0A
$GPGGA,201619.700,3747.7020,N,12215.4791,W,2,03,2.1,25.1,M,-25.1,M,,0000*56
$GPGSA,A,2,20,01,30,,,,,,,,,,2.3,2.1,1.0*30
$GPRMC,201619.700,A,3747.7020,N,12215.4791,W,0.10,262.31,020412,,,D*7F
$GPVTG,262.31,T,,M,0.10,N,0.2,K,N*05
$GPGGA,201620.700,3747.7017,N,12215.4768,W,2,03,2.1,25.1,M,-25.1,M,,0000*5E
$GPGSA,A,2,20,01,30,,,,,,,,,,2.3,2.1,1.0*30
$GPRMC,201620.700,A,3747.7017,N,12215.4768,W,0.28,123.05,020412,,,D*7D
$GPVTG,123.05,T,,M,0.28,N,0.5,K,N*08
$GPGGA,201621.700,3747.7012,N,12215.4746,W,2,03,2.1,25.1,M,-25.1,M,,0000*56
$GPGSA,A,2,20,01,30,,,,,,,,,,2.3,2.1,1.0*30
$GPRMC,201621.700,A,3747.7012,N,12215.4746,W,0.18,191.85,020412,,,D*77
$GPVTG,191.85,T,,M,0.18,N,0.3,K,N*0C
$GPGGA,201622.700,3747.7013,N,12215.4774,W,2,03,2.1,25.1,M,-25.1,M,,0000*55
$GPGSA,A,2,20,01,30,,,,,,,,,,2.3,2.1,1.0*30
$GPRMC,201622.700,A,3747.7013,N,12215.4774,W,0.60,246.91,020412,,,D*77
$GPVTG,246.91,T,,M,0.60,N,1.1,K,N*0C
$GPGGA,201623.700,3747.7013,N,12215.4769,W,2,03,2.1,25.1,M,-25.1,M,,0000*58
$GPGSA,A,2,20,01,30,,,,,,,,,,2.3,2.1,1.0*30
$GPGSV,3,1,12,20,53,312,32,01,47,235,42,30,26,129,25,32,78,359,29*7D
$GPGSV,3,2,12,31,53,053,,24,35,194,,23,31,273,40,11,27,217,33*75
$GPGSV,3,3,12,14,12,067,,16,09,151,28,25,06,038,,13,04,259,*7E
$GPRMC,201623.700,A,3747.7013,N,12215.4769,W,0.48,126.68,020412,,,D*73
$GPGGA,201624.700,3747.7013,N,12215.4766,W,2,03,2.1,25.1,M,-25.1,M,2.5,0000*79
$GPGSA,A,2,20,01,30,,,,,,,,,,2.3,2.1,1.0*30
$GPRMC,201624.700,A,3747.7013,N,12215.4766,W,0.75,114.97,020412,,,D*74
$GPVTG,114.97,T,,M,0.75,N,1.4,K,N*0F
$GPGGA,201625.700,3747.7014,N,12215.4776,W,2,03,2.1,25.1,M,-25.1,M,,0000*57
$GPGSA,A,2,20,01,30,,,,,,,,,,2.3,2.1,1.0*30
$GPRMC,201625.700,A,3747.7014,N,12215.4776,W,0.31,215.44,020412,,,D*7F
$GPVTG,215.44,T,,M,0.31,N,0.6,K,N*00
$GPGGA,201626.700,3747.7015,N,12215.4790,W,2,03,2.1,25.1,M,-25.1,M,2.5,0000*74
$GPGSA,A,2,20,01,30,,,,,,,,,,2.3,2.1,1.0*30
$GPRMC,201626.700,A,3747.7015,N,12215.4790,W,0.39,225.25,020412,,,D*79
$GPVTG,225.25,T,,M,0.39,N,0.7,K,N*0D
$GPGGA,201627.700,3747.7018,N,12215.4798,W,2,03,2.1,25.1,M,-25.1,M,,0000*59
$GPGSA,A,2,20,01,30,,,,,,,,,,2.3,2.1,1.0*30
$GPRMC,201627.700,A,3747.7018,N,12215.4798,W,0.49,115.53,020412,,,D*7B
$GPVTG,115.53,T,,M,0.49,N,0.9,K,N*05
$GPGGA,201628.700,3747.7017,N,12215.4764,W,2,03,2.1,25.1,M,-25.1,M,,0000*5A
$GPGSA,A,2,20,01,30,,,,,,,,,,2.3,2.1,1.0*30
$GPGSV,3,1,12,20,53,312,35,01,47,235,42,30,26,129,21,32,78,359,28*7F
$GPGSV,3,2,12,31,53,053,,24,35,194,,23,31,273,41,11,27,217,37*70
$GPGSV,3,3,12,14,12,067,,16,09,151,31,25,06,038,,13,04,259,*76
$GPRMC,201628.700,A,3747.7017,N,12215.4764,W,0.08,212.95,020412,,,D*73
$GPVTG,212.95,T,,M,0.08,N,0.1,K,N*06
$GPGGA,201629.700,3747.7012,N,12215.4722,W,2,03,2.1,25.1,M,-25.1,M,,0000*5C
$GPGSA,A,2,20,01,30,,,,,,,,,,2.3,2.1,1.0*30
$GPRMC,201629.700,A,3747.7012,N,12215.4722,W,0.20,265.37,020412,,,D*77
$GPVTG,265.37,T,,M,0.20,N,0.4,K,N*01
$GPGGA,201630.700,3747.7012,N,12215.4723,W,2,03,2.1,25.1,M,-25.1,M,2.5,0000*7C
$GPGSA,A,2,20,01,30,,,,,,,,,,2.3,2.1,1.0*30
$GPRMC,201630.700,A,3747.7012,N,12215.4723,W,1.25,273.69,020412,,,D*76
$GPVTG,273.69,T,,M,1.25,N,2.3,K,N*0C
$GPGGA,201631.700,3747.7021,N,12215.4793,W,2,03,2.1,25.1,M,-25.1,M,3.5,0000*77
$GPGSA,A,2,20,01,30,,,,,,,,,,2.3,2.1,1.0*30
$GPRMC,201631.700,A,3747.7021,N,12215.4793,W,0.89,271.95,020412,,,D*7A
$GPVTG,271.95,T,,M,0.89,N,1.7,K,N*0D
$GPGGA,201632.700,3747.7025,N,12215.4827,W,2,03,2.1,25.1,M,-25.1,M,4.5,0000*77
$GPGSA,A,2,20,01,30,,,,,,,,,,2.3,2.1,1.0*30
$GPRMC,201632.700,A,3747.7025,N,12215.4827,W,0.71,103.46,020412,,,D*72
$GPVTG,103.46,T,,M,0.71,N,1.3,K,N*06
$GPGGA,201633.700,3747.7024,N,12215.4830,W,2,03,2.1,25.1,M,-25.1,M,,0000*5E
$GPGSA,A,2,20,01,30,,,,,,,,,,2.3,2.1,1.0*30
$GPGSV,3,1,12,20,53,312,35,01,47,235,42,30,26,129,28,32,78,359,28*76
$GPGSV,3,2,12,31,53,053,,24,35,194,,23,31,273,41,11,27,217,38*7F
$GPGSV,3,3,12,14,12,067,,16,09,151,25,25,06,038,,13,04,259,*73
$GPRMC,201633.700,A,3747.7024,N,12215.4830,W,0.24,120.97,020412,,,D*79
$GPVTG,120.97,T,,M,0.24,N,0.5,K,N*0C
$GPGGA,201634.700,3747.7023,N,12215.4839,W,2,03,2.1,25.1,M,-25.1,M,,0000*57
$GPGSA,A,2,20,01,30,,,,,,,,,,2.3,2.1,1.0*30
$GPRMC,201634.700,A,3747.7023,N,12215.4839,W,0.27,239.65,020412,,,D*75
$GPVTG,239.65,T,,M,0.27,N,0.5,K,N*09
$GPGGA,201635.700,3747.7022,N,12215.4838,W,2,03,2.1,25.1,M,-25.1,M,,0000*56
$GPGSA,A,2,20,01,30,,,,,,,,,,2.3,2.1,1.0*30
$GPRMC,201635.700,A,3747.7022,N,12215.4838,W,0.40,205.45,020412,,,D*78
$GPVTG,205.45,T,,M,0.40,N,0.7,K,N*07
$GPGGA,201636.700,3747.7021,N,12215.4825,W,2,03,2.1,25.1,M,-25.1,M,1.5,0000*70
$GPGSA,A,2,20,01,30,,,,,,,,,,2.3,2.1,1.0*30
$GPRMC,201636.700,A,3747.7021,N,12215.4825,W,0.45,239.54,020412,,,D*7E
$GPVTG,239.54,T,,M,0.45,N,0.8,K,N*02
$GPGGA,201637.700,3747.7023,N,12215.4847,W,2,03,2.1,25.1,M,-25.1,M,2.5,0000*74
$GPGSA,A,2,20,01,30,,,,,,,,,,2.3,2.1,1.0*30
$GPRMC,201637.700,A,3747.7023,N,12215.4847,W,0.22,191.77,020412,,,D*78
$GPVTG,191.77,T,,M,0.22,N,0.4,K,N*0F
$GPGGA,201638.700,3747.7025,N,12215.4864,W,2,03,2.1,25.1,M,-25.1,M,3.5,0000*7D
$GPGSA,A,2,20,01,30,,,,,,,,,,2.3,2.1,1.0*30
$GPGSV,3,1,12,20,53,312,29,01,47,235,36,30,26,129,23,32,78,359,25*7E
$GPGSV,3,2,12,31,53,053,,24,35,194,,23,31,273,35,11,27,217,37*73
$GPGSV,3,3,12,14,12,067,,16,09,151,25,25,06,038,,13,04,259,*73
$GPRMC,201638.700,A,3747.7025,N,12215.4864,W,0.49,131.66,020412,,,D*77
$GPVTG,131.66,T,,M,0.49,N,0.9,K,N*05
$GPGGA,201639.700,3747.7024,N,12215.4848,W,2,03,2.1,25.1,M,-25.1,M,,0000*5B
$GPGSA,A,2,20,01,30,,,,,,,,,,2.3,2.1,1.0*30
$GPRMC,201639.700,A,3747.7024,N,12215.4848,W,0.62,116.61,020412,,,D*72
$GPVTG,116.61,T,,M,0.62,N,1.2,K,N*04
$GPGGA,201640.700,3747.7023,N,12215.4825,W,2,03,2.1,25.1,M,-25.1,M,,0000*59
$GPGSA,A,2,20,01,30,,,,,,,,,,2.3,2.1,1.0*30
$GPRMC,201640.700,A,3747.7023,N,12215.4825,W,0.14,97.29,020412,,,D*45
$GPVTG,97.29,T,,M,0.14,N,0.3,K,N*31
$GPGGA,201641.700,3747.7027,N,12215.4861,W,2,03,2.1,25.1,M,-25.1,M,,0000*5C
$GPGSA,A,2,20,01,30,,,,,,,,,,2.3,2.1,1.0*30
$GPRMC,201641.700,A,3747.7027,N,12215.4861,W,0.06,183.11,020412,,,D*7C
$GPVTG,183.11,T,,M,0.06,N,0.1,K,N*0F
$GPGGA,201642.700,3747.7025,N,12215.4843,W,2,03,2.1,25.1,M,-25.1,M,2.5,0000*74
$GPGSA,A,2,20,01,30,,,,,,,,,,2.3,2.1,1.0*30
$GPRMC,201642.700,A,3747.7025,N,12215.4843,W,0.51,273.21,020412,,,D*70
$GPVTG,273.21,T,,M,0.51,N,0.9,K,N*0A
$GPGGA,201643.700,3747.7021,N,12215.4813,W,2,03,2.1,25.1,M,-25.1,M,3.5,0000*75
$GPGSA,A,2,20,01,30,,,,,,,,,,2.3,2.1,1.0*30
$GPGSV,3,1,12,20,53,312,30,01,47,235,35,30,26,129,24,32,78,359,25*72
$GPGSV,3,2,12,31,53,053,,24,35,194,,23,31,273,36,11,27,217,36*71
$GPGSV,3,3,12,14,12,067,,16,09,151,26,25,06,038,,13,04,259,*70
$GPRMC,201643.700,A,3747.7021,N,12215.4813,W,0.50,106.63,020412,,,D*76
$GPVTG,106.63,T,,M,0.50,N,0.9,K,N*0C
$GPGGA,201644.700,3747.7020,N,12215.4812,W,2,03,2.1,25.1,M,-25.1,M,,0000*5A
$GPGSA,A,2,20,01,30,,,,,,,,,,2.3,2.1,1.0*30
$GPRMC,201644.700,A,3747.7020,N,12215.4812,W,0.51,109.01,020412,,,D*7B
$GPVTG,109.01,T,,M,0.51,N,0.9,K,N*06
$GPGGA,201645.700,3747.7007,N,12215.4722,W,2,03,2.1,25.1,M,-25.1,M,,0000*52
$GPGSA,A,2,20,01,30,,,,,,,,,,2.3,2.1,1.0*30
$GPRMC,201645.700,A,3747.7007,N,12215.4722,W,0.34,162.28,020412,,,D*76
$GPVTG,162.28,T,,M,0.34,N,0.6,K,N*0C
$GPGGA,201646.700,3747.7009,N,12215.4743,W,2,03,2.1,25.1,M,-25.1,M,2.5,0000*71
$GPGSA,A,2,20,01,30,,,,,,,,,,2.3,2.1,1.0*30
$GPRMC,201646.700,A,3747.7009,N,12215.4743,W,0.45,250.17,020412,,,D*74
$GPVTG,250.17,T,,M,0.45,N,0.8,K,N*0A
$GPGGA,201647.700,3747.7006,N,12215.4717,W,2,03,2.1,25.1,M,-25.1,M,3.5,0000*7F
$GPGSA,A,2,20,01,30,,,,,,,,,,2.3,2.1,1.0*30
$GPRMC,201647.700,A,3747.7006,N,12215.4717,W,0.40,250.94,020412,,,D*75
$GPVTG,250.94,T,,M,0.40,N,0.7,K,N*0B
$GPGGA,201648.700,3747.7012,N,12215.4769,W,2,03,2.1,25.1,M,-25.1,M,4.5,0000*7B
$GPGSA,A,2,20,01,30,,,,,,,,,,2.3,2.1,1.0*30
$GPGSV,3,1,12,20,53,312,30,01,46,235,40,30,26,129,23,32,79,000,24*79
$GPGSV,3,2,12,31,52,052,,24,34,194,,23,31,274,38,11,27,217,36*79
$GPGSV,3,3,12,14,12,067,,16,09,151,19,25,06,038,,13,04,260,*76
$GPRMC,201648.700,A,3747.7012,N,12215.4769,W,0.96,109.63,020412,,,D*7A
$GPVTG,109.63,T,,M,0.96,N,1.8,K,N*09
$GPGGA,201649.700,3747.7015,N,12215.4790,W,2,03,2.1,25.1,M,-25.1,M,5.5,0000*7A
$GPGSA,A,2,20,01,30,,,,,,,,,,2.3,2.1,1.0*30
$GPRMC,201649.700,A,3747.7015,N,12215.4790,W,1.34,106.52,020412,,,D*7E
$GPVTG,106.52,T,,M,1.34,N,2.5,K,N*03
$GPGGA,201651.700,3747.7014,N,12215.4758,W,2,03,2.1,25.1,M,-25.1,M,,0000*58
$GPGSA,A,2,20,01,30,,,,,,,,,,2.3,2.1,1.0*30
$GPRMC,201651.700,A,3747.7014,N,12215.4758,W,0.27,284.97,020412,,,D*71
$GPVTG,284.97,T,,M,0.27,N,0.5,K,N*02
$GPGGA,201652.700,3747.7010,N,12215.4756,W,2,03,2.1,25.1,M,-25.1,M,,0000*51
$GPGSA,A,2,20,01,30,,,,,,,,,,2.3,2.1,1.0*30
$GPRMC,201652.700,A,3747.7010,N,12215.4756,W,0.85,241.60,020412,,,D*71
$GPVTG,241.60,T,,M,0.85,N,1.6,K,N*09
$GPGGA,201653.700,3747.7027,N,12215.4767,W,2,03,2.1,25.1,M,-25.1,M,,0000*56
$GPGSA,A,2,20,01,30,,,,,,,,,,2.3,2.1,1.0*30
$GPGSV,3,1,12,20,53,312,29,01,46,235,37,30,26,129,32,32,79,000,18*7E
$GPGSV,3,2,12,31,52,052,,24,34,194,,23,31,274,34,11,27,217,35*76
$GPGSV,3,3,12,14,12,067,,16,09,151,32,25,06,038,,13,04,260,*7F
$GPRMC,201653.700,A,3747.7027,N,12215.4767,W,0.41,257.70,020412,,,D*78
$GPVTG,257.70,T,,M,0.41,N,0.8,K,N*08
$GPGGA,201654.700,3747.7068,N,12215.4752,W,2,03,2.1,25.1,M,-25.1,M,2.5,0000*75
$GPGSA,A,2,20,01,30,,,,,,,,,,2.3,2.1,1.0*30
$GPRMC,201654.700,A,3747.7068,N,12215.4752,W,1.05,174.31,020412,,,D*74
$GPVTG,174.31,T,,M,1.05,N,1.9,K,N*0E
$GPGGA,201655.700,3747.7005,N,12215.4756,W,2,03,2.1,25.1,M,-25.1,M,3.5,0000*7A
$GPGSA,A,2,20,01,30,,,,,,,,,,2.3,2.1,1.0*30
$GPRMC,201655.700,A,3747.7005,N,12215.4756,W,0.34,71.86,020412,,,D*41
$GPVTG,71.86,T,,M,0.34,N,0.6,K,N*3B
$GPGGA,201656.700,3747.6999,N,12215.4752,W,2,03,2.1,25.1,M,-25.1,M,4.5,0000*77
$GPGSA,A,2,20,01,30,,,,,,,,,,2.3,2.1,1.0*30
$GPRMC,201656.700,A,3747.6999,N,12215.4752,W,0.13,123.75,020412,,,D*74
$GPVTG,123.75,T,,M,0.13,N,0.2,K,N*00
$GPGGA,201657.700,3747.7023,N,12215.4746,W,2,03,2.1,25.1,M,-25.1,M,,0000*55
$GPGSA,A,2,20,01,30,,,,,,,,,,2.3,2.1,1.0*30
$GPRMC,201657.700,A,3747.7023,N,12215.4746,W,0.31,205.98,020412,,,D*7D
$GPVTG,205.98,T,,M,0.31,N,0.6,K,N*00
$GPGGA,201658.700,3747.7055,N,12215.4741,W,2,03,2.1,25.1,M,-25.1,M,2.5,0000*75
$GPGSA,A,2,20,01,30,,,,,,,,,,2.3,2.1,1.0*30
$GPGSV,3,1,12,20,53,312,28,01,46,235,35,30,26,129,33,32,79,000,26*71
$GPGSV,3,2,12,31,52,052,,24,34,194,,23,31,274,32,11,27,217,37*72
$GPGSV,3,3,12,14,12,067,,16,09,151,35,25,06,038,,13,04,260,*78
$GPVTG,242.63,T,,M,0.45,N,0.8,K,N*0A
$GPGGA,201659.700,3747.7063,N,12215.4741,W,2,03,2.1,25.1,M,-25.1,M,,0000*58
$GPGSA,A,2,20,01,30,,,,,,,,,,2.3,2.1,1.0*30
$GPRMC,201659.700,A,3747.7063,N,12215.4741,W,0.61,257.67,020412,,,D*72
$GPVTG,257.67,T,,M,0.61,N,1.1,K,N*04
$GPGGA,201700.700,3747.7016,N,12215.4749,W,2,03,2.1,25.1,M,-25.1,M,2.5,0000*76
$GPGSA,A,2,20,01,30,,,,,,,,,,2.3,2.1,1.0*30
$GPRMC,201700.700,A,3747.7016,N,12215.4749,W,0.58,351.01,020412,,,D*78
$GPVTG,351.01,T,,M,0.58,N,1.1,K,N*09
$GPGGA,201701.700,3747.7034,N,12215.4746,W,2,03,2.1,25.1,M,-25.1,M,3.5,0000*79
$GPGSA,A,2,20,01,30,,,,,,,,,,2.3,2.1,1.0*30
$GPRMC,201701.700,A,3747.7034,N,12215.4746,W,0.42,197.57,020412,,,D*76
$GPVTG,197.57,T,,M,0.42,N,0.8,K,N*01
$GPGGA,201702.700,3747.7024,N,12215.4751,W,2,03,2.1,25.1,M,-25.1,M,4.5,0000*7A
$GPGSA,A,2,20,01,30,,,,,,,,,,2.3,2.1,1.0*30
$GPRMC,201702.700,A,3747.7024,N,12215.4751,W,1.02,243.65,020412,,,D*7C
$GPVTG,243.65,T,,M,1.02,N,1.9,K,N*0F
$GPGGA,201703.700,3747.7017,N,12215.4754,W,2,03,2.1,25.1,M,-25.1,M,5.5,0000*7F
$GPGSA,A,2,20,01,30,,,,,,,,,,2.3,2.1,1.0*30
$GPGSV,3,1,12,20,53,312,27,01,46,235,34,30,26,129,33,32,79,000,22*7B
$GPGSV,3,2,12,31,52,052,,24,34,194,,23,31,274,33,11,27,217,37*73
$GPGSV,3,3,12,14,12,067,,16,09,151,35,25,06,038,,13,04,260,*78
$GPRMC,201703.700,A,3747.7017,N,12215.4754,W,0.33,258.07,020412,,,D*75
$GPVTG,258.07,T,,M,0.33,N,0.6,K,N*0C
$GPGGA,201704.700,3747.6961,N,12215.4763,W,2,03,2.1,25.1,M,-25.1,M,6.5,0000*76
$GPGSA,A,2,20,01,30,,,,,,,,,,2.3,2.1,1.0*30
$GPRMC,201704.700,A,3747.6961,N,12215.4763,W,0.51,106.10,020412,,,D*75
$GPVTG,106.10,T,,M,0.51,N,1.0,K,N*01
$GPGGA,201705.700,3747.7009,N,12215.4756,W,2,03,2.1,25.1,M,-25.1,M,7.5,0000*76
$GPGSA,A,2,20,01,30,,,,,,,,,,2.3,2.1,1.0*30
$GPRMC,201705.700,A,3747.7009,N,12215.4756,W,0.34,249.17,020412,,,D*78
$GPVTG,249.17,T,,M,0.34,N,0.6,K,N*0A
$GPGGA,201706.700,3747.7000,N,12215.4759,W,2,03,2.1,25.1,M,-25.1,M,8.5,0000*7C
$GPGSA,A,2,20,01,30,,,,,,,,,,2.3,2.1,1.0*30
$GPRMC,201706.700,A,3747.7000,N,12215.4759,W,0.28,221.46,020412,,,D*7A
$GPVTG,221.46,T,,M,0.28,N,0.5,K,N*0E
$GPGGA,201707.700,3747.6981,N,12215.4763,W,2,03,2.1,25.1,M,-25.1,M,0.5,0000*7D
$GPGSA,A,2,20,01,30,,,,,,,,,,2.3,2.1,1.0*30
$GPRMC,201707.700,A,3747.6981,N,12215.4763,W,0.52,191.87,020412,,,D*7B
$GPVTG,191.87,T,,M,0.52,N,1.0,K,N*02
$GPGGA,201708.700,3747.7011,N,12215.4759,W,2,03,2.1,25.1,M,-25.1,M,1.5,0000*7B
$GPGSA,A,2,20,01,30,,,,,,,,,,2.3,2.1,1.0*30
$GPGSV,3,1,12,20,53,312,26,01,46,235,29,30,26,129,34,32,79,000,18*78
$GPGSV,3,2,12,31,52,052,,24,34,194,,23,31,274,29,11,27,217,30*7F
$GPGSV,3,3,12,14,12,067,,16,09,151,34,25,06,038,,13,04,260,*79
$GPRMC,201708.700,A,3747.7011,N,12215.4759,W,0.40,211.04,020412,,,D*7F
$GPVTG,211.04,T,,M,0.40,N,0.7,K,N*07
$GPGGA,201709.700,3747.7078,N,12215.4724,W,2,03,2.1,25.1,M,-25.1,M,1.5,0000*7F
$GPGSA,A,2,20,01,30,,,,,,,,,,2.3,2.1,1.0*30
$GPRMC,201709.700,A,3747.7078,N,12215.4724,W,0.48,298.92,020412,,,D*7D
$GPVTG,298.92,T,,M,0.48,N,0.9,K,N*0F
$GPGGA,201710.700,3747.7054,N,12215.4757,W,2,03,2.1,25.1,M,-25.1,M,2.5,0000*7E
$GPGSA,A,2,20,01,30,,,,,,,,,,2.3,2.1,1.0*30
$GPRMC,201710.700,A,3747.7054,N,12215.4757,W,0.49,228.80,020412,,,D*76
$GPVTG,228.80,T,,M,0.49,N,0.9,K,N*06
$GPGGA,201711.700,3747.7022,N,12215.4767,W,2,03,2.1,25.1,M,-25.1,M,1.5,0000*7E
$GPGSA,A,2,20,01,30,,,,,,,,,,2.3,2.1,1.0*30
$GPRMC,201711.700,A,3747.7022,N,12215.4767,W,0.94,212.37,020412,,,D*70
$GPVTG,212.37,T,,M,0.94,N,1.7,K,N*0C
$GPGGA,201712.700,3747.7060,N,12215.4762,W,2,03,2.1,25.1,M,-25.1,M,2.5,0000*7D
$GPGSA,A,2,20,01,30,,,,,,,,,,2.3,2.1,1.0*30
$GPRMC,201712.700,A,3747.7060,N,12215.4762,W,0.66,331.23,020412,,,D*78
$GPVTG,331.23,T,,M,0.66,N,1.2,K,N*01
$GPGGA,201713.700,3747.7035,N,12215.4765,W,2,03,2.1,25.1,M,-25.1,M,1.5,0000*78
$GPGSA,A,2,20,01,30,,,,,,,,,,2.3,2.1,1.0*30
$GPGSV,3,1,12,20,53,312,20,01,46,235,31,30,26,129,35,32,79,000,23*7E
$GPGSV,3,2,12,31,52,052,,24,34,194,,23,31,274,28,11,27,217,33*7D
$GPGSV,3,3,12,14,12,067,,16,09,151,35,25,06,038,,13,04,260,*78
$GPRMC,201713.700,A,3747.7035,N,12215.4765,W,3.79,190.35,020412,,,D*7D
$GPGGA,201714.700,3747.7050,N,12215.4765,W,2,03,2.1,25.1,M,-25.1,M,2.5,0000*7F
$GPGSA,A,2,20,01,30,,,,,,,,,,2.3,2.1,1.0*30
$GPRMC,201714.700,A,3747.7050,N,12215.4765,W,2.76,189.92,020412,,,D*72
$GPVTG,189.92,T,,M,2.76,N,5.1,K,N*0E
$GPGGA,201715.700,3747.7071,N,12215.4757,W,2,03,2.1,25.1,M,-25.1,M,1.5,0000*7F
$GPGSA,A,2,20,01,30,,,,,,,,,,2.3,2.1,1.0*30
$GPRMC,201715.700,A,3747.7071,N,12215.4757,W,0.36,215.64,020412,,,D*78
$GPVTG,215.64,T,,M,0.36,N,0.7,K,N*04
$GPGGA,201716.700,3747.7096,N,12215.4749,W,2,03,2.1,25.1,M,-25.1,M,1.5,0000*7A
$GPGSA,A,2,20,01,30,,,,,,,,,,2.3,2.1,1.0*30
$GPRMC,201716.700,A,3747.7096,N,12215.4749,W,0.78,196.30,020412,,,D*7E
$GPVTG,196.30,T,,M,0.78,N,1.4,K,N*05
$GPGGA,201717.700,3747.6993,N,12215.4765,W,2,03,2.1,25.1,M,-25.1,M,1.5,0000*78
$GPGSA,A,2,20,01,30,,,,,,,,,,2.3,2.1,1.0*30
$GPRMC,201717.700,A,3747.6993,N,12215.4765,W,2.26,192.88,020412,,,D*72
$GPVTG,192.88,T,,M,2.26,N,4.2,K,N*08
$GPGGA,201718.700,3747.6880,N,12215.4785,W,2,03,2.1,25.1,M,-25.1,M,2.5,0000*79
$GPGSA,A,2,20,01,30,,,,,,,,,,2.3,2.1,1.0*30
$GPGSV,3,1,12,20,53,312,20,01,46,234,30,30,26,129,36,32,79,001,18*74
$GPGSV,3,2,12,31,52,052,,24,34,194,,23,31,274,25,11,27,217,33*70
$GPGSV,3,3,12,14,12,067,,16,09,150,36,25,06,038,,13,04,260,*7A
$GPRMC,201718.700,A,3747.6880,N,12215.4785,W,1.30,192.03,020412,,,D*77
$GPVTG,192.03,T,,M,1.30,N,2.4,K,N*0F
$GPGGA,201719.700,3747.6870,N,12215.4785,W,2,03,2.1,25.1,M,-25.1,M,3.5,0000*76
$GPGSA,A,2,20,01,30,,,,,,,,,,2.3,2.1,1.0*30
$GPRMC,201719.700,A,3747.6870,N,12215.4785,W,2.38,7.43,020412,,,D*7B
$GPVTG,7.43,T,,M,2.38,N,4.4,K,N*0B
$GPGGA,201720.700,3747.6944,N,12215.4770,W,2,03,2.1,25.1,M,-25.1,M,4.5,0000*77
$GPGSA,A,2,20,01,30,,,,,,,,,,2.3,2.1,1.0*30
$GPRMC,201720.700,A,3747.6944,N,12215.4770,W,1.24,212.36,020412,,,D*77
$GPVTG,212.36,T,,M,1.24,N,2.3,K,N*00
$GPGGA,201721.700,3747.7022,N,12215.4756,W,2,03,2.1,25.1,M,-25.1,M,5.5,0000*7B
$GPGSA,A,2,20,01,30,,,,,,,,,,2.3,2.1,1.0*30
$GPRMC,201721.700,A,3747.7022,N,12215.4756,W,0.51,323.46,020412,,,D*7D
$GPVTG,323.46,T,,M,0.51,N,0.9,K,N*0F
$GPGGA,201722.700,3747.6988,N,12215.4764,W,2,03,2.1,25.1,M,-25.1,M,1.5,0000*75
$GPGSA,A,2,20,01,30,,,,,,,,,,2.3,2.1,1.0*30
$GPRMC,201722.700,A,3747.6988,N,12215.4764,W,0.54,273.69,020412,,,D*7B
$GPVTG,273.69,T,,M,0.54,N,1.0,K,N*0B
$GPGGA,201723.700,3747.7015,N,12215.4759,W,2,03,2.1,25.1,M,-25.1,M,2.5,0000*75
$GPGSA,A,2,20,01,30,,,,,,,,,,2.3,2.1,1.0*30
$GPGSV,3,1,12,20,53,312,21,01,46,234,31,30,26,129,36,32,79,001,20*7F
$GPGSV,3,2,12,31,52,052,,24,34,194,,23,31,274,31,11,27,217,30*76
$GPGSV,3,3,12,14,12,067,,16,09,150,33,25,06,038,,13,04,260,*7F
$GPRMC,201723.700,A,3747.7015,N,12215.4759,W,1.12,199.24,020412,,,D*75
$GPVTG,199.24,T,,M,1.12,N,2.1,K,N*04
$GPGGA,201724.700,3747.6998,N,12215.4761,W,2,03,2.1,25.1,M,-25.1,M,3.5,0000*75
$GPGSA,A,2,20,01,30,,,,,,,,,,2.3,2.1,1.0*30
$GPRMC,201724.700,A,3747.6998,N,12215.4761,W,3.18,191.27,020412,,,D*77
$GPVTG,191.27,T,,M,3.18,N,5.9,K,N*08
$GPGGA,201725.700,3747.7035,N,12215.4754,W,2,03,2.1,25.1,M,-25.1,M,4.5,0000*7A
$GPGSA,A,2,20,01,30,,,,,,,,,,2.3,2.1,1.0*30
$GPRMC,201725.700,A,3747.7035,N,12215.4754,W,0.23,219.44,020412,,,D*72
$GPVTG,219.44,T,,M,0.23,N,0.4,K,N*0D
$GPGGA,201726.700,3747.7032,N,12215.4754,W,2,03,2.1,25.1,M,-25.1,M,5.5,0000*7F
$GPGSA,A,2,20,01,30,,,,,,,,,,2.3,2.1,1.0*30
$GPRMC,201726.700,A,3747.7032,N,12215.4754,W,4.14,5.08,020412,,,D*71
$GPVTG,5.08,T,,M,4.14,N,7.7,K,N*0E
$GPGGA,201727.700,3747.7033,N,12215.4753,W,2,03,2.1,25.1,M,-25.1,M,1.5,0000*7C
$GPGSA,A,2,20,01,30,,,,,,,,,,2.3,2.1,1.0*30
$GPRMC,201727.700,A,3747.7033,N,12215.4753,W,0.52,1.36,020412,,,D*79
$GPVTG,1.36,T,,M,0.52,N,1.0,K,N*00
$GPGGA,201728.700,3747.7075,N,12215.4744,W,2,03,2.1,25.1,M,-25.1,M,2.5,0000*74
$GPGSA,A,2,20,01,30,,,,,,,,,,2.3,2.1,1.0*30
$GPGSV,3,1,12,20,53,312,21,01,46,234,30,30,26,129,37,32,79,001,20*7F
$GPGSV,3,2,12,31,52,052,16,24,34,194,,23,31,274,32,11,27,217,30*72
$GPGSV,3,3,12,14,12,067,,16,09,150,33,25,06,038,,13,04,260,*7F
$GPRMC,201728.700,A,3747.7075,N,12215.4744,W,0.17,200.02,020412,,,D*77
$GPGGA,201729.700,3747.7043,N,12215.4749,W,2,03,2.1,25.1,M,-25.1,M,3.5,0000*7C
$GPGSA,A,2,20,01,30,,,,,,,,,,2.3,2.1,1.0*30
$GPRMC,201729.700,A,3747.7043,N,12215.4749,W,1.15,183.29,020412,,,D*7C
$GPVTG,183.29,T,,M,1.15,N,2.1,K,N*05
$GPGGA,201730.700,3747.7083,N,12215.4735,W,2,03,2.1,25.1,M,-25.1,M,4.5,0000*74
$GPGSA,A,2,20,01,30,,,,,,,,,,2.3,2.1,1.0*30
$GPRMC,201730.700,A,3747.7083,N,12215.4735,W,0.30,138.53,020412,,,D*78
$GPVTG,138.53,T,,M,0.30,N,0.6,K,N*0B
$GPGGA,201731.700,3747.6984,N,12215.4758,W,2,03,2.1,25.1,M,-25.1,M,1.5,0000*74
$GPGSA,A,2,20,01,30,,,,,,,,,,2.3,2.1,1.0*30
$GPRMC,201731.700,A,3747.6984,N,12215.4758,W,2.83,190.28,020412,,,D*79
$GPVTG,190.28,T,,M,2.83,N,5.2,K,N*0E
$GPGGA,201732.700,3747.7022,N,12215.4751,W,2,03,2.1,25.1,M,-25.1,M,1.5,0000*7A
$GPGSA,A,2,20,01,30,,,,,,,,,,2.3,2.1,1.0*30
$GPRMC,201732.700,A,3747.7022,N,12215.4751,W,1.13,185.80,020412,,,D*7B
$GPVTG,185.80,T,,M,1.13,N,2.1,K,N*06
$GPGGA,201733.700,3747.7055,N,12215.4742,W,2,03,2.1,25.1,M,-25.1,M,1.5,0000*79
$GPGSA,A,2,20,01,30,,,,,,,,,,2.3,2.1,1.0*30
$GPGSV,3,1,12,20,53,312,22,01,46,234,31,30,26,129,39,32,79,001,23*70
$GPGSV,3,2,12,31,52,052,15,24,34,194,,23,31,274,28,11,27,217,32*78
$GPGSV,3,3,12,14,12,067,,16,09,150,38,25,06,038,,13,04,260,*74
$GPRMC,201733.700,A,3747.7055,N,12215.4742,W,0.22,339.30,020412,,,D*75
$GPVTG,339.30,T,,M,0.22,N,0.4,K,N*0C
$GPGGA,201734.700,3747.7034,N,12215.4746,W,2,03,2.1,25.1,M,-25.1,M,1.5,0000*7D
$GPGSA,A,2,20,01,30,,,,,,,,,,2.3,2.1,1.0*30
$GPRMC,201734.700,A,3747.7034,N,12215.4746,W,0.21,341.28,020412,,,D*74
$GPVTG,341.28,T,,M,0.21,N,0.4,K,N*09
$GPGGA,201735.700,3747.7004,N,12215.4757,W,2,03,2.1,25.1,M,-25.1,M,1.5,0000*7F
$GPGSA,A,2,20,01,30,,,,,,,,,,2.3,2.1,1.0*30
$GPRMC,201735.700,A,3747.7004,N,12215.4757,W,1.26,206.15,020412,,,D*7C
$GPVTG,206.15,T,,M,1.26,N,2.3,K,N*06
$GPGGA,201736.700,3747.7064,N,12215.4748,W,2,03,2.1,25.1,M,-25.1,M,2.5,0000*77
$GPGSA,A,2,20,01,30,,,,,,,,,,2.3,2.1,1.0*30
$GPRMC,201736.700,A,3747.7064,N,12215.4748,W,0.38,196.10,020412,,,D*76
$GPVTG,196.10,T,,M,0.38,N,0.7,K,N*01
$GPGGA,201737.700,3747.7064,N,12215.4749,W,2,03,2.1,25.1,M,-25.1,M,3.5,0000*76
$GPGSA,A,2,20,01,30,,,,,,,,,,2.3,2.1,1.0*30
$GPRMC,201737.700,A,3747.7064,N,12215.4749,W,0.74,202.84,020412,,,D*7D
$GPVTG,202.84,T,,M,0.74,N,1.4,K,N*08
$GPGGA,201738.700,3747.7070,N,12215.4747,W,2,03,2.1,25.1,M,-25.1,M,4.5,0000*75
$GPGSA,A,2,20,01,30,,,,,,,,,,2.3,2.1,1.0*30
$GPGSV,3,1,12,20,53,312,30,01,46,234,30,30,26,129,39,32,79,001,20*71
$GPGSV,3,2,12,31,52,052,15,24,34,194,,23,31,274,25,11,27,217,32*75
$GPGSV,3,3,12,14,12,067,,16,09,150,39,25,06,038,,13,04,260,*75
$GPRMC,201738.700,A,3747.7070,N,12215.4747,W,0.36,217.87,020412,,,D*78
$GPVTG,217.87,T,,M,0.36,N,0.7,K,N*0B
$GPGGA,201739.700,3747.7057,N,12215.4751,W,2,03,2.1,25.1,M,-25.1,M,5.5,0000*77
$GPGSA,A,2,20,01,30,,,,,,,,,,2.3,2.1,1.0*30
$GPRMC,201739.700,A,3747.7057,N,12215.4751,W,0.51,14.78,020412,,,D*4B
$GPVTG,14.78,T,,M,0.51,N,0.9,K,N*35
$GPGGA,201740.700,3747.7093,N,12215.4746,W,2,03,2.1,25.1,M,-25.1,M,6.5,0000*74
$GPGSA,A,2,20,01,30,,,,,,,,,,2.3,2.1,1.0*30
$GPRMC,201740.700,A,3747.7093,N,12215.4746,W,0.86,211.68,020412,,,D*77
$GPVTG,211.68,T,,M,0.86,N,1.6,K,N*07
$GPGGA,201741.700,3747.7042,N,12215.4755,W,2,03,2.1,25.1,M,-25.1,M,7.5,0000*7A
$GPGSA,A,2,20,01,30,,,,,,,,,,2.3,2.1,1.0*30
$GPRMC,201741.700,A,3747.7042,N,12215.4755,W,1.10,196.14,020412,,,D*71
$GPVTG,196.14,T,,M,1.10,N,2.0,K,N*0B
$GPGGA,201742.700,3747.7075,N,12215.4776,W,2,03,2.1,25.1,M,-25.1,M,8.5,0000*73
$GPGSA,A,2,20,01,30,,,,,,,,,,2.3,2.1,1.0*30
$GPRMC,201742.700,A,3747.7075,N,12215.4776,W,1.61,203.60,020412,,,D*7D
$GPVTG,203.60,T,,M,1.61,N,3.0,K,N*00
$GPGGA,201743.700,3747.7018,N,12215.4810,W,2,03,2.1,25.1,M,-25.1,M,9.5,0000*77
$GPGSA,A,2,20,01,30,,,,,,,,,,2.3,2.1,1.0*30
$GPGSV,3,1,12,20,53,312,23,01,46,234,20,30,26,129,39,32,79,001,21*73
$GPGSV,3,2,12,31,52,052,15,24,34,194,,23,31,274,28,11,27,217,29*72
$GPGSV,3,3,12,14,12,067,,16,09,150,39,25,06,038,,13,04,260,*75
$GPRMC,201743.700,A,3747.7018,N,12215.4810,W,1.82,214.15,020412,,,D*71
$GPGGA,201744.700,3747.6930,N,12215.4837,W,2,03,2.1,25.1,M,-25.1,M,1.5,0000*7F
$GPGSA,A,2,20,01,30,,,,,,,,,,2.3,2.1,1.0*30
$GPRMC,201744.700,A,3747.6930,N,12215.4837,W,0.07,69.24,020412,,,D*47
$GPVTG,69.24,T,,M,0.07,N,0.1,K,N*3D
$GPGGA,201745.700,3747.7016,N,12215.4788,W,2,03,2.1,25.1,M,-25.1,M,1.5,0000*79
$GPGSA,A,2,20,01,30,,,,,,,,,,2.3,2.1,1.0*30
$GPRMC,201745.700,A,3747.7016,N,12215.4788,W,0.50,176.04,020412,,,D*7E
$GPVTG,176.04,T,,M,0.50,N,0.9,K,N*0A
$GPGGA,201746.700,3747.7052,N,12215.4779,W,2,03,2.1,25.1,M,-25.1,M,2.5,0000*77
$GPGSA,A,2,20,01,30,,,,,,,,,,2.3,2.1,1.0*30
$GPRMC,201746.700,A,3747.7052,N,12215.4779,W,0.22,257.92,020412,,,D*79
$GPVTG,257.92,T,,M,0.22,N,0.4,K,N*0D
$GPGGA,201747.700,3747.7007,N,12215.4783,W,2,03,2.1,25.1,M,-25.1,M,1.5,0000*70
$GPGSA,A,2,20,01,30,,,,,,,,,,2.3,2.1,1.0*30
$GPRMC,201747.700,A,3747.7007,N,12215.4783,W,0.50,189.93,020412,,,D*79
$GPVTG,189.93,T,,M,0.50,N,0.9,K,N*04
$GPGGA,201748.700,3747.7030,N,12215.4771,W,2,03,2.1,25.1,M,-25.1,M,1.5,0000*76
$GPGSA,A,2,20,01,30,,,,,,,,,,2.3,2.1,1.0*30
$GPGSV,3,1,12,20,53,312,25,01,46,234,33,30,26,129,39,32,79,002,24*71
$GPGSV,3,2,12,31,52,052,15,24,34,194,,23,31,274,28,11,26,217,35*7E
$GPGSV,3,3,12,14,12,067,,16,10,150,40,25,06,038,,13,05,260,*72
$GPRMC,201748.700,A,3747.7030,N,12215.4771,W,0.46,185.84,020412,,,D*72
$GPVTG,185.84,T,,M,0.46,N,0.9,K,N*09
$GPGGA,201749.700,3747.7028,N,12215.4771,W,2,03,2.1,25.1,M,-25.1,M,2.5,0000*7D
$GPGSA,A,2,20,01,30,,,,,,,,,,2.3,2.1,1.0*30
$GPRMC,201749.700,A,3747.7028,N,12215.4771,W,2.88,195.18,020412,,,D*7E
$GPVTG,195.18,T,,M,2.88,N,5.3,K,N*02
$GPGGA,201750.700,3747.6963,N,12215.4784,W,2,03,2.1,25.1,M,-25.1,M,3.5,0000*79
$GPGSA,A,2,20,01,30,,,,,,,,,,2.3,2.1,1.0*30
$GPRMC,201750.700,A,3747.6963,N,12215.4784,W,0.68,214.92,020412,,,D*7F
$GPVTG,214.92,T,,M,0.68,N,1.3,K,N*02
$GPGGA,201751.700,3747.6953,N,12215.4828,W,2,03,2.1,25.1,M,-25.1,M,4.5,0000*75
$GPGSA,A,2,20,01,30,,,,,,,,,,2.3,2.1,1.0*30
$GPRMC,201751.700,A,3747.6953,N,12215.4828,W,0.74,221.59,020412,,,D*78
$GPVTG,221.59,T,,M,0.74,N,1.4,K,N*09
$GPGGA,201752.700,3747.7006,N,12215.4759,W,2,03,2.1,25.1,M,-25.1,M,5.5,0000*76
$GPGSA,A,2,20,01,30,,,,,,,,,,2.3,2.1,1.0*30
$GPRMC,201752.700,A,3747.7006,N,12215.4759,W,3.44,191.98,020412,,,D*7F
$GPVTG,191.98,T,,M,3.44,N,6.4,K,N*0B
$GPGGA,201753.700,3747.6974,N,12215.4800,W,2,03,2.1,25.1,M,-25.1,M,1.5,0000*7D
$GPGSA,A,2,20,01,30,,,,,,,,,,2.3,2.1,1.0*30
$GPGSV,3,1,12,20,53,312,24,01,46,234,24,30,26,129,40,32,79,002,19*76
$GPGSV,3,2,12,31,52,052,14,24,34,194,,23,31,274,28,11,26,217,22*79
$GPGSV,3,3,12,14,12,067,,16,10,150,39,25,06,038,,13,05,260,*7C
$GPRMC,201753.700,A,3747.6974,N,12215.4800,W,0.69,19.29,020412,,,D*47
$GPVTG,19.29,T,,M,0.69,N,1.3,K,N*3C
$GPGGA,201754.700,3747.7016,N,12215.4773,W,2,03,2.1,25.1,M,-25.1,M,2.5,0000*7E
$GPGSA,A,2,20,01,30,,,,,,,,,,2.3,2.1,1.0*30
$GPRMC,201754.700,A,3747.7016,N,12215.4773,W,0.44,258.94,020412,,,D*79
$GPVTG,258.94,T,,M,0.44,N,0.8,K,N*08
$GPGGA,201755.700,3747.7037,N,12215.4775,W,2,03,2.1,25.1,M,-25.1,M,1.5,0000*79
$GPGSA,A,2,20,01,30,,,,,,,,,,2.3,2.1,1.0*30
$GPRMC,201755.700,A,3747.7037,N,12215.4775,W,0.52,202.11,020412,,,D*78
$GPVTG,202.11,T,,M,0.52,N,1.0,K,N*04
$GPGGA,201756.700,3747.7013,N,12215.4783,W,2,03,2.1,25.1,M,-25.1,M,2.5,0000*76
$GPGSA,A,2,20,01,30,,,,,,,,,,2.3,2.1,1.0*30
$GPRMC,201756.700,A,3747.7013,N,12215.4783,W,0.52,341.61,020412,,,D*75
$GPVTG,341.61,T,,M,0.52,N,1.0,K,N*05
$GPGGA,201757.700,3747.6970,N,12215.4782,W,2,03,2.1,25.1,M,-25.1,M,1.5,0000*78
$GPGSA,A,2,20,01,30,,,,,,,,,,2.3,2.1,1.0*30
$GPRMC,201757.700,A,3747.6970,N,12215.4782,W,1.51,5.11,020412,,,D*7E
$GPVTG,5.11,T,,M,1.51,N,2.8,K,N*08
$GPGGA,201758.700,3747.6964,N,12215.4778,W,2,03,2.1,25.1,M,-25.1,M,1.5,0000*77
$GPGSA,A,2,20,01,30,,,,,,,,,,2.3,2.1,1.0*30
$GPGSV,3,1,12,20,53,312,24,01,46,234,30,30,26,129,40,32,79,002,20*79
$GPGSV,3,2,12,31,52,052,16,24,34,194,,23,31,274,26,11,26,217,35*73
$GPGSV,3,3,12,14,12,067,,16,10,150,39,25,06,038,,13,05,260,*7C
$GPRMC,201758.700,A,3747.6964,N,12215.4778,W,1.30,194.20,020412,,,D*7D
$GPGGA,201759.700,3747.6965,N,12215.4780,W,2,03,2.1,25.1,M,-25.1,M,2.5,0000*73
$GPGSA,A,2,20,01,30,,,,,,,,,,2.3,2.1,1.0*30
$GPRMC,201759.700,A,3747.6965,N,12215.4780,W,0.13,309.43,020412,,,D*79
$GPVTG,309.43,T,,M,0.13,N,0.2,K,N*0F
$GPGGA,201800.700,3747.6974,N,12215.4778,W,2,03,2.1,25.1,M,-25.1,M,3.5,0000*76
$GPGSA,A,2,20,01,30,,,,,,,,,,2.3,2.1,1.0*30
$GPRMC,201800.700,A,3747.6974,N,12215.4778,W,0.18,220.25,020412,,,D*7C
$GPVTG,220.25,T,,M,0.18,N,0.3,K,N*0F
$GPGGA,201801.700,3747.7051,N,12215.4758,W,2,03,2.1,25.1,M,-25.1,M,1.5,0000*78
$GPGSA,A,2,20,01,30,,,,,,,,,,2.3,2.1,1.0*30
$GPRMC,201801.700,A,3747.7051,N,12215.4758,W,1.34,192.78,020412,,,D*7D
$GPVTG,192.78,T,,M,1.34,N,2.5,K,N*06
$GPGGA,201802.700,3747.7048,N,12215.4778,W,2,03,2.1,25.1,M,-25.1,M,2.5,0000*72
$GPGSA,A,2,20,01,30,,,,,,,,,,2.3,2.1,1.0*30
$GPRMC,201802.700,A,3747.7048,N,12215.4778,W,0.99,175.96,020412,,,D*7B
$GPVTG,175.96,T,,M,0.99,N,1.8,K,N*07
$GPGGA,201803.700,3747.7014,N,12215.4782,W,2,03,2.1,25.1,M,-25.1,M,1.5,0000*7C
$GPGSA,A,2,20,01,30,,,,,,,,,,2.3,2.1,1.0*30
$GPGSV,3,1,12,20,53,312,24,01,46,234,32,30,26,129,41,32,79,002,23*79
$GPGSV,3,2,12,31,52,052,20,24,34,194,,23,31,274,27,11,26,217,34*76
$GPGSV,3,3,12,14,12,067,,16,10,150,40,25,06,038,,13,05,260,*72
$GPRMC,201803.700,A,3747.7014,N,12215.4782,W,0.52,207.54,020412,,,D*79
$GPVTG,207.54,T,,M,0.52,N,1.0,K,N*00
$GPGGA,201804.700,3747.6938,N,12215.4766,W,2,04,2.7,46.2,M,-25.1,M,1.5,0000*70
$GPGSA,A,3,20,01,16,30,,,,,,,,,5.9,2.7,5.2*3B
$GPRMC,201804.700,A,3747.6938,N,12215.4766,W,2.06,174.61,020412,,,D*70
$GPVTG,174.61,T,,M,2.06,N,3.8,K,D*02
$GPGGA,201805.700,3747.6972,N,12215.4771,W,2,04,2.7,41.2,M,-25.1,M,1.5,0000*7E
$GPGSA,A,3,20,01,16,30,,,,,,,,,5.9,2.7,5.2*3B
$GPRMC,201805.700,A,3747.6972,N,12215.4771,W,1.47,178.68,020412,,,D*7A
$GPVTG,178.68,T,,M,1.47,N,2.7,K,D*0F
$GPGGA,201806.700,3747.6962,N,12215.4772,W,2,04,2.7,42.0,M,-25.1,M,2.5,0000*7D
$GPGSA,A,3,20,01,16,30,,,,,,,,,5.9,2.7,5.2*3B
$GPRMC,201806.700,A,3747.6962,N,12215.4772,W,0.98,181.14,020412,,,D*75
$GPVTG,181.14,T,,M,0.98,N,1.8,K,D*0D
$GPGGA,201807.000,3747.6956,N,12215.4772,W,2,04,2.7,43.0,M,-25.1,M,2.8,0000*70
$GPGSA,A,3,20,01,16,30,,,,,,,,,5.9,2.7,5.2*3B
$GPRMC,201807.000,A,3747.6956,N,12215.4772,W,0.53,189.48,020412,,,D*72
$GPVTG,189.48,T,,M,0.53,N,1.0,K,D*03
$GPGGA,201808.000,3747.6978,N,12215.4775,W,2,04,2.7,39.2,M,-25.1,M,3.8,0000*7A
$GPGSA,A,3,20,01,16,30,,,,,,,,,5.9,2.7,5.2*3B
$GPGSV,3,1,12,20,53,312,18,01,46,234,33,30,26,129,41,16,10,150,40*7D
$GPGSV,3,2,12,32,79,002,24,31,52,052,12,24,34,194,,23,31,274,29*75
$GPGSV,3,3,12,11,26,216,34,14,12,067,,25,06,037,,13,05,260,*7D
$GPRMC,201808.000,A,3747.6978,N,12215.4775,W,0.39,331.24,020412,,,D*71
$GPVTG,331.24,T,,M,0.39,N,0.7,K,D*02
$GPGGA,201809.000,3747.6995,N,12215.4777,W,2,04,2.7,36.0,M,-25.1,M,4.8,0000*70
$GPGSA,A,3,20,01,16,30,,,,,,,,,5.9,2.7,5.2*3B
$GPRMC,201809.000,A,3747.6995,N,12215.4777,W,0.86,354.31,020412,,,D*72
$GPVTG,354.31,T,,M,0.86,N,1.6,K,D*01
$GPGGA,201810.000,3747.7002,N,12215.4778,W,2,04,2.7,34.7,M,-25.1,M,5.8,0000*75
$GPGSA,A,3,20,01,16,30,,,,,,,,,5.9,2.7,5.2*3B
$GPRMC,201810.000,A,3747.7002,N,12215.4778,W,0.95,348.49,020412,,,D*73
$GPVTG,348.49,T,,M,0.95,N,1.8,K,D*0F
$GPGGA,201811.000,3747.7006,N,12215.4780,W,2,04,2.7,34.0,M,-25.1,M,1.8,0000*74
$GPGSA,A,3,20,01,16,30,,,,,,,,,5.9,2.7,5.2*3B
$GPRMC,201811.000,A,3747.7006,N,12215.4780,W,0.51,340.38,020412,,,D*77
$GPVTG,340.38,T,,M,0.51,N,0.9,K,D*09
$GPGGA,201812.000,3747.6996,N,12215.4779,W,2,04,2.7,35.6,M,-25.1,M,0.8,0000*76
$GPGSA,A,3,20,01,16,30,,,,,,,,,5.9,2.7,5.2*3B
$GPRMC,201812.000,A,3747.6996,N,12215.4779,W,0.22,203.64,020412,,,D*78
$GPVTG,203.64,T,,M,0.22,N,0.4,K,D*0F
$GPGGA,201813.000,3747.6987,N,12215.4779,W,2,04,2.7,37.0,M,-25.1,M,1.8,0000*72
$GPGSA,A,3,20,01,16,30,,,,,,,,,5.9,2.7,5.2*3B
$GPGSV,3,1,12,20,53,312,23,01,46,234,34,30,26,129,42,16,10,150,40*71
$GPGSV,3,2,12,32,79,002,26,31,52,052,,24,34,194,,23,31,274,30*7C
$GPGSV,3,3,12,11,26,216,34,14,12,067,,25,06,037,,13,05,260,*7D
$GPRMC,201813.000,A,3747.6987,N,12215.4779,W,0.65,191.87,020412,,,D*7F
$GPGGA,201814.000,3747.6975,N,12215.4779,W,2,04,2.7,38.9,M,-25.1,M,2.8,0000*7D
$GPGSA,A,3,20,01,16,30,,,,,,,,,5.9,2.7,5.2*3B
$GPRMC,201814.000,A,3747.6975,N,12215.4779,W,0.67,188.12,020412,,,D*73
$GPVTG,188.12,T,,M,0.67,N,1.2,K,D*08
$GPGGA,201815.000,3747.6970,N,12215.4779,W,2,04,2.7,39.8,M,-25.1,M,3.8,0000*78
$GPGSA,A,3,20,01,16,30,,,,,,,,,5.9,2.7,5.2*3B
$GPRMC,201815.000,A,3747.6970,N,12215.4779,W,0.90,186.47,020412,,,D*71
$GPVTG,186.47,T,,M,0.90,N,1.7,K,D*0B
$GPGGA,201816.000,3747.6965,N,12215.4779,W,2,04,2.7,40.6,M,-25.1,M,1.8,0000*7D
$GPGSA,A,3,20,01,16,30,,,,,,,,,5.9,2.7,5.2*3B
$GPRMC,201816.000,A,3747.6965,N,12215.4779,W,0.71,186.93,020412,,,D*70
$GPVTG,186.93,T,,M,0.71,N,1.3,K,D*09
$GPGGA,201817.000,3747.6960,N,12215.4779,W,2,04,2.7,41.7,M,-25.1,M,1.8,0000*79
$GPGSA,A,3,20,01,16,30,,,,,,,,,5.9,2.7,5.3*3A
$GPRMC,201817.000,A,3747.6960,N,12215.4779,W,0.99,178.64,020412,,,D*7B
$GPVTG,178.64,T,,M,0.99,N,1.8,K,D*0D
$GPGGA,201818.000,3747.6955,N,12215.4778,W,2,04,2.7,42.8,M,-25.1,M,1.8,0000*7D
$GPGSA,A,3,20,01,16,30,,,,,,,,,5.9,2.7,5.3*3A
$GPGSV,3,1,12,32,79,003,27,20,54,312,23,31,52,052,,01,46,234,35*71
$GPGSV,3,2,12,24,34,194,,23,31,274,31,30,26,129,42,11,26,216,34*7B
$GPGSV,3,3,12,14,12,067,,16,10,150,39,25,06,037,,13,05,260,*73
$GPRMC,201818.000,A,3747.6955,N,12215.4778,W,0.92,176.74,020412,,,D*77
$GPVTG,176.74,T,,M,0.92,N,1.7,K,D*06
$GPGGA,201819.000,3747.6947,N,12215.4777,W,2,04,2.7,44.3,M,-25.1,M,2.8,0000*7E
$GPGSA,A,3,20,01,16,30,,,,,,,,,5.9,2.7,5.3*3A
$GPRMC,201819.000,A,3747.6947,N,12215.4777,W,0.86,177.14,020412,,,D*78
$GPVTG,177.14,T,,M,0.86,N,1.6,K,D*05
$GPGGA,201820.000,3747.6953,N,12215.4777,W,2,04,2.7,43.5,M,-25.1,M,3.8,0000*71
$GPGSA,A,3,20,01,16,30,,,,,,,,,5.9,2.7,5.3*3A
$GPRMC,201820.000,A,3747.6953,N,12215.4777,W,0.87,178.84,020412,,,D*70
$GPVTG,178.84,T,,M,0.87,N,1.6,K,D*02
$GPGGA,201821.000,3747.6960,N,12215.4777,W,2,04,2.7,42.5,M,-25.1,M,1.8,0000*73
$GPGSA,A,3,20,01,16,30,,,,,,,,,5.9,2.7,5.3*3A
$GPRMC,201821.000,A,3747.6960,N,12215.4777,W,0.08,170.63,020412,,,D*77
$GPVTG,170.63,T,,M,0.08,N,0.2,K,D*01
$GPGGA,201822.000,3747.6965,N,12215.4777,W,2,04,2.7,41.8,M,-25.1,M,1.8,0000*7B
$GPGSA,A,3,20,01,16,30,,,,,,,,,5.9,2.7,5.3*3A
$GPRMC,201822.000,A,3747.6965,N,12215.4777,W,0.14,26.73,020412,,,D*4F
$GPVTG,26.73,T,,M,0.14,N,0.3,K,D*3E
$GPGGA,201823.000,3747.6976,N,12215.4777,W,2,04,2.7,40.4,M,-25.1,M,1.8,0000*75
$GPGSA,A,3,20,01,16,30,,,,,,,,,5.9,2.7,5.3*3A
$GPGSV,3,1,12,32,79,003,18,20,54,312,24,31,52,052,22,01,46,234,36*79
$GPGSV,3,2,12,24,34,194,,23,31,274,31,30,26,129,41,11,26,216,35*79
$GPGSV,3,3,12,14,12,067,,16,10,150,40,25,06,037,,13,05,260,*7D
$GPRMC,201823.000,A,3747.6976,N,12215.4777,W,0.64,354.12,020412,,,D*7A
$GPVTG,354.12,T,,M,0.64,N,1.2,K,D*08
$GPGGA,201824.000,3747.6980,N,12215.4777,W,2,04,2.7,39.9,M,-25.1,M,1.8,0000*78
$GPGSA,A,3,20,01,16,30,,,,,,,,,5.9,2.7,5.3*3A
$GPRMC,201824.000,A,3747.6980,N,12215.4777,W,0.25,326.57,020412,,,D*75
$GPVTG,326.57,T,,M,0.25,N,0.5,K,D*0F
$GPGGA,201825.000,3747.6982,N,12215.4778,W,2,04,2.7,39.6,M,-25.1,M,2.8,0000*78
$GPGSA,A,3,20,01,16,30,,,,,,,,,5.9,2.7,5.3*3A
$GPRMC,201825.000,A,3747.6982,N,12215.4778,W,0.14,294.62,020412,,,D*75
$GPVTG,294.62,T,,M,0.14,N,0.3,K,D*05
$GPGGA,201826.000,3747.6985,N,12215.4778,W,2,04,2.7,39.3,M,-25.1,M,3.8,0000*78
$GPGSA,A,3,20,01,16,30,,,,,,,,,5.9,2.7,5.3*3A
$GPRMC,201826.000,A,3747.6985,N,12215.4778,W,0.07,217.21,020412,,,D*7F
$GPVTG,217.21,T,,M,0.07,N,0.1,K,D*09
$GPGGA,201827.000,3747.6986,N,12215.4778,W,2,04,2.7,39.1,M,-25.1,M,4.8,0000*7F
$GPGSA,A,3,20,01,16,30,,,,,,,,,5.9,2.7,5.3*3A
$GPRMC,201827.000,A,3747.6986,N,12215.4778,W,0.12,226.63,020412,,,D*7D
$GPVTG,226.63,T,,M,0.12,N,0.2,K,D*0A
$GPGGA,201828.000,3747.6992,N,12215.4778,W,2,04,2.7,37.8,M,-25.1,M,1.8,0000*77
$GPGSA,A,3,20,01,16,30,,,,,,,,,5.9,2.7,5.3*3A
$GPGSV,3,1,12,32,79,003,26,20,54,312,25,31,52,052,22,01,46,234,28*7A
$GPGSV,3,2,12,24,34,194,,23,31,274,31,30,26,129,41,11,26,216,35*79
$GPGSV,3,3,12,14,12,067,,16,10,150,40,25,06,037,,13,05,260,*7D
$GPRMC,201828.000,A,3747.6992,N,12215.4778,W,0.30,243.57,020412,,,D*73
$GPGGA,201829.000,3747.6997,N,12215.4780,W,2,04,2.7,36.5,M,-25.1,M,1.8,0000*78
$GPGSA,A,3,20,01,16,30,,,,,,,,,5.9,2.7,5.3*3A
$GPRMC,201829.000,A,3747.6997,N,12215.4780,W,1.48,234.51,020412,,,D*78
$GPVTG,234.51,T,,M,1.48,N,2.7,K,D*01
$GPGGA,201830.000,3747.7002,N,12215.4782,W,2,04,2.7,35.3,M,-25.1,M,1.8,0000*73
$GPGSA,A,3,20,01,16,30,,,,,,,,,5.9,2.7,5.3*3A
$GPRMC,201830.000,A,3747.7002,N,12215.4782,W,0.36,253.48,020412,,,D*77
$GPVTG,253.48,T,,M,0.36,N,0.7,K,D*02
$GPGGA,201831.000,3747.7008,N,12215.4781,W,2,04,2.7,34.1,M,-25.1,M,2.8,0000*7B
$GPGSA,A,3,20,01,16,30,,,,,,,,,5.9,2.7,5.3*3A
$GPRMC,201831.000,A,3747.7008,N,12215.4781,W,0.14,320.37,020412,,,D*72
$GPVTG,320.37,T,,M,0.14,N,0.3,K,D*0B
$GPGGA,201832.000,3747.7009,N,12215.4781,W,2,03,4.4,33.9,M,-25.1,M,3.8,0000*75
$GPGSA,A,2,01,16,30,,,,,,,,,,4.5,4.4,1.0*36
$GPRMC,201832.000,A,3747.7009,N,12215.4781,W,0.22,344.46,020412,,,D*71
$GPVTG,344.46,T,,M,0.22,N,0.4,K,D*0D
$GPGGA,201833.000,3747.7014,N,12215.4781,W,2,04,2.7,33.2,M,-25.1,M,4.8,0000*76
$GPGSA,A,3,20,01,16,30,,,,,,,,,5.9,2.7,5.3*3A
$GPGSV,3,1,12,32,79,003,26,20,54,312,23,31,52,052,16,01,46,234,32*70
$GPGSV,3,2,12,24,34,194,,23,31,274,19,30,26,129,39,11,26,216,28*70
$GPGSV,3,3,12,14,12,067,,16,10,150,35,25,06,037,,13,05,260,*7F
$GPRMC,201833.000,A,3747.7014,N,12215.4781,W,0.36,352.07,020412,,,D*7B
$GPVTG,352.07,T,,M,0.36,N,0.7,K,D*09
$GPGGA,201834.000,3747.7015,N,12215.4781,W,2,04,2.7,33.1,M,-25.1,M,1.8,0000*76
$GPGSA,A,3,20,01,16,30,,,,,,,,,5.9,2.7,5.3*3A
$GPRMC,201834.000,A,3747.7015,N,12215.4781,W,0.32,346.58,020412,,,D*76
$GPVTG,346.58,T,,M,0.32,N,0.6,K,D*03
$GPGGA,201835.000,3747.7017,N,12215.4780,W,2,04,2.7,32.7,M,-25.1,M,1.8,0000*73
$GPGSA,A,3,20,01,16,30,,,,,,,,,5.9,2.7,5.3*3A
$GPRMC,201835.000,A,3747.7017,N,12215.4780,W,0.03,289.93,020412,,,D*73
$GPVTG,289.93,T,,M,0.03,N,0.0,K,D*02
$GPGGA,201836.000,3747.7018,N,12215.4781,W,2,04,2.7,32.5,M,-25.1,M,1.8,0000*7C
$GPGSA,A,3,20,01,16,30,,,,,,,,,5.9,2.7,5.3*3A
$GPRMC,201836.000,A,3747.7018,N,12215.4781,W,0.39,205.76,020412,,,D*78
$GPVTG,205.76,T,,M,0.39,N,0.7,K,D*03
$GPGGA,201837.000,3747.7022,N,12215.4781,W,2,04,2.7,31.9,M,-25.1,M,1.8,0000*7B
$GPGSA,A,3,20,01,16,30,,,,,,,,,5.9,2.7,5.3*3A
$GPRMC,201837.000,A,3747.7022,N,12215.4781,W,0.45,322.41,020412,,,D*7B
$GPVTG,322.41,T,,M,0.45,N,0.8,K,D*07
$GPGGA,201838.000,3747.7019,N,12215.4782,W,2,04,2.7,32.2,M,-25.1,M,2.8,0000*74
$GPGSA,A,3,20,01,16,30,,,,,,,,,5.9,2.7,5.3*3A
$GPGSV,3,1,12,32,79,003,18,20,54,312,25,31,52,052,16,01,46,234,34*7D
$GPGSV,3,2,12,24,34,194,,23,31,274,30,30,26,129,40,11,26,216,37*7B
$GPGSV,3,3,12,14,12,067,,16,10,150,34,25,06,037,,13,05,260,*7E
$GPRMC,201838.000,A,3747.7019,N,12215.4782,W,0.28,293.11,020412,,,D*7A
$GPVTG,293.11,T,,M,0.28,N,0.5,K,D*0F
$GPGGA,201839.000,3747.7017,N,12215.4782,W,2,04,2.7,32.3,M,-25.1,M,3.8,0000*7B
$GPGSA,A,3,20,01,16,30,,,,,,,,,5.9,2.7,5.3*3A
$GPRMC,201839.000,A,3747.7017,N,12215.4782,W,0.32,269.06,020412,,,D*7D
$GPVTG,269.06,T,,M,0.32,N,0.6,K,D*04
$GPGGA,201839.000,3747.7013,N,12215.4783,W,2,04,2.7,32.8,M,-25.1,M,1.8,0000*77
$GPGSA,A,3,20,01,16,30,,,,,,,,,5.9,2.7,5.3*3A
$GPRMC,201839.000,A,3747.7013,N,12215.4783,W,0.43,233.67,020412,,,D*76
$GPVTG,233.67,T,,M,0.43,N,0.8,K,D*04
$GPGGA,201840.000,3747.7019,N,12215.4780,W,2,04,2.7,31.5,M,-25.1,M,1.8,0000*7E
$GPGSA,A,3,20,01,16,30,,,,,,,,,5.9,2.7,5.3*3A
$GPRMC,201840.000,A,3747.7019,N,12215.4780,W,0.23,302.89,020412,,,D*74
$GPVTG,302.89,T,,M,0.23,N,0.4,K,D*0D
$GPGGA,201841.000,3747.7013,N,12215.4778,W,2,04,2.7,32.1,M,-25.1,M,1.8,0000*75
$GPGSA,A,3,20,01,16,30,,,,,,,,,5.9,2.7,5.3*3A
$GPRMC,201841.000,A,3747.7013,N,12215.4778,W,0.36,122.42,020412,,,D*7B
$GPVTG,122.42,T,,M,0.36,N,0.7,K,D*0D
$GPGGA,201842.000,3747.7010,N,12215.4775,W,2,04,2.7,32.4,M,-25.1,M,1.8,0000*7D
$GPGSA,A,3,20,01,16,30,,,,,,,,,5.9,2.7,5.3*3A
