$ADVER,3080,2.3
$GPRMC,184004.430,A,3748.7977,N,12217.8618,W,0.07,149.80,141112,,,A*71
$GPGGA,184005.430,3748.7977,N,12217.8618,W,1,07,1.6,-3.8,M,-25.1,M,,0000*4A
$GPGSA,A,3,05,25,29,12,31,10,02,,,,,,2.8,1.6,2.3*35
$GPRMC,184005.430,A,3748.7977,N,12217.8618,W,0.06,142.51,141112,,,A*76
$GPVTG,142.51,T,,M,0.06,N,0.1,K,A*09
$GPGGA,184006.000,3748.7977,N,12217.8618,W,1,07,1.6,-3.7,M,-25.1,M,,0000*41
$GPGSA,A,3,05,25,29,12,31,10,02,,,,,,2.8,1.6,2.3*35
$GPRMC,184006.000,A,3748.7977,N,12217.8618,W,0.10,90.12,141112,,,A*4C
$GPVTG,90.12,T,,M,0.10,N,0.2,K,A*34
$GPGGA,184007.000,3748.7978,N,12217.8618,W,1,07,1.6,-3.6,M,-25.1,M,,0000*4E
$GPGSA,A,3,05,25,29,12,31,10,02,,,,,,2.8,1.6,2.3*35
$GPRMC,184007.000,A,3748.7978,N,12217.8618,W,0.55,327.26,141112,,,A*7B
$GPVTG,327.26,T,,M,0.55,N,1.0,K,A*0E
$GPGGA,184008.000,3748.7979,N,12217.8620,W,1,07,1.6,-3.6,M,-25.1,M,,0000*4B
$GPGSA,A,3,05,25,29,12,31,10,02,,,,,,2.8,1.6,2.3*35
$GPGSV,3,1,11,25,69,285,36,12,62,166,39,05,49,118,43,02,47,047,42*76
$GPGSV,3,2,11,29,45,305,34,10,23,051,35,31,14,309,32,24,20,235,*7D
$GPGSV,3,3,11,21,13,237,30,04,01,053,,48,00,000,39*48
$GPRMC,184008.000,A,3748.7979,N,12217.8620,W,0.59,294.37,141112,,,A*7B
$GPVTG,294.37,T,,M,0.59,N,1.1,K,A*0A
$GPGGA,184009.000,3748.7981,N,12217.8619,W,1,07,1.6,-2.1,M,-25.1,M,,0000*41
$GPGSA,A,3,05,25,29,12,31,10,02,,,,,,2.8,1.6,2.3*35
$GPRMC,184009.000,A,3748.7981,N,12217.8619,W,0.31,235.58,141112,,,A*7B
$GPVTG,235.58,T,,M,0.31,N,0.6,K,A*00
$GPGGA,184010.000,3748.7979,N,12217.8620,W,1,07,1.6,-2.5,M,-25.1,M,,0000*40
$GPGSA,A,3,05,25,29,12,31,10,02,,,,,,2.8,1.6,2.3*35
$GPRMC,184010.000,A,3748.7979,N,12217.8620,W,0.19,260.50,141112,,,A*7C
$GPVTG,260.50,T,,M,0.19,N,0.4,K,A*00
$GPGGA,184011.000,3748.7979,N,12217.8620,W,1,07,1.6,-2.8,M,-25.1,M,,0000*4C
$GPGSA,A,3,05,25,29,12,31,10,02,,,,,,2.8,1.6,2.3*35
$GPRMC,184011.000,A,3748.7979,N,12217.8620,W,0.10,204.22,141112,,,A*73
$GPVTG,204.22,T,,M,0.10,N,0.2,K,A*08
$GPGGA,184012.000,3748.7979,N,12217.8621,W,1,07,1.6,-3.2,M,-25.1,M,,0000*45
$GPGSA,A,3,05,25,29,12,31,10,02,,,,,,2.8,1.6,2.3*35
$GPRMC,184012.000,A,3748.7979,N,12217.8621,W,0.34,326.53,141112,,,A*70
$GPVTG,326.53,T,,M,0.34,N,0.6,K,A*0D
$GPGGA,184013.000,3748.7975,N,12217.8623,W,1,07,1.6,-3.4,M,-25.1,M,,0000*4C
$GPGSA,A,3,05,25,29,12,31,10,02,,,,,,2.8,1.6,2.3*35
$GPGSV,3,1,11,25,69,285,28,12,62,166,28,05,49,118,25,02,47,047,29*74
$GPGSV,3,2,11,29,45,305,28,10,23,051,27,31,14,309,22,24,20,235,*72
$GPGSV,3,3,11,21,13,237,26,04,01,053,,48,00,000,30*46
$GPRMC,184013.000,A,3748.7975,N,12217.8623,W,0.93,252.33,141112,,,A*76
$GPVTG,252.33,T,,M,0.93,N,1.7,K,A*04
$GPGGA,184014.000,3748.7967,N,12217.8627,W,1,07,1.6,-4.4,M,-25.1,M,,0000*4B
$GPGSA,A,3,05,25,29,12,31,10,02,,,,,,2.8,1.6,2.3*35
$GPRMC,184014.000,A,3748.7967,N,12217.8627,W,2.13,209.32,141112,,,A*73
$GPVTG,209.32,T,,M,2.13,N,3.9,K,A*0D
$GPGGA,184015.000,3748.7958,N,12217.8631,W,1,07,1.6,-4.7,M,-25.1,M,,0000*42
$GPGSA,A,3,05,25,29,12,31,10,02,,,,,,2.8,1.6,2.3*35
$GPRMC,184015.000,A,3748.7958,N,12217.8631,W,2.72,204.35,141112,,,A*74
$GPVTG,204.35,T,,M,2.72,N,5.0,K,A*0F
$GPGGA,184016.000,3748.7950,N,12217.8635,W,1,07,1.6,-4.8,M,-25.1,M,,0000*42
$GPGSA,A,3,05,25,29,12,31,10,02,,,,,,2.8,1.6,2.3*35
$GPRMC,184016.000,A,3748.7950,N,12217.8635,W,2.76,205.24,141112,,,A*7E
$GPVTG,205.24,T,,M,2.76,N,5.1,K,A*0B
$GPGGA,184017.000,3748.7942,N,12217.8640,W,1,07,1.6,-4.9,M,-25.1,M,,0000*43
$GPGSA,A,3,05,25,29,12,31,10,02,,,,,,2.8,1.6,2.3*35
$GPRMC,184017.000,A,3748.7942,N,12217.8640,W,2.76,212.22,141112,,,A*7E
$GPVTG,212.22,T,,M,2.76,N,5.1,K,A*0B
$GPGGA,184018.000,3748.7935,N,12217.8646,W,1,07,1.6,-4.9,M,-25.1,M,,0000*4A
$GPGSA,A,3,05,25,29,12,31,10,02,,,,,,2.8,1.6,2.3*35
$GPGSV,3,1,11,25,69,284,36,12,62,166,39,05,49,118,40,02,47,047,32*73
$GPGSV,3,2,11,29,45,305,36,10,23,051,26,24,20,235,,31,14,309,28*76
$GPGSV,3,3,11,21,13,237,32,04,01,053,,48,44,197,33*4F
$GPRMC,184018.000,A,3748.7935,N,12217.8646,W,2.73,209.61,141112,,,A*7F
$GPVTG,209.61,T,,M,2.73,N,5.1,K,A*03
$GPGGA,184019.000,3748.7928,N,12217.8650,W,1,07,1.6,-4.8,M,-25.1,M,,0000*41
$GPGSA,A,3,05,25,29,12,31,10,02,,,,,,2.8,1.6,2.3*35
$GPRMC,184019.000,A,3748.7928,N,12217.8650,W,2.68,209.24,141112,,,A*7E
$GPVTG,209.24,T,,M,2.68,N,5.0,K,A*09
$GPGGA,184020.000,3748.7921,N,12217.8655,W,1,07,1.6,-4.7,M,-25.1,M,,0000*48
$GPGSA,A,3,05,25,29,12,31,10,02,,,,,,2.8,1.6,2.3*35
$GPRMC,184020.000,A,3748.7921,N,12217.8655,W,2.64,210.21,141112,,,A*79
$GPVTG,210.21,T,,M,2.64,N,4.9,K,A*00
$GPGGA,184021.000,3748.7918,N,12217.8659,W,1,07,1.6,-4.5,M,-25.1,M,,0000*4D
$GPGSA,A,3,05,25,29,12,31,10,02,,,,,,2.8,1.6,2.3*35
$GPRMC,184021.000,A,3748.7918,N,12217.8659,W,2.23,213.81,141112,,,A*74
$GPVTG,213.81,T,,M,2.23,N,4.1,K,A*02
$GPGGA,184022.000,3748.7913,N,12217.8666,W,1,07,1.6,-3.3,M,-25.1,M,,0000*48
$GPGSA,A,3,05,25,29,12,31,10,02,,,,,,2.8,1.6,2.3*35
$GPRMC,184022.000,A,3748.7913,N,12217.8666,W,2.93,222.79,141112,,,A*7E
$GPVTG,222.79,T,,M,2.93,N,5.4,K,A*08
$GPGGA,184023.000,3748.7909,N,12217.8671,W,1,07,1.6,-3.4,M,-25.1,M,,0000*43
$GPGSA,A,3,05,25,29,12,31,10,02,,,,,,2.8,1.6,2.3*35
$GPGSV,3,1,11,25,69,284,33,12,62,166,35,05,49,118,29,02,47,047,35*72
$GPGSV,3,2,11,29,45,305,35,10,23,051,33,24,20,235,,31,14,309,29*70
$GPGSV,3,3,11,21,13,237,31,04,01,053,,48,44,197,33*4C
$GPRMC,184023.000,A,3748.7909,N,12217.8671,W,2.62,225.18,141112,,,A*7C
$GPGGA,184024.000,3748.7905,N,12217.8676,W,1,07,1.6,-3.8,M,-25.1,M,,0000*43
$GPGSA,A,3,05,25,29,12,31,10,02,,,,,,2.8,1.6,2.3*35
$GPRMC,184024.000,A,3748.7905,N,12217.8676,W,2.50,223.08,141112,,,A*76
$GPVTG,223.08,T,,M,2.50,N,4.6,K,A*03
$GPGGA,184025.000,3748.7901,N,12217.8681,W,1,07,1.6,-3.3,M,-25.1,M,,0000*45
$GPGSA,A,3,05,25,29,12,31,10,02,,,,,,2.8,1.6,2.3*35
$GPRMC,184025.000,A,3748.7901,N,12217.8681,W,2.23,227.01,141112,,,A*72
$GPVTG,227.01,T,,M,2.23,N,4.1,K,A*0D
$GPGGA,184026.000,3748.7898,N,12217.8684,W,1,07,1.6,-2.9,M,-25.1,M,,0000*49
$GPGSA,A,3,05,25,29,12,31,10,02,,,,,,2.8,1.6,2.3*35
$GPRMC,184026.000,A,3748.7898,N,12217.8684,W,1.05,196.87,141112,,,A*75
$GPVTG,196.87,T,,M,1.05,N,2.0,K,A*0A
$GPGGA,184027.000,3748.7898,N,12217.8683,W,1,07,1.6,-2.1,M,-25.1,M,,0000*47
$GPGSA,A,3,05,25,29,12,31,10,02,,,,,,2.8,1.6,2.3*35
$GPRMC,184027.000,A,3748.7898,N,12217.8683,W,0.10,93.33,141112,,,A*4D
$GPVTG,93.33,T,,M,0.10,N,0.2,K,A*34
$GPGGA,184028.000,3748.7898,N,12217.8677,W,1,07,1.6,-1.3,M,-25.1,M,,0000*42
$GPGSA,A,3,05,25,29,12,31,10,02,,,,,,2.8,1.6,2.3*35
$GPGSV,3,1,10,25,69,284,27,12,62,166,23,05,49,118,36,02,47,047,37*7D
$GPGSV,3,2,10,29,45,305,31,10,23,051,36,24,20,235,,31,14,309,31*79
$GPGSV,3,3,10,21,13,237,17,04,01,053,*7A
$GPRMC,184028.000,A,3748.7898,N,12217.8677,W,1.53,115.22,141112,,,A*70
$GPVTG,115.22,T,,M,1.53,N,2.8,K,A*05
$GPGGA,184029.000,3748.7893,N,12217.8675,W,1,07,1.6,-1.3,M,-25.1,M,,0000*4A
$GPGSA,A,3,05,25,29,12,31,10,02,,,,,,2.8,1.6,2.3*35
$GPRMC,184029.000,A,3748.7893,N,12217.8675,W,1.66,167.59,141112,,,A*77
$GPVTG,167.59,T,,M,1.66,N,3.1,K,A*02
$GPGGA,184030.000,3748.7892,N,12217.8680,W,1,07,1.6,-1.4,M,-25.1,M,,0000*4E
$GPGSA,A,3,05,25,29,12,31,10,02,,,,,,2.8,1.6,2.3*35
$GPRMC,184030.000,A,3748.7892,N,12217.8680,W,1.53,187.97,141112,,,A*7E
$GPVTG,187.97,T,,M,1.53,N,2.8,K,A*00
$GPGGA,184031.000,3748.7887,N,12217.8684,W,1,07,1.6,-1.6,M,-25.1,M,,0000*4D
$GPGSA,A,3,05,25,29,12,31,10,02,,,,,,2.8,1.6,2.3*35
$GPRMC,184031.000,A,3748.7887,N,12217.8684,W,1.78,192.77,141112,,,A*7C
$GPVTG,192.77,T,,M,1.78,N,3.3,K,A*09
$GPGGA,184032.000,3748.7880,N,12217.8684,W,1,07,1.6,-2.9,M,-25.1,M,,0000*45
$GPGSA,A,3,05,25,29,12,31,10,02,,,,,,2.8,1.6,2.3*35
$GPRMC,184032.000,A,3748.7880,N,12217.8684,W,0.76,195.78,141112,,,A*7F
$GPVTG,195.78,T,,M,0.76,N,1.4,K,A*0B
$GPGGA,184033.000,3748.7876,N,12217.8691,W,1,07,1.6,-3.7,M,-25.1,M,,0000*46
$GPGSA,A,3,05,25,29,12,31,10,02,,,,,,2.8,1.6,2.3*35
$GPGSV,3,1,10,25,69,284,25,12,62,166,22,05,49,118,22,02,47,047,29*74
$GPGSV,3,2,10,29,45,305,22,10,23,051,28,24,20,235,,31,14,309,17*70
$GPGSV,3,3,10,21,13,237,15,04,01,053,*78
$GPRMC,184033.000,A,3748.7876,N,12217.8691,W,1.07,277.74,141112,,,A*77
$GPVTG,277.74,T,,M,1.07,N,2.0,K,A*08
$GPGGA,184034.000,3748.7875,N,12217.8690,W,1,07,1.6,-3.1,M,-25.1,M,,0000*45
$GPGSA,A,3,05,25,29,12,31,10,02,,,,,,2.8,1.6,2.3*35
$GPRMC,184034.000,A,3748.7875,N,12217.8690,W,0.17,276.33,141112,,,A*70
$GPVTG,276.33,T,,M,0.17,N,0.3,K,A*0B
$GPGGA,184035.000,3748.7878,N,12217.8695,W,1,06,2.0,-3.0,M,-25.1,M,,0000*49
$GPGSA,A,3,05,25,29,12,10,02,,,,,,,4.9,2.0,4.4*34
$GPRMC,184035.000,A,3748.7878,N,12217.8695,W,1.29,273.98,141112,,,A*71
$GPVTG,273.98,T,,M,1.29,N,2.4,K,A*06
$GPGGA,184036.000,3748.7878,N,12217.8696,W,1,06,2.0,-3.1,M,-25.1,M,,0000*48
$GPGSA,A,3,05,25,29,12,10,02,,,,,,,4.9,2.0,4.4*34
$GPRMC,184036.000,A,3748.7878,N,12217.8696,W,0.24,239.89,141112,,,A*73
$GPVTG,239.89,T,,M,0.24,N,0.4,K,A*06
$GPGGA,184037.000,3748.7876,N,12217.8695,W,1,05,2.3,-4.4,M,-25.1,M,,0000*46
$GPGSA,A,3,05,25,29,10,02,,,,,,,,5.0,2.3,4.5*3D
$GPRMC,184037.000,A,3748.7876,N,12217.8695,W,0.21,2.03,141112,,,A*72
$GPVTG,2.03,T,,M,0.21,N,0.4,K,A*0B
$GPGGA,184038.000,3748.7882,N,12217.8692,W,1,05,2.8,-5.3,M,-25.1,M,,0000*48
$GPGSA,A,3,05,25,12,10,02,,,,,,,,6.5,2.8,5.9*35
$GPGSV,3,1,10,25,69,284,30,12,62,166,17,05,49,118,23,02,47,047,28*76
$GPGSV,3,2,10,29,45,305,16,10,23,051,15,24,20,235,,31,14,309,*7F
$GPGSV,3,3,10,21,13,237,14,04,01,053,*79
$GPRMC,184038.000,A,3748.7882,N,12217.8692,W,0.73,14.70,141112,,,A*45
$GPVTG,14.70,T,,M,0.73,N,1.4,K,A*3E
$GPGGA,184039.000,3748.7886,N,12217.8693,W,1,05,2.8,-6.9,M,-25.1,M,,0000*45
$GPGSA,A,3,05,25,12,10,02,,,,,,,,6.5,2.8,5.9*35
$GPRMC,184039.000,A,3748.7886,N,12217.8693,W,1.07,349.85,141112,,,A*72
$GPVTG,349.85,T,,M,1.07,N,2.0,K,A*0A
$GPGGA,184040.000,3748.7888,N,12217.8690,W,1,06,2.0,-5.7,M,-25.1,M,,0000*40
$GPGSA,A,3,05,25,29,12,10,02,,,,,,,4.9,2.0,4.4*34
$GPRMC,184040.000,A,3748.7888,N,12217.8690,W,0.30,89.56,141112,,,A*45
$GPVTG,89.56,T,,M,0.30,N,0.6,K,A*3A
$GPGGA,184041.000,3748.7888,N,12217.8686,W,1,06,2.0,-5.0,M,-25.1,M,,0000*41
$GPGSA,A,3,05,25,29,12,10,02,,,,,,,4.9,2.0,4.4*34
$GPRMC,184041.000,A,3748.7888,N,12217.8686,W,0.42,151.50,141112,,,A*74
$GPVTG,151.50,T,,M,0.42,N,0.8,K,A*03
$GPGGA,184042.000,3748.7890,N,12217.8689,W,1,06,2.0,-5.5,M,-25.1,M,,0000*41
$GPGSA,A,3,05,25,29,12,10,02,,,,,,,4.9,2.0,4.4*34
$GPRMC,184042.000,A,3748.7890,N,12217.8689,W,0.43,236.39,141112,,,A*7D
$GPVTG,236.39,T,,M,0.43,N,0.8,K,A*0F
$GPGGA,184043.000,3748.7892,N,12217.8689,W,1,06,2.0,-6.7,M,-25.1,M,,0000*43
$GPGSA,A,3,05,25,29,12,10,02,,,,,,,4.9,2.0,4.4*34
$GPGSV,3,1,11,25,69,284,35,12,62,166,26,05,49,118,25,02,47,047,31*7E
$GPGSV,3,2,11,29,45,305,18,10,23,051,19,24,20,235,,31,14,309,*7C
$GPGSV,3,3,11,21,13,237,,04,01,053,,48,44,197,29*45
$GPRMC,184043.000,A,3748.7892,N,12217.8689,W,0.61,266.07,141112,,,A*76
$GPVTG,266.07,T,,M,0.61,N,1.1,K,A*0F
$GPGGA,184044.000,3748.7895,N,12217.8694,W,1,07,1.6,-9.2,M,-25.1,M,,0000*41
$GPGSA,A,3,05,25,29,12,10,02,31,,,,,,2.8,1.6,2.3*35
$GPRMC,184044.000,A,3748.7895,N,12217.8694,W,0.37,262.16,141112,,,A*7D
$GPVTG,262.16,T,,M,0.37,N,0.7,K,A*0F
$GPGGA,184045.000,3748.7896,N,12217.8695,W,1,06,1.7,-11.2,M,-25.1,M,,0000*7B
$GPGSA,A,3,05,25,12,10,02,31,,,,,,,3.0,1.7,2.5*30
$GPRMC,184045.000,A,3748.7896,N,12217.8695,W,0.19,229.76,141112,,,A*7B
$GPVTG,229.76,T,,M,0.19,N,0.4,K,A*09
$GPGGA,184046.000,3748.7897,N,12217.8694,W,1,06,1.7,-12.1,M,-25.1,M,,0000*78
$GPGSA,A,3,05,25,12,10,02,31,,,,,,,3.0,1.7,2.5*30
$GPRMC,184046.000,A,3748.7897,N,12217.8694,W,0.35,197.24,141112,,,A*77
$GPVTG,197.24,T,,M,0.35,N,0.6,K,A*04
$GPGGA,184047.000,3748.7898,N,12217.8699,W,1,07,1.6,-13.9,M,-25.1,M,,0000*72
$GPGSA,A,3,05,25,29,12,10,02,31,,,,,,2.8,1.6,2.3*35
$GPRMC,184047.000,A,3748.7898,N,12217.8699,W,0.54,188.43,141112,,,A*7C
$GPVTG,188.43,T,,M,0.54,N,1.0,K,A*0B
$GPGGA,184048.000,3748.7897,N,12217.8693,W,1,07,1.6,-14.5,M,-25.1,M,,0000*73
$GPGSA,A,3,05,25,29,12,10,02,31,,,,,,2.8,1.6,2.3*35
$GPGSV,3,1,11,25,69,284,36,12,62,166,26,05,49,117,26,02,46,047,31*70
$GPGSV,3,2,11,29,45,305,18,10,23,050,19,24,20,235,,31,14,308,17*7A
$GPGSV,3,3,11,21,14,237,,04,01,053,,48,44,197,30*4A
$GPRMC,184048.000,A,3748.7897,N,12217.8693,W,0.43,151.74,141112,,,A*70
$GPVTG,151.74,T,,M,0.43,N,0.8,K,A*04
$GPGGA,184049.000,3748.7899,N,12217.8687,W,1,06,1.7,-12.8,M,-25.1,M,,0000*72
$GPGSA,A,3,05,25,12,10,02,31,,,,,,,3.0,1.7,2.5*30
$GPRMC,184049.000,A,3748.7899,N,12217.8687,W,0.42,104.87,141112,,,A*77
$GPVTG,104.87,T,,M,0.42,N,0.8,K,A*09
$GPGGA,184050.000,3748.7899,N,12217.8683,W,2,07,1.6,-12.0,M,-25.1,M,,0000*75
$GPGSA,A,3,05,25,29,12,10,02,31,,,,,,2.8,1.6,2.3*35
$GPRMC,184050.000,A,3748.7899,N,12217.8683,W,0.24,205.22,141112,,,D*73
$GPVTG,205.22,T,,M,0.24,N,0.4,K,D*0D
$GPGGA,184051.000,3748.7899,N,12217.8682,W,2,07,1.6,-11.7,M,-25.1,M,,0000*71
$GPGSA,A,3,05,25,29,12,10,02,31,,,,,,2.8,1.6,2.3*35
$GPRMC,184051.000,A,3748.7899,N,12217.8682,W,0.31,215.42,141112,,,D*70
$GPVTG,215.42,T,,M,0.31,N,0.6,K,D*0C
$GPGGA,184052.000,3748.7900,N,12217.8685,W,2,07,1.6,-12.0,M,-25.1,M,,0000*70
$GPGSA,A,3,05,25,29,12,10,02,31,,,,,,2.8,1.6,2.3*35
$GPRMC,184052.000,A,3748.7900,N,12217.8685,W,0.11,117.09,141112,,,D*79
$GPVTG,117.09,T,,M,0.11,N,0.2,K,D*04
$GPGGA,184053.000,3748.7899,N,12217.8687,W,2,07,1.6,-12.4,M,-25.1,M,2.8,0000*52
$GPGSA,A,3,05,25,29,12,10,02,31,,,,,,2.8,1.6,2.3*35
$GPGSV,3,1,11,25,69,284,36,12,62,166,26,05,49,117,27,02,46,047,31*71
$GPGSV,3,2,11,29,45,305,18,10,23,050,18,24,20,235,,31,14,308,17*7B
$GPGSV,3,3,11,21,14,237,,04,01,053,,48,44,197,29*42
$GPRMC,184053.000,A,3748.7899,N,12217.8687,W,0.36,218.16,141112,,,D*7C
$GPGGA,184054.000,3748.7896,N,12217.8692,W,2,07,1.6,-12.2,M,-25.1,M,3.8,0000*59
$GPGSA,A,3,05,25,29,12,10,02,31,,,,,,2.8,1.6,2.3*35
$GPRMC,184054.000,A,3748.7896,N,12217.8692,W,0.39,235.89,141112,,,D*76
$GPVTG,235.89,T,,M,0.39,N,0.7,K,D*00
$GPGGA,184055.000,3748.7893,N,12217.8690,W,2,07,1.6,-11.5,M,-25.1,M,,0000*7E
$GPGSA,A,3,05,25,29,12,10,02,31,,,,,,2.8,1.6,2.3*35
$GPRMC,184055.000,A,3748.7893,N,12217.8690,W,0.32,130.83,141112,,,D*77
$GPVTG,130.83,T,,M,0.32,N,0.6,K,D*06
$GPGGA,184056.000,3748.7890,N,12217.8689,W,2,07,1.6,-11.0,M,-25.1,M,,0000*73
$GPGSA,A,3,05,25,29,12,10,02,31,,,,,,2.8,1.6,2.3*35
$GPRMC,184056.000,A,3748.7890,N,12217.8689,W,0.61,121.10,141112,,,D*73
$GPVTG,121.10,T,,M,0.61,N,1.1,K,D*0C
$GPGGA,184057.000,3748.7887,N,12217.8687,W,2,07,1.6,-9.7,M,-25.1,M,,0000*44
$GPGSA,A,3,05,25,29,12,10,02,31,,,,,,2.8,1.6,2.3*35
$GPRMC,184057.000,A,3748.7887,N,12217.8687,W,0.86,155.00,141112,,,D*71
$GPVTG,155.00,T,,M,0.86,N,1.6,K,D*00
$GPGGA,184058.000,3748.7885,N,12217.8686,W,2,07,1.6,-9.0,M,-25.1,M,1.8,0000*68
$GPGSA,A,3,05,25,29,12,10,02,31,,,,,,2.8,1.6,2.3*35
$GPGSV,3,1,11,25,69,284,37,12,62,166,25,05,49,117,28,02,46,047,31*7C
$GPGSV,3,2,11,29,45,305,18,10,23,050,18,24,20,235,,31,14,308,17*7B
$GPGSV,3,3,11,21,14,237,,04,01,053,,48,44,197,30*4A
$GPRMC,184058.000,A,3748.7885,N,12217.8686,W,0.45,169.41,141112,,,D*78
$GPVTG,169.41,T,,M,0.45,N,0.8,K,D*0A
$GPGGA,184059.000,3748.7885,N,12217.8682,W,2,06,1.7,-7.5,M,-25.1,M,1.8,0000*66
$GPGSA,A,3,05,25,12,10,02,31,,,,,,,3.0,1.7,2.5*30
$GPRMC,184059.000,A,3748.7885,N,12217.8682,W,0.32,92.07,141112,,,D*4A
$GPVTG,92.07,T,,M,0.32,N,0.6,K,D*33
$GPGGA,184100.000,3748.7884,N,12217.8679,W,2,06,1.7,-6.8,M,-25.1,M,2.8,0000*61
$GPGSA,A,3,05,25,12,10,02,31,,,,,,,3.0,1.7,2.5*30
$GPRMC,184100.000,A,3748.7884,N,12217.8679,W,0.16,56.44,141112,,,D*4B
$GPVTG,56.44,T,,M,0.16,N,0.3,K,D*3F
$GPGGA,184101.000,3748.7883,N,12217.8682,W,2,07,1.6,-7.2,M,-25.1,M,1.8,0000*6B
$GPGSA,A,3,05,25,29,12,10,02,31,,,,,,2.8,1.6,2.3*35
$GPRMC,184101.000,A,3748.7883,N,12217.8682,W,0.23,131.62,141112,,,D*7B
$GPVTG,131.62,T,,M,0.23,N,0.4,K,D*0A
$GPGGA,184102.000,3748.7881,N,12217.8683,W,2,07,1.6,-7.1,M,-25.1,M,1.8,0000*68
$GPGSA,A,3,05,25,29,12,10,02,31,,,,,,2.8,1.6,2.3*35
$GPRMC,184102.000,A,3748.7881,N,12217.8683,W,0.30,194.09,141112,,,D*7B
$GPVTG,194.09,T,,M,0.30,N,0.6,K,D*08
$GPGGA,184103.000,3748.7882,N,12217.8684,W,2,07,1.6,-6.7,M,-25.1,M,1.8,0000*6A
$GPGSA,A,3,05,25,29,12,10,02,31,,,,,,2.8,1.6,2.3*35
$GPGSV,3,1,11,25,69,284,37,12,62,166,24,05,49,117,28,02,46,047,32*7E
$GPGSV,3,2,11,29,45,305,18,10,23,050,18,24,20,235,,31,14,308,17*7B
$GPGSV,3,3,11,21,14,237,,04,01,053,,48,44,197,29*42
$GPRMC,184103.000,A,3748.7882,N,12217.8684,W,0.45,278.78,141112,,,D*7B
$GPVTG,278.78,T,,M,0.45,N,0.8,K,D*03
$GPGGA,184104.000,3748.7880,N,12217.8687,W,2,06,2.0,-6.6,M,-25.1,M,2.8,0000*6A
$GPGSA,A,3,05,25,29,12,10,02,,,,,,,4.9,2.0,4.5*35
$GPRMC,184104.000,A,3748.7880,N,12217.8687,W,0.56,290.45,141112,,,D*77
$GPVTG,290.45,T,,M,0.56,N,1.0,K,D*00
$GPGGA,184105.000,3748.7878,N,12217.8685,W,2,06,2.0,-6.0,M,-25.1,M,3.8,0000*69
$GPGSA,A,3,05,25,29,12,10,02,,,,,,,4.9,2.0,4.5*35
$GPRMC,184105.000,A,3748.7878,N,12217.8685,W,0.38,22.38,141112,,,D*4A
$GPVTG,22.38,T,,M,0.38,N,0.7,K,D*3F
$GPGGA,184106.000,3748.7873,N,12217.8682,W,2,06,2.0,-5.7,M,-25.1,M,4.8,0000*65
$GPGSA,A,3,05,25,29,12,10,02,,,,,,,4.9,2.0,4.5*35
$GPRMC,184106.000,A,3748.7873,N,12217.8682,W,0.25,97.07,141112,,,D*4B
$GPVTG,97.07,T,,M,0.25,N,0.5,K,D*33
$GPGGA,184107.000,3748.7873,N,12217.8678,W,2,06,2.0,-4.8,M,-25.1,M,1.8,0000*6A
$GPGSA,A,3,05,25,29,12,10,02,,,,,,,4.9,2.0,4.5*35
$GPRMC,184107.000,A,3748.7873,N,12217.8678,W,0.54,53.55,141112,,,D*46
$GPVTG,53.55,T,,M,0.54,N,1.0,K,D*3E
$GPGGA,184108.000,3748.7870,N,12217.8673,W,2,05,2.0,-3.5,M,-25.1,M,1.8,0000*64
$GPGSA,A,3,05,25,29,12,02,,,,,,,,6.9,2.0,6.6*37
$GPGSV,3,1,11,25,69,284,37,12,62,166,23,05,49,117,29,02,46,047,32*78
$GPGSV,3,2,11,29,45,305,19,10,23,050,17,24,20,235,,31,14,308,*73
$GPGSV,3,3,11,21,14,237,,04,01,053,,48,44,197,29*42
$GPVTG,104.63,T,,M,0.55,N,1.0,K,D*09
$GPGGA,184109.000,3748.7869,N,12217.8672,W,2,06,2.0,-2.6,M,-25.1,M,1.8,0000*6D
$GPGSA,A,3,05,25,29,12,10,02,,,,,,,4.9,2.0,4.5*35
$GPRMC,184109.000,A,3748.7869,N,12217.8672,W,0.50,156.56,141112,,,D*7A
$GPVTG,156.56,T,,M,0.50,N,0.9,K,D*05
$GPGGA,184110.000,3748.7873,N,12217.8673,W,2,06,2.0,-1.9,M,-25.1,M,2.8,0000*60
$GPGSA,A,3,05,25,29,12,10,02,,,,,,,4.9,2.0,4.5*35
$GPRMC,184110.000,A,3748.7873,N,12217.8673,W,0.14,260.48,141112,,,D*71
$GPVTG,260.48,T,,M,0.14,N,0.3,K,D*06
$GPGGA,184111.000,3748.7876,N,12217.8677,W,2,06,2.0,-2.1,M,-25.1,M,3.8,0000*6A
$GPGSA,A,3,05,25,29,12,10,02,,,,,,,4.9,2.0,4.5*35
$GPRMC,184111.000,A,3748.7876,N,12217.8677,W,0.30,183.57,141112,,,D*77
$GPVTG,183.57,T,,M,0.30,N,0.6,K,D*05
$GPGGA,184112.000,3748.7881,N,12217.8681,W,2,06,2.0,-2.5,M,-25.1,M,4.8,0000*6B
$GPGSA,A,3,05,25,29,12,10,02,,,,,,,4.9,2.0,4.5*35
$GPRMC,184112.000,A,3748.7881,N,12217.8681,W,0.24,253.54,141112,,,D*7D
$GPVTG,253.54,T,,M,0.24,N,0.4,K,D*0F
$GPGGA,184113.000,3748.7882,N,12217.8680,W,2,06,2.0,-2.1,M,-25.1,M,1.8,0000*69
$GPGSA,A,3,05,25,29,12,10,02,,,,,,,4.9,2.0,4.5*35
$GPGSV,3,1,11,25,69,283,38,12,62,166,22,05,49,117,29,02,46,047,32*71
$GPGSV,3,2,11,29,45,306,20,10,23,050,17,24,20,234,,31,14,308,*7B
$GPGSV,3,3,11,21,14,237,,04,01,053,,48,44,197,29*42
$GPRMC,184113.000,A,3748.7882,N,12217.8680,W,0.32,233.81,141112,,,D*77
$GPVTG,233.81,T,,M,0.32,N,0.6,K,D*04
$GPGGA,184114.000,3748.7884,N,12217.8680,W,2,06,2.0,-1.3,M,-25.1,M,1.8,0000*69
$GPGSA,A,3,05,25,29,12,10,02,,,,,,,4.9,2.0,4.5*35
$GPRMC,184114.000,A,3748.7884,N,12217.8680,W,0.19,277.58,141112,,,D*7B
$GPVTG,277.58,T,,M,0.19,N,0.3,K,D*0C
$GPGGA,184115.000,3748.7885,N,12217.8679,W,2,07,1.6,-0.1,M,-25.1,M,1.8,0000*68
$GPGSA,A,3,05,25,29,12,10,02,31,,,,,,2.8,1.6,2.3*35
$GPRMC,184115.000,A,3748.7885,N,12217.8679,W,0.29,63.41,141112,,,D*41
$GPVTG,63.41,T,,M,0.29,N,0.5,K,D*36
$GPGGA,184116.000,3748.7884,N,12217.8679,W,2,07,1.6,0.3,M,-25.1,M,2.8,0000*46
$GPGSA,A,3,05,25,29,12,10,02,31,,,,,,2.8,1.6,2.3*35
$GPRMC,184116.000,A,3748.7884,N,12217.8679,W,0.27,174.83,141112,,,D*74
$GPVTG,174.83,T,,M,0.27,N,0.5,K,D*01
$GPGGA,184117.000,3748.7887,N,12217.8679,W,2,07,1.6,0.8,M,-25.1,M,3.8,0000*4E
$GPGSA,A,3,05,25,29,12,10,02,31,,,,,,2.8,1.6,2.3*35
$GPRMC,184117.000,A,3748.7887,N,12217.8679,W,0.27,323.11,141112,,,D*7D
$GPVTG,323.11,T,,M,0.27,N,0.5,K,D*0A
$GPGGA,184118.000,3748.7890,N,12217.8675,W,2,07,1.6,2.7,M,-25.1,M,1.8,0000*44
$GPGSA,A,3,05,25,29,12,10,02,31,,,,,,2.8,1.6,2.3*35
$GPGSV,3,1,11,25,69,283,38,12,62,166,21,05,49,117,29,02,46,047,32*72
$GPGSV,3,2,11,29,45,306,20,10,23,050,16,24,20,234,,21,14,237,*76
$GPGSV,3,3,11,31,14,308,19,04,01,053,,48,44,197,30*4E
$GPRMC,184118.000,A,3748.7890,N,12217.8675,W,0.29,47.35,141112,,,D*41
$GPVTG,47.35,T,,M,0.29,N,0.5,K,D*33
$GPGGA,184119.000,3748.7891,N,12217.8674,W,2,07,1.6,3.4,M,-25.1,M,1.8,0000*47
$GPGSA,A,3,05,25,29,12,10,02,31,,,,,,2.8,1.6,2.3*35
$GPRMC,184119.000,A,3748.7891,N,12217.8674,W,0.28,46.85,141112,,,D*4B
$GPVTG,46.85,T,,M,0.28,N,0.5,K,D*38
$GPGGA,184120.000,3748.7894,N,12217.8672,W,2,07,1.6,4.2,M,-25.1,M,1.8,0000*4F
$GPGSA,A,3,05,25,29,12,10,02,31,,,,,,2.8,1.6,2.3*35
$GPRMC,184120.000,A,3748.7894,N,12217.8672,W,0.38,22.80,141112,,,D*44
$GPVTG,22.80,T,,M,0.38,N,0.7,K,D*3C
$GPGGA,184121.000,3748.7896,N,12217.8671,W,2,07,1.6,4.9,M,-25.1,M,1.8,0000*44
$GPGSA,A,3,05,25,29,12,10,02,31,,,,,,2.8,1.6,2.3*35
$GPRMC,184121.000,A,3748.7896,N,12217.8671,W,0.75,11.92,141112,,,D*4E
$GPVTG,11.92,T,,M,0.75,N,1.4,K,D*34
$GPGGA,184122.000,3748.7899,N,12217.8672,W,2,07,1.6,5.2,M,-25.1,M,2.8,0000*42
$GPGSA,A,3,05,25,29,12,10,02,31,,,,,,2.8,1.6,2.3*35
$GPRMC,184122.000,A,3748.7899,N,12217.8672,W,0.62,15.42,141112,,,D*4E
$GPVTG,15.42,T,,M,0.62,N,1.2,K,D*3D
$GPGGA,184123.000,3748.7902,N,12217.8669,W,2,07,1.6,6.3,M,-25.1,M,1.8,0000*4B
$GPGSA,A,3,05,25,29,12,10,02,31,,,,,,2.8,1.6,2.3*35
$GPGSV,3,1,11,25,69,283,38,12,62,166,20,05,49,117,29,02,46,047,33*72
$GPGSV,3,2,11,29,45,306,20,10,23,050,16,24,20,234,,21,14,237,*76
$GPGSV,3,3,11,31,14,308,19,04,01,053,,48,44,197,30*4E
$GPVTG,35.92,T,,M,0.77,N,1.4,K,D*30
$GPGGA,184124.000,3748.7904,N,12217.8665,W,2,07,1.6,7.8,M,-25.1,M,1.8,0000*4C
$GPGSA,A,3,05,25,29,12,10,02,31,,,,,,2.8,1.6,2.3*35
$GPRMC,184124.000,A,3748.7904,N,12217.8665,W,0.67,62.94,141112,,,D*45
$GPVTG,62.94,T,,M,0.67,N,1.2,K,D*33
$GPGGA,184125.000,3748.7906,N,12217.8664,W,2,07,1.6,8.4,M,-25.1,M,1.8,0000*4D
$GPGSA,A,3,05,25,29,12,10,02,31,,,,,,2.8,1.6,2.3*35
$GPRMC,184125.000,A,3748.7906,N,12217.8664,W,0.71,31.62,141112,,,D*4F
$GPVTG,31.62,T,,M,0.71,N,1.3,K,D*3A
$GPGGA,184126.000,3748.7909,N,12217.8664,W,2,07,1.6,8.5,M,-25.1,M,1.8,0000*40
$GPGSA,A,3,05,25,29,12,10,02,31,,,,,,2.8,1.6,2.3*35
$GPRMC,184126.000,A,3748.7909,N,12217.8664,W,1.02,1.94,141112,,,D*7C
$GPVTG,1.94,T,,M,1.02,N,1.9,K,D*0F
$GPGGA,184127.000,3748.7912,N,12217.8663,W,2,07,1.6,9.1,M,-25.1,M,1.8,0000*49
$GPGSA,A,3,05,25,29,12,10,02,31,,,,,,2.8,1.6,2.3*35
$GPRMC,184127.000,A,3748.7912,N,12217.8663,W,1.14,5.17,141112,,,D*78
$GPVTG,5.17,T,,M,1.14,N,2.1,K,D*0C
$GPGGA,184128.000,3748.7915,N,12217.8662,W,2,07,1.6,9.7,M,-25.1,M,2.8,0000*45
$GPGSA,A,3,05,25,29,12,10,02,31,,,,,,2.8,1.6,2.3*35
$GPGSV,3,1,11,25,69,283,38,12,62,166,18,05,49,117,29,02,46,047,33*79
$GPGSV,3,2,11,29,45,306,21,10,23,050,16,24,20,234,,21,14,237,*77
$GPGSV,3,3,11,31,14,308,19,04,01,053,,48,44,197,30*4E
$GPRMC,184128.000,A,3748.7915,N,12217.8662,W,1.03,16.23,141112,,,D*42
$GPVTG,16.23,T,,M,1.03,N,1.9,K,D*34
$GPGGA,184129.000,3748.7917,N,12217.8660,W,2,07,1.6,10.3,M,-25.1,M,1.8,0000*7B
$GPGSA,A,3,05,25,29,12,10,02,31,,,,,,2.8,1.6,2.3*35
$GPRMC,184129.000,A,3748.7917,N,12217.8660,W,0.92,23.17,141112,,,D*4B
$GPVTG,23.17,T,,M,0.92,N,1.7,K,D*32
$GPGGA,184130.000,3748.7920,N,12217.8664,W,2,07,1.6,9.3,M,-25.1,M,2.8,0000*48
$GPGSA,A,3,05,25,29,12,10,02,31,,,,,,2.8,1.6,2.3*35
$GPRMC,184130.000,A,3748.7920,N,12217.8664,W,1.01,11.29,141112,,,D*44
$GPVTG,11.29,T,,M,1.01,N,1.9,K,D*3B
$GPGGA,184131.000,3748.7922,N,12217.8663,W,2,07,1.6,9.5,M,-25.1,M,1.8,0000*49
$GPGSA,A,3,05,25,29,12,10,02,31,,,,,,2.8,1.6,2.3*35
$GPRMC,184131.000,A,3748.7922,N,12217.8663,W,0.89,24.62,141112,,,D*48
$GPVTG,24.62,T,,M,0.89,N,1.7,K,D*3D
$GPGGA,184132.000,3748.7923,N,12217.8661,W,2,07,1.6,9.5,M,-25.1,M,1.8,0000*49
$GPGSA,A,3,05,25,29,12,10,02,31,,,,,,2.8,1.6,2.3*35
$GPRMC,184132.000,A,3748.7923,N,12217.8661,W,0.85,25.61,141112,,,D*46
$GPVTG,25.61,T,,M,0.85,N,1.6,K,D*32
$GPGGA,184133.000,3748.7924,N,12217.8663,W,2,07,1.6,8.5,M,-25.1,M,1.8,0000*4C
$GPGSA,A,3,05,25,29,12,10,02,31,,,,,,2.8,1.6,2.3*35
$GPGSV,3,1,11,25,69,283,38,12,62,166,17,05,49,117,29,02,46,047,33*76
$GPGSV,3,2,11,29,45,306,20,10,23,050,15,24,20,234,,21,14,237,*75
$GPGSV,3,3,11,31,14,308,19,04,01,053,,48,44,197,30*4E
$GPRMC,184133.000,A,3748.7924,N,12217.8663,W,0.84,15.39,141112,,,D*4D
$GPVTG,15.39,T,,M,0.84,N,1.6,K,D*3D
$GPGGA,184134.000,3748.7925,N,12217.8662,W,2,07,1.6,8.7,M,-25.1,M,1.8,0000*49
$GPGSA,A,3,05,25,29,12,10,02,31,,,,,,2.8,1.6,2.3*35
$GPRMC,184134.000,A,3748.7925,N,12217.8662,W,0.60,35.19,141112,,,D*40
$GPVTG,35.19,T,,M,0.60,N,1.1,K,D*30
$GPGGA,184135.000,3748.7926,N,12217.8664,W,2,07,1.6,8.2,M,-25.1,M,1.8,0000*48
$GPGSA,A,3,05,25,29,12,10,02,31,,,,,,2.8,1.6,2.3*35
$GPRMC,184135.000,A,3748.7926,N,12217.8664,W,0.61,26.54,141112,,,D*4E
$GPVTG,26.54,T,,M,0.61,N,1.1,K,D*3A
$GPGGA,184136.000,3748.7927,N,12217.8666,W,2,07,1.6,7.5,M,-25.1,M,2.8,0000*43
$GPGSA,A,3,05,25,29,12,10,02,31,,,,,,2.8,1.6,2.3*35
$GPRMC,184136.000,A,3748.7927,N,12217.8666,W,0.74,24.39,141112,,,D*43
$GPVTG,24.39,T,,M,0.74,N,1.4,K,D*32
$GPGGA,184137.000,3748.7928,N,12217.8664,W,2,07,1.6,8.2,M,-25.1,M,1.8,0000*44
$GPGSA,A,3,05,25,29,12,10,02,31,,,,,,2.8,1.6,2.3*35
$GPRMC,184137.000,A,3748.7928,N,12217.8664,W,0.81,41.68,141112,,,D*42
$GPVTG,41.68,T,,M,0.81,N,1.5,K,D*3E
$GPGGA,184138.000,3748.7930,N,12217.8665,W,2,07,1.6,8.4,M,-25.1,M,1.8,0000*45
$GPGSA,A,3,05,25,29,12,10,02,31,,,,,,2.8,1.6,2.3*35
$GPGSV,3,1,11,25,69,283,38,12,62,166,16,05,49,117,29,02,46,047,33*77
$GPGSV,3,2,11,29,45,306,20,10,23,050,14,24,20,234,,21,14,237,*74
$GPGSV,3,3,11,31,14,308,20,04,01,053,,48,44,197,30*44
$GPVTG,353.12,T,,M,0.90,N,1.7,K,D*01
$GPGGA,184139.000,3748.7930,N,12217.8665,W,2,07,1.6,9.0,M,-25.1,M,1.8,0000*41
$GPGSA,A,3,05,25,29,12,10,02,31,,,,,,2.8,1.6,2.3*35
$GPRMC,184139.000,A,3748.7930,N,12217.8665,W,0.17,358.56,141112,,,D*7D
$GPVTG,358.56,T,,M,0.17,N,0.3,K,D*00
$GPGGA,184140.000,3748.7930,N,12217.8669,W,2,07,1.6,8.2,M,-25.1,M,2.8,0000*43
$GPGSA,A,3,05,25,29,12,10,02,31,,,,,,2.8,1.6,2.3*35
$GPRMC,184140.000,A,3748.7930,N,12217.8669,W,0.11,193.91,141112,,,D*77
$GPVTG,193.91,T,,M,0.11,N,0.2,K,D*09
$GPGGA,184141.000,3748.7929,N,12217.8670,W,2,07,1.6,8.0,M,-25.1,M,3.8,0000*41
$GPGSA,A,3,05,25,29,12,10,02,31,,,,,,2.8,1.6,2.3*35
$GPRMC,184141.000,A,3748.7929,N,12217.8670,W,0.30,167.86,141112,,,D*78
$GPVTG,167.86,T,,M,0.30,N,0.6,K,D*03
$GPGGA,184142.000,3748.7928,N,12217.8671,W,2,07,1.6,7.8,M,-25.1,M,4.8,0000*42
$GPGSA,A,3,05,25,29,12,10,02,31,,,,,,2.8,1.6,2.3*35
$GPRMC,184142.000,A,3748.7928,N,12217.8671,W,0.49,155.82,141112,,,D*70
$GPVTG,155.82,T,,M,0.49,N,0.9,K,D*07
$GPGGA,184143.000,3748.7928,N,12217.8676,W,2,07,1.6,7.0,M,-25.1,M,1.8,0000*49
$GPGSA,A,3,05,25,29,12,10,02,31,,,,,,2.8,1.6,2.3*35
$GPGSV,3,1,11,25,69,283,38,12,62,166,15,05,49,117,30,02,46,047,33*7C
$GPGSV,3,2,11,29,45,306,20,10,23,050,14,24,19,234,,21,14,237,*7E
$GPGSV,3,3,11,31,14,308,20,04,01,053,,48,44,197,30*44
$GPRMC,184143.000,A,3748.7928,N,12217.8676,W,0.46,283.09,141112,,,D*72
$GPVTG,283.09,T,,M,0.46,N,0.8,K,D*02
$GPGGA,184144.000,3748.7929,N,12217.8679,W,2,07,1.6,7.1,M,-25.1,M,1.8,0000*41
$GPGSA,A,3,05,25,29,12,10,02,31,,,,,,2.8,1.6,2.3*35
$GPRMC,184144.000,A,3748.7929,N,12217.8679,W,0.40,291.78,141112,,,D*78
$GPVTG,291.78,T,,M,0.40,N,0.7,K,D*0E
$GPGGA,184145.000,3748.7929,N,12217.8680,W,2,07,1.6,7.0,M,-25.1,M,1.8,0000*47
$GPGSA,A,3,05,25,29,12,10,02,31,,,,,,2.8,1.6,2.3*35
$GPRMC,184145.000,A,3748.7929,N,12217.8680,W,0.27,273.49,141112,,,D*70
$GPVTG,273.49,T,,M,0.27,N,0.5,K,D*03
$GPGGA,184146.000,3748.7928,N,12217.8683,W,2,07,1.6,6.5,M,-25.1,M,1.8,0000*42
$GPGSA,A,3,05,25,29,12,10,02,31,,,,,,2.8,1.6,2.3*35
$GPRMC,184146.000,A,3748.7928,N,12217.8683,W,0.36,218.04,141112,,,D*75
$GPVTG,218.04,T,,M,0.36,N,0.7,K,D*05
$GPGGA,184147.000,3748.7928,N,12217.8686,W,2,07,1.6,6.2,M,-25.1,M,2.8,0000*42
$GPGSA,A,3,05,25,29,12,10,02,31,,,,,,2.8,1.6,2.3*35
$GPRMC,184147.000,A,3748.7928,N,12217.8686,W,0.23,244.92,141112,,,D*73
$GPVTG,244.92,T,,M,0.23,N,0.4,K,D*04
$GPGGA,184148.000,3748.7927,N,12217.8685,W,2,07,1.6,6.2,M,-25.1,M,3.8,0000*40
$GPGSA,A,3,05,25,29,12,10,02,31,,,,,,2.8,1.6,2.3*35
$GPGSV,3,1,11,25,69,282,38,12,62,166,15,05,49,117,30,02,46,047,33*7D
$GPGSV,3,2,11,29,45,306,20,10,23,050,14,24,19,234,,21,14,237,*7E
$GPGSV,3,3,11,31,14,308,20,04,01,053,,48,44,197,30*44
$GPRMC,184148.000,A,3748.7927,N,12217.8685,W,0.22,193.63,141112,,,D*76
$GPVTG,193.63,T,,M,0.22,N,0.4,K,D*02
$GPGGA,184149.000,3748.7926,N,12217.8687,W,2,07,1.6,5.8,M,-25.1,M,1.8,0000*49
$GPGSA,A,3,05,25,29,12,10,02,31,,,,,,2.8,1.6,2.3*35
$GPRMC,184149.000,A,3748.7926,N,12217.8687,W,0.56,203.24,141112,,,D*7E
$GPVTG,203.24,T,,M,0.56,N,1.0,K,D*0D
$GPGGA,184150.000,3748.7924,N,12217.8690,W,2,07,1.6,5.1,M,-25.1,M,1.8,0000*4C
$GPGSA,A,3,05,25,29,12,10,02,31,,,,,,2.8,1.6,2.3*35
$GPRMC,184150.000,A,3748.7924,N,12217.8690,W,0.68,210.60,141112,,,D*7D
$GPVTG,210.60,T,,M,0.68,N,1.3,K,D*01
$GPGGA,184151.000,3748.7924,N,12217.8693,W,2,07,1.6,4.6,M,-25.1,M,1.8,0000*48
$GPGSA,A,3,05,25,29,12,10,02,31,,,,,,2.8,1.6,2.3*35
$GPRMC,184151.000,A,3748.7924,N,12217.8693,W,0.64,204.52,141112,,,D*77
$GPVTG,204.52,T,,M,0.64,N,1.2,K,D*08
$GPGGA,184152.000,3748.7922,N,12217.8694,W,2,07,1.6,4.2,M,-25.1,M,2.8,0000*4D
$GPGSA,A,3,05,25,29,12,10,02,31,,,,,,2.8,1.6,2.3*35
$GPRMC,184152.000,A,3748.7922,N,12217.8694,W,0.74,212.18,141112,,,D*7D
$GPVTG,212.18,T,,M,0.74,N,1.4,K,D*06
$GPGGA,184153.000,3748.7923,N,12217.8695,W,2,07,1.6,5.3,M,-25.1,M,3.8,0000*4D
$GPGSA,A,3,05,25,29,12,10,02,31,,,,,,2.8,1.6,2.3*35
$GPGSV,3,1,11,25,69,282,38,12,62,166,16,05,49,117,30,02,46,047,34*79
$GPGSV,3,2,11,29,45,306,21,10,23,050,13,24,19,234,,21,14,237,*78
$GPGSV,3,3,11,31,14,308,20,04,01,053,,48,44,197,30*44
$GPRMC,184153.000,A,3748.7923,N,12217.8695,W,0.44,219.43,141112,,,D*7A
$GPVTG,219.43,T,,M,0.44,N,0.8,K,D*0D
$GPGGA,184154.000,3748.7924,N,12217.8692,W,2,07,1.6,7.5,M,-25.1,M,4.8,0000*49
$GPGSA,A,3,05,25,29,12,10,02,31,,,,,,2.8,1.6,2.3*35
$GPRMC,184154.000,A,3748.7924,N,12217.8692,W,0.26,206.08,141112,,,D*78
$GPVTG,206.08,T,,M,0.26,N,0.5,K,D*05
$GPGGA,184155.000,3748.7924,N,12217.8693,W,2,07,1.6,7.7,M,-25.1,M,1.8,0000*4E
$GPGSA,A,3,05,25,29,12,10,02,31,,,,,,2.8,1.6,2.3*35
$GPRMC,184155.000,A,3748.7924,N,12217.8693,W,0.26,155.27,141112,,,D*70
$GPVTG,155.27,T,,M,0.26,N,0.5,K,D*0D
$GPGGA,184156.000,3748.7923,N,12217.8690,W,2,07,1.6,8.1,M,-25.1,M,1.8,0000*40
$GPGSA,A,3,05,25,29,12,10,02,31,,,,,,2.8,1.6,2.3*35
$GPRMC,184156.000,A,3748.7923,N,12217.8690,W,0.24,317.61,141112,,,D*73
$GPVTG,317.61,T,,M,0.24,N,0.4,K,D*08
$GPGGA,184157.000,3748.7924,N,12217.8686,W,2,07,1.6,8.8,M,-25.1,M,1.8,0000*48
$GPGSA,A,3,05,25,29,12,10,02,31,,,,,,2.8,1.6,2.3*35
$GPRMC,184157.000,A,3748.7924,N,12217.8686,W,0.34,43.06,141112,,,D*40
$GPVTG,43.06,T,,M,0.34,N,0.6,K,D*38
$GPGGA,184158.000,3748.7924,N,12217.8683,W,2,07,1.5,9.3,M,-25.1,M,2.8,0000*48
$GPGSA,A,3,05,25,29,12,10,02,31,,,,,,2.8,1.5,2.3*36
$GPGSV,3,1,11,25,69,282,38,12,62,166,16,05,49,117,30,02,46,047,34*79
$GPGSV,3,2,11,29,45,306,21,10,23,050,12,24,19,234,,21,14,237,*79
$GPGSV,3,3,11,31,14,308,20,04,01,053,,48,44,197,30*44
$GPRMC,184158.000,A,3748.7924,N,12217.8683,W,0.52,67.37,141112,,,D*4E
$GPGGA,184159.000,3748.7925,N,12217.8680,W,2,07,1.5,9.7,M,-25.1,M,3.8,0000*4E
$GPGSA,A,3,05,25,29,12,10,02,31,,,,,,2.8,1.5,2.3*36
$GPRMC,184159.000,A,3748.7925,N,12217.8680,W,0.75,24.07,141112,,,D*4C
$GPVTG,24.07,T,,M,0.75,N,1.4,K,D*3E
$GPGGA,184200.000,3748.7926,N,12217.8677,W,2,07,1.5,10.1,M,-25.1,M,4.8,0000*73
$GPGSA,A,3,05,25,29,12,10,02,31,,,,,,2.8,1.5,2.3*36
$GPRMC,184200.000,A,3748.7926,N,12217.8677,W,0.84,31.61,141112,,,D*42
$GPVTG,31.61,T,,M,0.84,N,1.6,K,D*36
$GPGGA,184201.000,3748.7927,N,12217.8675,W,2,07,1.5,10.3,M,-25.1,M,1.8,0000*76
$GPGSA,A,3,05,25,29,12,10,02,31,,,,,,2.8,1.5,2.3*36
$GPRMC,184201.000,A,3748.7927,N,12217.8675,W,0.60,52.74,141112,,,D*4B
$GPVTG,52.74,T,,M,0.60,N,1.1,K,D*3A
$GPGGA,184202.000,3748.7927,N,12217.8674,W,2,07,1.5,10.0,M,-25.1,M,1.8,0000*77
$GPGSA,A,3,05,25,29,12,10,02,31,,,,,,2.8,1.5,2.3*36
$GPRMC,184202.000,A,3748.7927,N,12217.8674,W,0.32,39.12,141112,,,D*43
$GPVTG,39.12,T,,M,0.32,N,0.6,K,D*36
$GPGGA,184203.000,3748.7928,N,12217.8673,W,2,07,1.5,10.3,M,-25.1,M,1.8,0000*7D
$GPGSA,A,3,05,25,29,12,10,02,31,,,,,,2.8,1.5,2.3*36
$GPGSV,3,1,11,25,69,282,38,12,62,166,17,05,49,117,30,02,46,047,34*78
$GPGSV,3,2,11,29,45,306,22,10,23,050,13,24,19,234,,21,14,237,*7B
$GPGSV,3,3,11,31,14,308,20,04,01,053,,48,44,197,30*44
$GPRMC,184203.000,A,3748.7928,N,12217.8673,W,0.63,28.54,141112,,,D*4C
$GPVTG,28.54,T,,M,0.63,N,1.2,K,D*35
$GPGGA,184204.000,3748.7930,N,12217.8671,W,2,07,1.5,10.6,M,-25.1,M,2.8,0000*77
$GPGSA,A,3,05,25,29,12,10,02,31,,,,,,2.8,1.5,2.3*36
$GPRMC,184204.000,A,3748.7930,N,12217.8671,W,0.84,38.65,141112,,,D*4A
$GPVTG,38.65,T,,M,0.84,N,1.6,K,D*3B
$GPGGA,184205.000,3748.7931,N,12217.8671,W,2,07,1.5,10.4,M,-25.1,M,3.8,0000*74
$GPGSA,A,3,05,25,29,12,10,02,31,,,,,,2.8,1.5,2.3*36
$GPRMC,184205.000,A,3748.7931,N,12217.8671,W,0.65,21.41,141112,,,D*4B
$GPVTG,21.41,T,,M,0.65,N,1.2,K,D*3E
$GPGGA,184206.000,3748.7933,N,12217.8671,W,2,07,1.5,10.2,M,-25.1,M,4.8,0000*74
$GPGSA,A,3,05,25,29,12,10,02,31,,,,,,2.8,1.5,2.3*36
$GPRMC,184206.000,A,3748.7933,N,12217.8671,W,0.93,11.27,141112,,,D*40
$GPVTG,11.27,T,,M,0.93,N,1.7,K,D*31
$GPGGA,184207.000,3748.7935,N,12217.8671,W,2,07,1.5,10.0,M,-25.1,M,1.8,0000*74
$GPGSA,A,3,05,25,29,12,10,02,31,,,,,,2.8,1.5,2.3*36
$GPRMC,184207.000,A,3748.7935,N,12217.8671,W,1.05,11.19,141112,,,D*44
$GPVTG,11.19,T,,M,1.05,N,1.9,K,D*3C
$GPGGA,184208.000,3748.7937,N,12217.8673,W,2,07,1.5,9.4,M,-25.1,M,1.8,0000*47
$GPGSA,A,3,05,25,29,12,10,02,31,,,,,,2.8,1.5,2.3*36
$GPGSV,3,1,11,25,69,282,39,12,62,166,19,05,49,117,30,02,46,047,34*77
$GPGSV,3,2,11,29,45,306,22,10,23,050,13,24,19,234,,21,14,237,*7B
$GPGSV,3,3,11,31,14,308,20,04,01,053,,48,44,197,30*44
$GPRMC,184208.000,A,3748.7937,N,12217.8673,W,1.23,1.06,141112,,,D*70
$GPVTG,1.06,T,,M,1.23,N,2.3,K,D*0E
$GPGGA,184209.000,3748.7938,N,12217.8672,W,2,07,1.5,9.1,M,-25.1,M,1.8,0000*4D
$GPGSA,A,3,05,25,29,12,10,02,31,,,,,,2.8,1.5,2.3*36
$GPRMC,184209.000,A,3748.7938,N,12217.8672,W,1.13,358.25,141112,,,D*72
$GPVTG,358.25,T,,M,1.13,N,2.1,K,D*01
$GPGGA,184210.000,3748.7939,N,12217.8673,W,2,07,1.5,8.5,M,-25.1,M,2.8,0000*43
$GPGSA,A,3,05,25,29,12,10,02,31,,,,,,2.8,1.5,2.3*36
$GPRMC,184210.000,A,3748.7939,N,12217.8673,W,0.92,359.98,141112,,,D*75
$GPVTG,359.98,T,,M,0.92,N,1.7,K,D*0B
$GPGGA,184211.000,3748.7939,N,12217.8670,W,2,07,1.5,9.0,M,-25.1,M,3.8,0000*44
$GPGSA,A,3,05,25,29,12,10,02,31,,,,,,2.8,1.5,2.3*36
$GPRMC,184211.000,A,3748.7939,N,12217.8670,W,0.71,24.85,141112,,,D*4F
$GPVTG,24.85,T,,M,0.71,N,1.3,K,D*37
$GPGGA,184212.000,3748.7938,N,12217.8667,W,2,07,1.5,9.5,M,-25.1,M,1.8,0000*47
$GPGSA,A,3,05,25,29,12,10,02,31,,,,,,2.8,1.5,2.3*36
$GPRMC,184212.000,A,3748.7938,N,12217.8667,W,0.34,57.00,141112,,,D*43
$GPVTG,57.00,T,,M,0.34,N,0.6,K,D*3B
$GPGGA,184213.000,3748.7938,N,12217.8666,W,2,07,1.5,9.8,M,-25.1,M,1.8,0000*4A
$GPGSA,A,3,05,25,29,12,10,02,31,,,,,,2.8,1.5,2.3*36
$GPGSV,3,1,11,25,69,282,39,12,61,167,19,05,49,116,29,02,46,047,34*7C
$GPGSV,3,2,11,29,46,306,22,10,23,050,14,24,19,234,,21,14,237,*7F
$GPGSV,3,3,11,31,14,308,19,04,01,053,,48,44,197,30*4E
$GPVTG,35.67,T,,M,0.40,N,0.7,K,D*3C
$GPGGA,184214.000,3748.7938,N,12217.8666,W,2,07,1.5,9.6,M,-25.1,M,1.8,0000*43
$GPGSA,A,3,05,25,29,12,10,02,31,,,,,,2.8,1.5,2.3*36
$GPRMC,184214.000,A,3748.7938,N,12217.8666,W,0.56,26.83,141112,,,D*4D
$GPVTG,26.83,T,,M,0.56,N,1.0,K,D*35
$GPGGA,184215.000,3748.7938,N,12217.8666,W,2,07,1.5,9.6,M,-25.1,M,1.8,0000*42
$GPGSA,A,3,05,25,29,12,10,02,31,,,,,,2.8,1.5,2.3*36
$GPRMC,184215.000,A,3748.7938,N,12217.8666,W,0.33,47.41,141112,,,D*46
$GPVTG,47.41,T,,M,0.33,N,0.6,K,D*38
$GPGGA,184216.000,3748.7939,N,12217.8667,W,2,07,1.5,9.5,M,-25.1,M,2.8,0000*41
$GPGSA,A,3,05,25,29,12,10,02,31,,,,,,2.8,1.5,2.3*36
$GPRMC,184216.000,A,3748.7939,N,12217.8667,W,0.58,2.49,141112,,,D*71
$GPVTG,2.49,T,,M,0.58,N,1.1,K,D*0A
$GPGGA,184217.000,3748.7939,N,12217.8667,W,2,07,1.5,9.5,M,-25.1,M,1.8,0000*43
$GPGSA,A,3,05,25,29,12,10,02,31,,,,,,2.8,1.5,2.3*36
$GPRMC,184217.000,A,3748.7939,N,12217.8667,W,0.17,69.75,141112,,,D*49
$GPVTG,69.75,T,,M,0.17,N,0.3,K,D*30
$GPGGA,184218.000,3748.7938,N,12217.8667,W,2,07,1.5,9.4,M,-25.1,M,1.8,0000*4C
$GPGSA,A,3,05,25,29,12,10,02,31,,,,,,2.8,1.5,2.3*36
$GPGSV,3,1,11,25,69,282,39,12,61,167,20,05,49,116,29,02,46,047,34*76
$GPGSV,3,2,11,29,46,306,22,10,23,050,14,24,19,234,,21,14,237,*7F
$GPGSV,3,3,11,31,14,308,19,04,01,053,,48,44,197,30*4E
$GPRMC,184218.000,A,3748.7938,N,12217.8667,W,0.20,88.93,141112,,,D*44
$GPVTG,88.93,T,,M,0.20,N,0.4,K,D*34
$GPGGA,184219.000,3748.7938,N,12217.8667,W,2,07,1.5,9.4,M,-25.1,M,1.8,0000*4D
$GPGSA,A,3,05,25,29,12,10,02,31,,,,,,2.8,1.5,2.3*36
$GPRMC,184219.000,A,3748.7938,N,12217.8667,W,0.43,48.22,141112,,,D*46
$GPVTG,48.22,T,,M,0.43,N,0.8,K,D*3B
$GPGGA,184220.000,3748.7937,N,12217.8665,W,2,06,2.1,9.8,M,-25.1,M,1.8,0000*40
$GPGSA,A,3,05,25,29,12,10,02,,,,,,,5.0,2.1,4.5*3C
$GPRMC,184220.000,A,3748.7937,N,12217.8665,W,0.35,83.14,141112,,,D*42
$GPVTG,83.14,T,,M,0.35,N,0.7,K,D*37
$GPGGA,184221.000,3748.7936,N,12217.8666,W,2,06,2.1,9.3,M,-25.1,M,1.8,0000*48
$GPGSA,A,3,05,25,29,12,10,02,,,,,,,5.0,2.1,4.5*3C
$GPRMC,184221.000,A,3748.7936,N,12217.8666,W,0.23,123.19,141112,,,D*70
$GPVTG,123.19,T,,M,0.23,N,0.4,K,D*05
$GPGGA,184222.000,3748.7935,N,12217.8670,W,2,06,2.1,8.0,M,-25.1,M,2.8,0000*4E
$GPGSA,A,3,05,25,29,12,10,02,,,,,,,5.0,2.1,4.6*3F
$GPRMC,184222.000,A,3748.7935,N,12217.8670,W,0.13,335.51,141112,,,D*7D
$GPVTG,335.51,T,,M,0.13,N,0.2,K,D*09
$GPGGA,184223.000,3748.7934,N,12217.8675,W,2,06,2.1,6.4,M,-25.1,M,3.8,0000*40
$GPGSA,A,3,05,25,29,12,10,02,,,,,,,5.0,2.1,4.6*3F
$GPGSV,3,1,11,25,69,282,39,12,61,167,20,05,49,116,29,02,46,047,34*76
$GPGSV,3,2,11,29,46,306,22,10,23,050,14,24,19,234,,21,14,237,*7F
$GPGSV,3,3,11,31,14,308,,04,01,053,,48,44,197,30*46
$GPRMC,184223.000,A,3748.7934,N,12217.8675,W,0.19,291.63,141112,,,D*7C
$GPVTG,291.63,T,,M,0.19,N,0.4,K,D*0B
$GPGGA,184224.000,3748.7930,N,12217.8674,W,2,06,2.1,6.4,M,-25.1,M,4.8,0000*45
$GPGSA,A,3,05,25,29,12,10,02,,,,,,,5.0,2.1,4.6*3F
$GPRMC,184224.000,A,3748.7930,N,12217.8674,W,0.13,200.15,141112,,,D*7D
$GPVTG,200.15,T,,M,0.13,N,0.2,K,D*0E
$GPGGA,184225.000,3748.7930,N,12217.8672,W,2,06,2.1,6.8,M,-25.1,M,1.8,0000*4B
$GPGSA,A,3,05,25,29,12,10,02,,,,,,,5.0,2.1,4.6*3F
$GPRMC,184225.000,A,3748.7930,N,12217.8672,W,0.32,1.61,141112,,,D*79
$GPVTG,1.61,T,,M,0.32,N,0.6,K,D*09
$GPGGA,184226.000,3748.7925,N,12217.8671,W,2,05,2.1,7.0,M,-25.1,M,2.8,0000*46
$GPGSA,A,3,05,25,29,12,02,,,,,,,,7.2,2.1,6.9*33
$GPRMC,184226.000,A,3748.7925,N,12217.8671,W,0.36,173.62,141112,,,D*7E
$GPVTG,173.62,T,,M,0.36,N,0.7,K,D*0B
$GPGGA,184227.000,3748.7918,N,12217.8672,W,2,05,2.1,7.0,M,-25.1,M,1.8,0000*49
$GPGSA,A,3,05,25,29,12,02,,,,,,,,7.2,2.1,6.9*33
$GPRMC,184227.000,A,3748.7918,N,12217.8672,W,0.37,188.79,141112,,,D*7D
$GPVTG,188.79,T,,M,0.37,N,0.7,K,D*04
$GPGGA,184228.000,3748.7912,N,12217.8678,W,2,04,2.0,7.6,M,-25.1,M,1.8,0000*40
$GPGSA,A,3,05,25,12,02,,,,,,,,,2.2,2.0,1.0*32
$GPGSV,3,1,11,25,69,282,41,12,61,167,23,05,49,116,25,02,46,047,35*77
$GPGSV,3,2,11,29,46,306,,10,23,050,,24,19,234,,21,14,237,*7A
$GPGSV,3,3,11,31,14,308,,04,01,053,,48,44,197,26*41
$GPRMC,184228.000,A,3748.7912,N,12217.8678,W,0.80,179.22,141112,,,D*7E
$GPGGA,184229.000,3748.7903,N,12217.8681,W,2,04,2.0,7.2,M,-25.1,M,2.8,0000*40
$GPGSA,A,3,05,25,12,02,,,,,,,,,2.2,2.0,1.0*32
$GPRMC,184229.000,A,3748.7903,N,12217.8681,W,0.91,186.16,141112,,,D*7E
$GPVTG,186.16,T,,M,0.91,N,1.7,K,D*0E
$GPGGA,184230.000,3748.7900,N,12217.8683,W,2,04,2.0,7.2,M,-25.1,M,3.8,0000*48
$GPGSA,A,3,05,25,12,02,,,,,,,,,2.2,2.0,1.0*32
$GPRMC,184230.000,A,3748.7900,N,12217.8683,W,0.33,220.08,141112,,,D*7F
$GPVTG,220.08,T,,M,0.33,N,0.6,K,D*06
$GPGGA,184231.000,3748.7900,N,12217.8687,W,2,04,2.0,7.4,M,-25.1,M,1.8,0000*49
$GPGSA,A,3,05,25,12,02,,,,,,,,,2.2,2.0,1.0*32
$GPRMC,184231.000,A,3748.7900,N,12217.8687,W,0.50,311.50,141112,,,D*71
$GPVTG,311.50,T,,M,0.50,N,0.9,K,D*02
$GPGGA,184232.000,3748.7894,N,12217.8683,W,2,05,2.1,8.2,M,-25.1,M,1.8,0000*4B
$GPGSA,A,3,05,25,29,12,02,,,,,,,,7.2,2.1,6.9*33
$GPRMC,184232.000,A,3748.7894,N,12217.8683,W,0.21,174.82,141112,,,D*72
$GPVTG,174.82,T,,M,0.21,N,0.4,K,D*07
$GPGGA,184233.000,3748.7892,N,12217.8683,W,2,04,2.0,8.1,M,-25.1,M,1.8,0000*4F
$GPGSA,A,3,05,25,12,02,,,,,,,,,2.2,2.0,1.0*32
$GPGSV,3,1,11,25,69,282,41,12,61,167,23,05,49,116,24,02,46,047,35*76
$GPGSV,3,2,11,29,46,306,18,10,23,050,,24,19,234,,21,14,237,*73
$GPGSV,3,3,11,31,14,308,,04,01,053,,48,44,197,28*4F
$GPRMC,184233.000,A,3748.7892,N,12217.8683,W,0.90,156.78,141112,,,D*7A
$GPVTG,156.78,T,,M,0.90,N,1.7,K,D*0A
$GPGGA,184234.000,3748.7885,N,12217.8676,W,2,05,2.1,10.7,M,-25.1,M,2.8,0000*78
$GPGSA,A,3,05,25,29,12,02,,,,,,,,7.3,2.1,7.0*3A
$GPRMC,184234.000,A,3748.7885,N,12217.8676,W,1.03,151.65,141112,,,D*71
$GPVTG,151.65,T,,M,1.03,N,1.9,K,D*04
$GPGGA,184235.000,3748.7881,N,12217.8675,W,2,05,2.1,11.5,M,-25.1,M,3.8,0000*7C
$GPGSA,A,3,05,25,29,12,02,,,,,,,,7.3,2.1,7.0*3A
$GPRMC,184235.000,A,3748.7881,N,12217.8675,W,1.06,152.36,141112,,,D*77
$GPVTG,152.36,T,,M,1.06,N,2.0,K,D*0E
$GPGGA,184236.000,3748.7877,N,12217.8675,W,2,05,2.1,12.9,M,-25.1,M,4.8,0000*7E
$GPGSA,A,3,05,25,29,12,02,,,,,,,,7.3,2.1,7.0*3A
$GPRMC,184236.000,A,3748.7877,N,12217.8675,W,0.83,157.00,141112,,,D*71
$GPVTG,157.00,T,,M,0.83,N,1.5,K,D*04
$GPGGA,184237.000,3748.7875,N,12217.8676,W,2,05,2.1,14.0,M,-25.1,M,1.8,0000*74
$GPGSA,A,3,05,25,29,12,02,,,,,,,,7.3,2.1,7.0*3A
$GPRMC,184237.000,A,3748.7875,N,12217.8676,W,0.13,289.89,141112,,,D*79
$GPVTG,289.89,T,,M,0.13,N,0.2,K,D*0A
$GPGGA,184238.000,3748.7876,N,12217.8678,W,2,05,2.1,13.8,M,-25.1,M,1.8,0000*79
$GPGSA,A,3,05,25,29,12,02,,,,,,,,7.3,2.1,7.0*3A
$GPGSV,3,1,11,25,69,282,41,12,61,167,24,05,49,116,24,02,46,047,35*71
$GPGSV,3,2,11,29,46,306,19,10,23,050,,24,19,234,,21,14,237,*72
$GPGSV,3,3,11,31,14,308,,04,01,053,,48,44,197,28*4F
$GPRMC,184238.000,A,3748.7876,N,12217.8678,W,0.33,351.55,141112,,,D*7C
$GPVTG,351.55,T,,M,0.33,N,0.6,K,D*09
$GPGGA,184239.000,3748.7877,N,12217.8675,W,2,05,2.1,15.7,M,-25.1,M,1.8,0000*7D
$GPGSA,A,3,05,25,29,12,02,,,,,,,,7.3,2.1,7.0*3A
$GPRMC,184239.000,A,3748.7877,N,12217.8675,W,0.55,3.03,141112,,,D*76
$GPVTG,3.03,T,,M,0.55,N,1.0,K,D*09
$GPGGA,184240.000,3748.7879,N,12217.8674,W,2,05,2.1,16.8,M,-25.1,M,2.8,0000*73
$GPGSA,A,3,05,25,29,12,02,,,,,,,,7.3,2.1,7.0*3A
$GPRMC,184240.000,A,3748.7879,N,12217.8674,W,0.20,56.69,141112,,,D*49
$GPVTG,56.69,T,,M,0.20,N,0.4,K,D*32
$GPGGA,184241.000,3748.7883,N,12217.8675,W,2,04,2.0,17.3,M,-25.1,M,3.8,0000*7D
$GPGSA,A,3,05,25,12,02,,,,,,,,,2.2,2.0,1.0*32
$GPRMC,184241.000,A,3748.7883,N,12217.8675,W,0.50,6.78,141112,,,D*7E
$GPVTG,6.78,T,,M,0.50,N,0.9,K,D*0D
$GPGGA,184242.000,3748.7885,N,12217.8670,W,2,05,2.1,20.4,M,-25.1,M,4.8,0000*79
$GPGSA,A,3,05,25,29,12,02,,,,,,,,7.3,2.1,7.0*3A
$GPRMC,184242.000,A,3748.7885,N,12217.8670,W,0.37,35.59,141112,,,D*4C
$GPVTG,35.59,T,,M,0.37,N,0.7,K,D*31
$GPGGA,184243.000,3748.7885,N,12217.8670,W,2,04,2.0,20.8,M,-25.1,M,1.8,0000*71
$GPGSA,A,3,05,25,12,02,,,,,,,,,2.2,2.0,1.0*32
$GPGSV,3,1,11,25,69,282,41,12,61,167,24,05,49,116,25,02,46,047,35*70
$GPGSV,3,2,11,29,46,306,18,10,23,050,,24,19,234,,21,14,237,*73
$GPGSV,3,3,11,31,14,308,,04,01,053,,48,44,197,27*40
$GPRMC,184243.000,A,3748.7885,N,12217.8670,W,0.29,112.37,141112,,,D*7E
$GPGGA,184244.000,3748.7883,N,12217.8672,W,2,04,2.0,21.1,M,-25.1,M,1.8,0000*7A
$GPGSA,A,3,05,25,12,02,,,,,,,,,2.2,2.0,1.0*32
$GPRMC,184244.000,A,3748.7883,N,12217.8672,W,0.04,42.72,141112,,,D*47
$GPVTG,42.72,T,,M,0.04,N,0.1,K,D*3E
$GPGGA,184245.000,3748.7884,N,12217.8674,W,2,04,2.0,21.2,M,-25.1,M,1.8,0000*79
$GPGSA,A,3,05,25,12,02,,,,,,,,,2.2,2.0,1.0*32
$GPRMC,184245.000,A,3748.7884,N,12217.8674,W,0.16,351.20,141112,,,D*72
$GPVTG,351.20,T,,M,0.16,N,0.3,K,D*09
$GPGGA,184246.000,3748.7883,N,12217.8670,W,2,05,2.1,22.6,M,-25.1,M,2.8,0000*7D
$GPGSA,A,3,05,25,29,12,02,,,,,,,,7.3,2.1,7.0*3A
$GPRMC,184246.000,A,3748.7883,N,12217.8670,W,0.40,138.27,141112,,,D*7B
$GPVTG,138.27,T,,M,0.40,N,0.7,K,D*04
$GPGGA,184247.000,3748.7882,N,12217.8663,W,2,05,2.1,25.1,M,-25.1,M,3.8,0000*7E
$GPGSA,A,3,05,25,29,12,02,,,,,,,,7.3,2.1,7.0*3A
$GPRMC,184247.000,A,3748.7882,N,12217.8663,W,0.97,131.01,141112,,,D*7E
$GPVTG,131.01,T,,M,0.97,N,1.8,K,D*0D
$GPGGA,184248.000,3748.7881,N,12217.8657,W,2,05,2.1,26.3,M,-25.1,M,4.8,0000*73
$GPGSA,A,3,05,25,29,12,02,,,,,,,,7.3,2.1,7.0*3A
$GPGSV,3,1,11,25,69,281,38,12,61,167,24,05,49,116,23,29,46,306,19*7A
$GPGSV,3,2,11,02,45,047,32,10,23,050,,24,19,234,,21,14,238,*78
$GPGSV,3,3,11,31,14,308,,04,01,053,,48,44,197,28*4F
$GPRMC,184248.000,A,3748.7881,N,12217.8657,W,0.65,122.76,141112,,,D*7A
$GPVTG,122.76,T,,M,0.65,N,1.2,K,D*08
$GPGGA,184249.000,3748.7886,N,12217.8658,W,2,04,2.0,26.8,M,-25.1,M,1.8,0000*74
$GPGSA,A,3,05,25,12,02,,,,,,,,,2.2,2.0,1.0*32
$GPRMC,184249.000,A,3748.7886,N,12217.8658,W,0.72,342.54,141112,,,D*71
$GPVTG,342.54,T,,M,0.72,N,1.3,K,D*0B
$GPGGA,184250.000,3748.7887,N,12217.8662,W,2,04,2.0,27.4,M,-25.1,M,1.8,0000*79
$GPGSA,A,3,05,25,12,02,,,,,,,,,2.2,2.0,1.0*32
$GPRMC,184250.000,A,3748.7887,N,12217.8662,W,0.17,339.89,141112,,,D*7E
$GPVTG,339.89,T,,M,0.17,N,0.3,K,D*05
$GPGGA,184251.000,3748.7885,N,12217.8665,W,2,04,2.0,27.5,M,-25.1,M,1.8,0000*7C
$GPGSA,A,3,05,25,12,02,,,,,,,,,2.2,2.0,1.0*32
$GPRMC,184251.000,A,3748.7885,N,12217.8665,W,0.35,343.84,141112,,,D*7A
$GPVTG,343.84,T,,M,0.35,N,0.6,K,D*00
$GPGGA,184252.000,3748.7889,N,12217.8663,W,2,05,2.1,29.7,M,-25.1,M,1.8,0000*79
$GPGSA,A,3,05,25,29,12,02,,,,,,,,7.3,2.1,7.0*3A
$GPRMC,184252.000,A,3748.7889,N,12217.8663,W,0.59,0.13,141112,,,D*73
$GPVTG,0.13,T,,M,0.59,N,1.1,K,D*06
$GPGGA,184253.000,3748.7891,N,12217.8662,W,2,05,2.1,31.3,M,-25.1,M,1.8,0000*7D
$GPGSA,A,3,05,25,29,12,02,,,,,,,,7.3,2.1,7.0*3A
$GPGSV,3,1,11,25,69,281,37,12,61,167,24,05,49,116,25,29,46,306,18*72
$GPGSV,3,2,11,02,45,047,29,10,23,050,,24,19,234,,21,14,238,*72
$GPGSV,3,3,11,31,14,308,,04,01,053,,48,44,197,24*43
$GPRMC,184253.000,A,3748.7891,N,12217.8662,W,0.95,342.87,141112,,,D*72
$GPVTG,342.87,T,,M,0.95,N,1.8,K,D*07
$GPGGA,184254.000,3748.7891,N,12217.8664,W,2,05,1.8,32.7,M,-25.1,M,2.8,0000*72
$GPGSA,A,3,05,25,12,31,02,,,,,,,,3.3,1.8,2.7*3F
$GPRMC,184254.000,A,3748.7891,N,12217.8664,W,0.54,346.73,141112,,,D*71
$GPVTG,346.73,T,,M,0.54,N,1.0,K,D*0D
$GPGGA,184255.000,3748.7893,N,12217.8663,W,2,05,1.8,32.4,M,-25.1,M,3.8,0000*74
$GPGSA,A,3,05,25,12,31,02,,,,,,,,3.3,1.8,2.7*3F
$GPRMC,184255.000,A,3748.7893,N,12217.8663,W,0.92,62.85,141112,,,D*43
$GPVTG,62.85,T,,M,0.92,N,1.7,K,D*3C
$GPGGA,184256.000,3748.7899,N,12217.8659,W,2,05,1.8,33.3,M,-25.1,M,4.8,0000*75
$GPGSA,A,3,05,25,12,31,02,,,,,,,,3.3,1.8,2.7*3F
$GPRMC,184256.000,A,3748.7899,N,12217.8659,W,0.35,46.80,141112,,,D*4D
$GPVTG,46.80,T,,M,0.35,N,0.6,K,D*32
$GPGGA,184257.000,3748.7903,N,12217.8657,W,2,04,2.0,33.9,M,-25.1,M,5.8,0000*79
$GPGSA,A,3,05,25,12,02,,,,,,,,,2.2,2.0,1.0*32
$GPRMC,184257.000,A,3748.7903,N,12217.8657,W,0.44,40.83,141112,,,D*43
$GPVTG,40.83,T,,M,0.44,N,0.8,K,D*3F
$GPGGA,184258.000,3748.7907,N,12217.8657,W,2,04,2.0,34.6,M,-25.1,M,6.8,0000*79
$GPGSA,A,3,05,25,12,02,,,,,,,,,2.2,2.0,1.0*32
$GPGSV,3,1,10,25,69,281,33,12,61,167,25,05,49,116,25,29,46,306,*7F
$GPGSV,3,2,10,02,45,047,26,10,23,050,,24,19,234,,21,14,238,*7C
$GPGSV,3,3,10,31,14,308,,04,01,053,*77
$GPRMC,184258.000,A,3748.7907,N,12217.8657,W,0.41,2.22,141112,,,D*70
$GPGGA,184259.000,3748.7907,N,12217.8656,W,2,04,3.1,33.3,M,-25.1,M,7.8,0000*7A
$GPGSA,A,3,05,25,10,02,,,,,,,,,6.8,3.1,6.0*39
$GPRMC,184259.000,A,3748.7907,N,12217.8656,W,0.23,43.49,141112,,,D*4C
$GPVTG,43.49,T,,M,0.23,N,0.4,K,D*37
$GPGGA,184300.000,3748.7906,N,12217.8654,W,2,04,3.1,32.2,M,-25.1,M,8.8,0000*7B
$GPGSA,A,3,05,25,10,02,,,,,,,,,6.8,3.1,6.0*39
$GPRMC,184300.000,A,3748.7906,N,12217.8654,W,0.51,108.15,141112,,,D*70
$GPVTG,108.15,T,,M,0.51,N,1.0,K,D*00
$GPGGA,184301.000,3748.7905,N,12217.8653,W,2,04,3.1,28.6,M,-25.1,M,9.8,0000*70
$GPGSA,A,3,05,25,10,02,,,,,,,,,6.8,3.1,6.0*39
$GPRMC,184301.000,A,3748.7905,N,12217.8653,W,0.27,59.98,141112,,,D*44
$GPVTG,59.98,T,,M,0.27,N,0.5,K,D*35
$GPGGA,184302.000,3748.7905,N,12217.8653,W,2,05,2.0,29.4,M,-25.1,M,10.8,0000*49
$GPGSA,A,3,05,25,10,31,02,,,,,,,,3.2,2.0,2.5*35
$GPRMC,184302.000,A,3748.7905,N,12217.8653,W,0.50,85.90,141112,,,D*4E
$GPVTG,85.90,T,,M,0.50,N,0.9,K,D*30
$GPGGA,184303.000,3748.7909,N,12217.8657,W,2,05,2.0,28.5,M,-25.1,M,11.8,0000*41
$GPGSA,A,3,05,25,10,31,02,,,,,,,,3.2,2.0,2.5*35
$GPGSV,3,1,10,25,69,281,39,12,61,167,,05,49,116,25,29,46,306,*72
$GPGSV,3,2,10,02,45,047,33,10,23,050,20,24,19,234,,21,14,238,*7A
$GPGSV,3,3,10,31,14,308,20,04,01,053,*75
$GPRMC,184303.000,A,3748.7909,N,12217.8657,W,0.29,87.29,141112,,,D*49
$GPVTG,87.29,T,,M,0.29,N,0.5,K,D*32
$GPGGA,184304.000,3748.7915,N,12217.8661,W,2,05,2.0,28.4,M,-25.1,M,12.8,0000*4C
$GPGSA,A,3,05,25,10,31,02,,,,,,,,3.3,2.0,2.6*37
$GPRMC,184304.000,A,3748.7915,N,12217.8661,W,0.57,353.63,141112,,,D*7B
$GPVTG,353.63,T,,M,0.57,N,1.1,K,D*0A
$GPGGA,184305.000,3748.7922,N,12217.8663,W,2,06,1.9,29.8,M,-25.1,M,13.8,0000*4E
$GPGSA,A,3,05,25,10,31,29,02,,,,,,,3.0,1.9,2.4*37
$GPRMC,184305.000,A,3748.7922,N,12217.8663,W,0.56,343.12,141112,,,D*7A
$GPVTG,343.12,T,,M,0.56,N,1.0,K,D*0D
$GPGGA,184306.000,3748.7927,N,12217.8664,W,2,06,1.9,31.1,M,-25.1,M,14.8,0000*48
$GPGSA,A,3,05,25,10,31,29,02,,,,,,,3.0,1.9,2.4*37
$GPRMC,184306.000,A,3748.7927,N,12217.8664,W,0.55,32.92,141112,,,D*45
$GPVTG,32.92,T,,M,0.55,N,1.0,K,D*33
$GPGGA,184307.000,3748.7932,N,12217.8665,W,2,06,1.9,31.6,M,-25.1,M,15.8,0000*4A
$GPGSA,A,3,05,25,10,31,29,02,,,,,,,3.0,1.9,2.4*37
$GPRMC,184307.000,A,3748.7932,N,12217.8665,W,0.50,51.91,141112,,,D*42
$GPVTG,51.91,T,,M,0.50,N,0.9,K,D*38
$GPGGA,184308.000,3748.7935,N,12217.8666,W,2,06,1.9,31.0,M,-25.1,M,16.8,0000*44
$GPGSA,A,3,05,25,10,31,29,02,,,,,,,3.0,1.9,2.4*37
$GPGSV,3,1,10,25,69,281,39,12,61,167,,05,49,116,25,29,46,306,17*74
$GPGSV,3,2,10,02,45,047,33,10,23,050,21,24,19,234,,21,14,238,*7B
$GPGSV,3,3,10,31,14,308,20,04,01,053,*75
$GPRMC,184308.000,A,3748.7935,N,12217.8666,W,0.20,354.45,141112,,,D*71
$GPVTG,354.45,T,,M,0.20,N,0.4,K,D*0D
$GPGGA,184309.000,3748.7939,N,12217.8666,W,2,06,1.9,31.3,M,-25.1,M,17.8,0000*4B
$GPGSA,A,3,05,25,10,31,29,02,,,,,,,3.0,1.9,2.4*37
$GPRMC,184309.000,A,3748.7939,N,12217.8666,W,0.44,34.67,141112,,,D*4B
$GPVTG,34.67,T,,M,0.44,N,0.8,K,D*36
$GPGGA,184310.000,3748.7942,N,12217.8666,W,1,06,1.9,30.2,M,-25.1,M,,0000*5C
$GPGSA,A,3,05,25,10,31,29,02,,,,,,,3.0,1.9,2.4*37
$GPRMC,184310.000,A,3748.7942,N,12217.8666,W,0.30,48.15,141112,,,A*47
$GPVTG,48.15,T,,M,0.30,N,0.6,K,A*30
$GPGGA,184311.000,3748.7944,N,12217.8666,W,1,04,3.1,29.9,M,-25.1,M,,0000*50
$GPGSA,A,3,05,25,10,02,,,,,,,,,6.8,3.1,6.0*39
$GPRMC,184311.000,A,3748.7944,N,12217.8666,W,0.35,67.07,141112,,,A*4B
$GPVTG,67.07,T,,M,0.35,N,0.7,K,A*3A
$GPGGA,184312.000,3748.7948,N,12217.8668,W,1,05,2.4,29.2,M,-25.1,M,,0000*5F
$GPGSA,A,3,05,25,10,29,02,,,,,,,,5.3,2.4,4.7*3B
$GPRMC,184312.000,A,3748.7948,N,12217.8668,W,0.06,301.46,141112,,,A*7C
$GPVTG,301.46,T,,M,0.06,N,0.1,K,A*0A
$GPGGA,184313.000,3748.7951,N,12217.8672,W,1,05,2.4,28.4,M,-25.1,M,,0000*5A
$GPGSA,A,3,05,25,10,29,02,,,,,,,,5.3,2.4,4.7*3B
$GPGSV,3,1,10,25,69,281,39,12,61,167,,05,49,116,25,29,46,306,17*74
$GPGSV,3,2,10,02,45,047,32,10,23,050,21,24,19,234,,21,14,238,*7A
$GPGSV,3,3,10,31,14,308,,04,01,053,*77
$GPRMC,184313.000,A,3748.7951,N,12217.8672,W,0.51,357.42,141112,,,A*7B
$GPVTG,357.42,T,,M,0.51,N,0.9,K,A*07
$GPGGA,184314.000,3748.7953,N,12217.8673,W,1,04,3.1,27.3,M,-25.1,M,,0000*53
$GPGSA,A,3,05,25,10,02,,,,,,,,,6.8,3.1,6.0*39
$GPRMC,184314.000,A,3748.7953,N,12217.8673,W,0.53,339.49,141112,,,A*7E
$GPVTG,339.49,T,,M,0.53,N,1.0,K,A*0E
$GPGGA,184315.000,3748.7955,N,12217.8680,W,1,05,2.4,25.8,M,-25.1,M,,0000*54
$GPGSA,A,3,05,25,10,29,02,,,,,,,,5.3,2.4,4.7*3B
$GPRMC,184315.000,A,3748.7955,N,12217.8680,W,0.81,344.14,141112,,,A*78
$GPVTG,344.14,T,,M,0.81,N,1.5,K,A*06
$GPGGA,184316.000,3748.7957,N,12217.8684,W,1,05,2.4,24.6,M,-25.1,M,,0000*5E
$GPGSA,A,3,05,25,10,29,02,,,,,,,,5.3,2.4,4.7*3B
$GPRMC,184316.000,A,3748.7957,N,12217.8684,W,0.81,343.50,141112,,,A*7A
$GPVTG,343.50,T,,M,0.81,N,1.5,K,A*01
$GPGGA,184317.000,3748.7956,N,12217.8688,W,1,05,2.4,24.1,M,-25.1,M,,0000*55
$GPGSA,A,3,05,25,10,29,02,,,,,,,,5.3,2.4,4.7*3B
$GPRMC,184317.000,A,3748.7956,N,12217.8688,W,0.59,304.05,141112,,,A*70
$GPVTG,304.05,T,,M,0.59,N,1.1,K,A*03
$GPGGA,184318.000,3748.7954,N,12217.8689,W,1,04,3.1,23.7,M,-25.1,M,,0000*5D
$GPGSA,A,3,05,25,10,02,,,,,,,,,6.8,3.1,6.0*39
$GPGSV,3,1,10,25,69,281,39,12,61,167,,05,49,116,25,29,46,307,16*74
$GPGSV,3,2,10,02,45,047,32,10,23,049,21,24,19,234,,21,14,238,*72
$GPGSV,3,3,10,31,14,307,,04,00,054,*7E
$GPRMC,184318.000,A,3748.7954,N,12217.8689,W,0.44,266.84,141112,,,A*7C
$GPVTG,266.84,T,,M,0.44,N,0.8,K,A*0B
$GPGGA,184319.000,3748.7954,N,12217.8694,W,1,05,2.4,21.8,M,-25.1,M,,0000*58
$GPGSA,A,3,05,25,10,29,02,,,,,,,,5.3,2.4,4.7*3B
$GPRMC,184319.000,A,3748.7954,N,12217.8694,W,0.24,258.12,141112,,,A*75
$GPVTG,258.12,T,,M,0.24,N,0.4,K,A*03
$GPGGA,184320.000,3748.7953,N,12217.8695,W,1,05,2.4,20.7,M,-25.1,M,,0000*5A
$GPGSA,A,3,05,25,10,29,02,,,,,,,,5.3,2.4,4.7*3B
$GPRMC,184320.000,A,3748.7953,N,12217.8695,W,0.51,197.15,141112,,,A*7C
$GPVTG,197.15,T,,M,0.51,N,0.9,K,A*0B
$GPGGA,184321.000,3748.7951,N,12217.8695,W,1,05,2.4,19.6,M,-25.1,M,,0000*52
$GPGSA,A,3,05,25,10,29,02,,,,,,,,5.3,2.4,4.7*3B
$GPRMC,184321.000,A,3748.7951,N,12217.8695,W,0.66,193.71,141112,,,A*7D
$GPVTG,193.71,T,,M,0.66,N,1.2,K,A*03
$GPGGA,184322.000,3748.7949,N,12217.8697,W,1,05,2.4,18.0,M,-25.1,M,,0000*5D
$GPGSA,A,3,05,25,10,29,02,,,,,,,,5.3,2.4,4.7*3B
$GPRMC,184322.000,A,3748.7949,N,12217.8697,W,0.50,188.96,141112,,,A*73
$GPVTG,188.96,T,,M,0.50,N,0.9,K,A*0F
$GPGGA,184323.000,3748.7946,N,12217.8698,W,1,05,2.4,17.5,M,-25.1,M,,0000*56
$GPGSA,A,3,05,25,10,29,02,,,,,,,,5.3,2.4,4.7*3B
$GPGSV,3,1,10,25,69,281,39,12,61,167,,05,49,116,25,29,46,307,16*74
$GPGSV,3,2,10,02,45,047,32,10,23,049,20,24,19,234,,21,14,238,*73
$GPGSV,3,3,10,31,14,307,,04,00,054,*7E
$GPVTG,196.33,T,,M,0.58,N,1.1,K,A*0E
$GPGGA,184324.000,3748.7944,N,12217.8701,W,1,05,2.4,16.2,M,-25.1,M,,0000*54
$GPGSA,A,3,05,25,10,29,02,,,,,,,,5.3,2.4,4.7*3B
$GPRMC,184324.000,A,3748.7944,N,12217.8701,W,0.52,191.99,141112,,,A*73
$GPVTG,191.99,T,,M,0.52,N,1.0,K,A*02
$GPGGA,184325.000,3748.7943,N,12217.8705,W,1,05,2.5,14.3,M,-25.1,M,,0000*54
$GPGSA,A,3,05,25,10,29,02,,,,,,,,5.3,2.5,4.7*3A
$GPRMC,184325.000,A,3748.7943,N,12217.8705,W,0.63,199.75,141112,,,A*79
$GPVTG,199.75,T,,M,0.63,N,1.2,K,A*08
$GPGGA,184326.000,3748.7941,N,12217.8707,W,1,05,2.5,12.2,M,-25.1,M,,0000*50
$GPGSA,A,3,05,25,10,29,02,,,,,,,,5.3,2.5,4.7*3A
$GPRMC,184326.000,A,3748.7941,N,12217.8707,W,0.50,186.77,141112,,,A*76
$GPVTG,186.77,T,,M,0.50,N,0.9,K,A*0E
$GPGGA,184327.000,3748.7940,N,12217.8713,W,1,05,2.5,9.5,M,-25.1,M,,0000*68
$GPGSA,A,3,05,25,10,29,02,,,,,,,,5.3,2.5,4.7*3A
$GPRMC,184327.000,A,3748.7940,N,12217.8713,W,0.31,226.79,141112,,,A*73
$GPVTG,226.79,T,,M,0.31,N,0.6,K,A*01
$GPGGA,184328.000,3748.7940,N,12217.8712,W,1,05,2.5,7.3,M,-25.1,M,,0000*6E
$GPGSA,A,3,05,25,10,29,02,,,,,,,,5.3,2.5,4.7*3A
$GPGSV,3,1,10,25,69,281,39,12,61,167,,05,49,116,25,29,46,307,17*75
$GPGSV,3,2,10,02,45,047,31,10,23,049,20,24,19,234,,21,14,238,*70
$GPGSV,3,3,10,31,14,307,,04,00,054,*7E
$GPRMC,184328.000,A,3748.7940,N,12217.8712,W,0.37,291.67,141112,,,A*78
$GPVTG,291.67,T,,M,0.37,N,0.7,K,A*05
$GPGGA,184329.000,3748.7939,N,12217.8714,W,1,04,3.1,4.9,M,-25.1,M,,0000*6A
$GPGSA,A,3,05,25,10,02,,,,,,,,,6.8,3.1,6.0*39
$GPRMC,184329.000,A,3748.7939,N,12217.8714,W,0.55,315.12,141112,,,A*7A
$GPVTG,315.12,T,,M,0.55,N,1.0,K,A*08
$GPGGA,184330.000,3748.7938,N,12217.8714,W,1,05,2.5,4.8,M,-25.1,M,,0000*66
$GPGSA,A,3,05,25,10,29,02,,,,,,,,5.3,2.5,4.8*35
$GPRMC,184330.000,A,3748.7938,N,12217.8714,W,0.27,251.85,141112,,,A*79
$GPVTG,251.85,T,,M,0.27,N,0.5,K,A*06
$GPGGA,184331.000,3748.7937,N,12217.8716,W,1,05,2.5,4.0,M,-25.1,M,,0000*62
$GPGSA,A,3,05,25,10,29,02,,,,,,,,5.4,2.5,4.8*32
$GPRMC,184331.000,A,3748.7937,N,12217.8716,W,0.59,215.35,141112,,,A*77
$GPVTG,215.35,T,,M,0.59,N,1.1,K,A*01
$GPGGA,184332.000,3748.7935,N,12217.8720,W,1,05,2.5,2.5,M,-25.1,M,,0000*65
$GPGSA,A,3,05,25,10,29,02,,,,,,,,5.4,2.5,4.8*32
$GPRMC,184332.000,A,3748.7935,N,12217.8720,W,0.79,215.29,141112,,,A*7C
$GPVTG,215.29,T,,M,0.79,N,1.5,K,A*0A
$GPGGA,184333.000,3748.7933,N,12217.8717,W,1,05,2.5,2.0,M,-25.1,M,,0000*63
$GPGSA,A,3,05,25,10,29,02,,,,,,,,5.4,2.5,4.8*32
$GPGSV,3,1,10,25,69,281,39,12,61,167,,05,49,116,26,29,46,307,17*76
$GPGSV,3,2,10,02,45,047,31,10,23,049,21,24,19,234,,21,14,238,*71
$GPGSV,3,3,10,31,14,307,,04,00,054,*7E
$GPRMC,184333.000,A,3748.7933,N,12217.8717,W,0.89,200.97,141112,,,A*71
$GPVTG,200.97,T,,M,0.89,N,1.7,K,A*06
$GPGGA,184334.000,3748.7932,N,12217.8719,W,1,05,2.5,0.3,M,-25.1,M,,0000*6A
$GPGSA,A,3,05,25,10,29,02,,,,,,,,5.4,2.5,4.8*32
$GPRMC,184334.000,A,3748.7932,N,12217.8719,W,0.47,221.28,141112,,,A*7C
$GPVTG,221.28,T,,M,0.47,N,0.9,K,A*0C
$GPGGA,184335.000,3748.7930,N,12217.8717,W,1,05,2.5,0.8,M,-25.1,M,,0000*6C
$GPGSA,A,3,05,25,10,29,02,,,,,,,,5.4,2.5,4.8*32
$GPRMC,184335.000,A,3748.7930,N,12217.8717,W,0.29,269.41,141112,,,A*7A
$GPVTG,269.41,T,,M,0.29,N,0.5,K,A*0B
$GPGGA,184336.000,3748.7931,N,12217.8717,W,1,05,2.8,1.6,M,-25.1,M,,0000*6C
$GPGSA,A,3,05,25,10,12,02,,,,,,,,6.3,2.8,5.7*3D
$GPRMC,184336.000,A,3748.7931,N,12217.8717,W,0.41,237.95,141112,,,A*74
$GPVTG,237.95,T,,M,0.41,N,0.8,K,A*0A
$GPGGA,184337.000,3748.7937,N,12217.8715,W,1,05,2.8,2.8,M,-25.1,M,,0000*64
$GPGSA,A,3,05,25,10,12,02,,,,,,,,6.3,2.8,5.7*3D
$GPRMC,184337.000,A,3748.7937,N,12217.8715,W,0.51,307.07,141112,,,A*79
$GPVTG,307.07,T,,M,0.51,N,0.9,K,A*03
$GPGGA,184338.000,3748.7943,N,12217.8713,W,1,05,2.8,4.7,M,-25.1,M,,0000*67
$GPGSA,A,3,05,25,10,12,02,,,,,,,,6.3,2.8,5.7*3D
$GPGSV,3,1,10,25,69,281,39,12,61,167,23,05,49,116,26,29,46,307,*71
$GPGSV,3,2,10,02,45,047,31,10,23,049,21,24,19,234,,21,14,238,*71
$GPGSV,3,3,10,31,14,307,,04,00,054,*7E
$GPRMC,184338.000,A,3748.7943,N,12217.8713,W,0.61,341.51,141112,,,A*71
$GPVTG,341.51,T,,M,0.61,N,1.1,K,A*08
$GPGGA,184339.000,3748.7944,N,12217.8712,W,1,05,2.8,5.4,M,-25.1,M,,0000*62
$GPGSA,A,3,05,25,10,12,02,,,,,,,,6.3,2.8,5.7*3D
$GPRMC,184339.000,A,3748.7944,N,12217.8712,W,0.43,343.78,141112,,,A*7F
$GPVTG,343.78,T,,M,0.43,N,0.8,K,A*09
$GPGGA,184340.000,3748.7945,N,12217.8711,W,1,05,2.8,5.4,M,-25.1,M,,0000*6E
$GPGSA,A,3,05,25,10,12,02,,,,,,,,6.3,2.8,5.7*3D
$GPRMC,184340.000,A,3748.7945,N,12217.8711,W,0.02,81.46,141112,,,A*46
$GPVTG,81.46,T,,M,0.02,N,0.0,K,A*34
$GPGGA,184341.000,3748.7947,N,12217.8704,W,1,06,2.1,9.1,M,-25.1,M,,0000*6A
$GPGSA,A,3,05,25,10,12,29,02,,,,,,,5.1,2.1,4.6*3E
$GPRMC,184341.000,A,3748.7947,N,12217.8704,W,0.33,310.55,141112,,,A*7A
$GPVTG,310.55,T,,M,0.33,N,0.6,K,A*09
$GPGGA,184342.000,3748.7950,N,12217.8699,W,1,06,2.1,11.3,M,-25.1,M,,0000*51
$GPGSA,A,3,05,25,10,12,29,02,,,,,,,5.1,2.1,4.6*3E
$GPRMC,184342.000,A,3748.7950,N,12217.8699,W,0.35,330.02,141112,,,A*7C
$GPVTG,330.02,T,,M,0.35,N,0.6,K,A*0F
$GPGGA,184343.000,3748.7950,N,12217.8691,W,1,06,2.1,13.6,M,-25.1,M,,0000*5F
$GPGSA,A,3,05,25,10,12,29,02,,,,,,,5.1,2.1,4.6*3E
$GPGSV,3,1,10,25,69,281,39,12,61,167,22,05,49,116,27,29,46,307,17*77
$GPGSV,3,2,10,02,45,047,30,10,23,049,21,24,19,234,,21,14,238,*70
$GPGSV,3,3,10,31,14,307,,04,00,054,*7E
$GPRMC,184343.000,A,3748.7950,N,12217.8691,W,0.32,12.66,141112,,,A*43
$GPVTG,12.66,T,,M,0.32,N,0.6,K,A*39
$GPGGA,184344.000,3748.7951,N,12217.8682,W,1,06,2.1,16.8,M,-25.1,M,,0000*50
$GPGSA,A,3,05,25,10,12,29,02,,,,,,,5.1,2.1,4.6*3E
$GPRMC,184344.000,A,3748.7951,N,12217.8682,W,0.42,38.76,141112,,,A*49
$GPVTG,38.76,T,,M,0.42,N,0.8,K,A*39
$GPGGA,184345.000,3748.7950,N,12217.8683,W,1,06,2.1,16.6,M,-25.1,M,,0000*5F
$GPGSA,A,3,05,25,10,12,29,02,,,,,,,5.1,2.1,4.6*3E
$GPRMC,184345.000,A,3748.7950,N,12217.8683,W,0.11,110.20,141112,,,A*76
$GPVTG,110.20,T,,M,0.11,N,0.2,K,A*0D
$GPGGA,184346.000,3748.7952,N,12217.8688,W,1,06,2.1,16.7,M,-25.1,M,,0000*54
$GPGSA,A,3,05,25,10,12,29,02,,,,,,,5.1,2.1,4.6*3E
$GPRMC,184346.000,A,3748.7952,N,12217.8688,W,0.41,5.11,141112,,,A*7E
$GPVTG,5.11,T,,M,0.41,N,0.8,K,A*05
$GPGGA,184347.000,3748.7953,N,12217.8688,W,1,06,2.1,17.4,M,-25.1,M,,0000*56
$GPGSA,A,3,05,25,10,12,29,02,,,,,,,5.1,2.1,4.6*3E
$GPRMC,184347.000,A,3748.7953,N,12217.8688,W,0.66,351.58,141112,,,A*74
$GPVTG,351.58,T,,M,0.66,N,1.2,K,A*04
