$ADVER,3080,2.3
$GPRMC,175933.572,A,3748.7947,N,12217.8769,W,0.29,86.83,251011,,,A*4C
$GPGGA,175934.572,3748.7949,N,12217.8772,W,1,03,1.5,25.1,M,-25.1,M,,0000*5F
$GPGSA,A,2,12,02,17,,,,,,,,,,1.8,1.5,1.0*38
$GPRMC,175934.572,A,3748.7949,N,12217.8772,W,0.11,52.79,251011,,,A*48
$GPVTG,52.79,T,,M,0.11,N,0.2,K,N*39
$GPGGA,175935.572,3748.7947,N,12217.8771,W,1,03,1.5,25.1,M,-25.1,M,,0000*53
$GPGSA,A,2,12,02,17,,,,,,,,,,1.8,1.5,1.0*38
$GPRMC,175935.572,A,3748.7947,N,12217.8771,W,0.09,259.40,251011,,,A*7E
$GPVTG,259.40,T,,M,0.09,N,0.2,K,N*03
$GPGGA,175936.572,3748.7952,N,12217.8753,W,1,03,1.5,25.1,M,-25.1,M,,0000*54
$GPGSA,A,2,12,02,17,,,,,,,,,,1.8,1.5,1.0*38
$GPRMC,175936.572,A,3748.7952,N,12217.8753,W,0.37,86.21,251011,,,A*43
$GPVTG,86.21,T,,M,0.37,N,0.7,K,N*3C
$GPGGA,175937.572,3748.7958,N,12217.8739,W,1,03,1.5,25.1,M,-25.1,M,,0000*53
$GPGSA,A,2,12,02,17,,,,,,,,,,1.8,1.5,1.0*38
$GPGSV,3,1,12,02,41,179,39,17,35,050,29,12,31,306,29,27,63,241,31*7E
$GPGSV,3,2,12,04,60,110,32,09,60,274,31,28,15,103,24,10,03,129,25*71
$GPGSV,3,3,12,25,01,297,,14,00,328,,20,00,041,,48,00,000,37*73
$GPRMC,175937.572,A,3748.7958,N,12217.8739,W,0.10,356.47,251011,,,A*7F
$GPVTG,356.47,T,,M,0.10,N,0.2,K,N*02
$GPGGA,175938.572,3748.7957,N,12217.8743,W,1,03,1.5,25.1,M,-25.1,M,,0000*5E
$GPGSA,A,2,12,02,17,,,,,,,,,,1.8,1.5,1.0*38
$GPRMC,175938.572,A,3748.7957,N,12217.8743,W,0.06,65.28,251011,,,A*4F
$GPVTG,65.28,T,,M,0.06,N,0.1,K,N*3C
$GPGGA,175939.572,3748.7954,N,12217.8748,W,1,03,1.5,25.1,M,-25.1,M,,0000*57
$GPGSA,A,2,12,02,17,,,,,,,,,,1.8,1.5,1.0*38
$GPRMC,175939.572,A,3748.7954,N,12217.8748,W,0.13,75.10,251011,,,A*48
$GPVTG,75.10,T,,M,0.13,N,0.2,K,N*31
$GPGGA,175940.572,3748.7924,N,12217.8813,W,1,03,1.5,25.1,M,-25.1,M,,0000*5F
$GPGSA,A,2,12,02,17,,,,,,,,,,1.8,1.5,1.0*38
$GPRMC,175940.572,A,3748.7924,N,12217.8813,W,0.82,59.87,251011,,,A*48
$GPVTG,59.87,T,,M,0.82,N,1.5,K,N*3F
$GPGGA,175941.572,3748.7928,N,12217.8815,W,2,03,1.5,25.1,M,-25.1,M,1.4,0000*7C
$GPGSA,A,2,12,02,17,,,,,,,,,,1.8,1.5,1.0*38
$GPRMC,175941.572,A,3748.7928,N,12217.8815,W,0.59,77.22,251011,,,D*43
$GPVTG,77.22,T,,M,0.59,N,1.1,K,N*3E
$GPGGA,175942.572,3748.7949,N,12217.8772,W,2,03,1.5,25.1,M,-25.1,M,1.4,0000*76
$GPGSA,A,2,12,02,17,,,,,,,,,,1.8,1.5,1.0*38
$GPGSV,3,1,12,02,41,179,39,17,35,050,25,12,31,306,30,27,63,241,31*7A
$GPGSV,3,2,12,04,60,110,26,09,60,274,28,28,15,103,25,10,03,129,19*72
$GPGSV,3,3,12,25,01,297,,14,00,328,,20,00,041,,48,00,000,37*73
$GPRMC,175942.572,A,3748.7949,N,12217.8772,W,0.28,127.57,251011,,,D*79
$GPVTG,127.57,T,,M,0.28,N,0.5,K,N*0B
$GPGGA,175943.572,3748.7968,N,12217.8728,W,2,03,1.5,25.1,M,-25.1,M,1.4,0000*7B
$GPGSA,A,2,12,02,17,,,,,,,,,,1.8,1.5,1.0*38
$GPRMC,175943.572,A,3748.7968,N,12217.8728,W,0.82,204.35,251011,,,D*72
$GPVTG,204.35,T,,M,0.82,N,1.5,K,N*0C
$GPGGA,175944.572,3748.7952,N,12217.8752,W,2,03,1.5,25.1,M,-25.1,M,2.4,0000*7B
$GPGSA,A,2,12,02,17,,,,,,,,,,1.8,1.5,1.0*38
$GPRMC,175944.572,A,3748.7952,N,12217.8752,W,0.45,51.65,251011,,,D*4D
$GPVTG,51.65,T,,M,0.45,N,0.8,K,N*3C
$GPGGA,175945.572,3748.7949,N,12217.8752,W,2,03,1.5,25.1,M,-25.1,M,3.4,0000*71
$GPGSA,A,2,12,02,17,,,,,,,,,,1.8,1.5,1.0*38
$GPRMC,175945.572,A,3748.7949,N,12217.8752,W,0.12,288.24,251011,,,D*77
$GPVTG,288.24,T,,M,0.12,N,0.2,K,N*07
$GPGGA,175946.572,3748.7970,N,12217.8674,W,2,03,1.5,25.1,M,-25.1,M,4.4,0000*7A
$GPGSA,A,2,12,02,17,,,,,,,,,,1.8,1.5,1.0*38
$GPRMC,175946.572,A,3748.7970,N,12217.8674,W,0.75,304.38,251011,,,D*72
$GPVTG,304.38,T,,M,0.75,N,1.4,K,N*09
$GPGGA,175947.572,3748.7983,N,12217.8659,W,2,03,1.5,25.1,M,-25.1,M,5.4,0000*79
$GPGSA,A,2,12,02,17,,,,,,,,,,1.8,1.5,1.0*38
$GPGSV,3,1,12,02,41,179,30,17,35,050,32,12,31,306,36,27,63,241,24*77
$GPGSV,3,2,12,04,60,110,25,09,60,274,32,28,15,103,,10,03,129,*75
$GPGSV,3,3,12,25,01,297,,14,00,328,,20,00,041,,48,00,000,28*7D
$GPVTG,64.06,T,,M,0.12,N,0.2,K,N*37
$GPGGA,175948.572,3748.7977,N,12217.8662,W,2,03,1.5,25.1,M,-25.1,M,6.4,0000*76
$GPGSA,A,2,12,02,17,,,,,,,,,,1.8,1.5,1.0*38
$GPRMC,175948.572,A,3748.7977,N,12217.8662,W,0.41,19.22,251011,,,D*4F
$GPVTG,19.22,T,,M,0.41,N,0.8,K,N*37
$GPGGA,175949.572,3748.8042,N,12217.8655,W,2,03,1.5,25.1,M,-25.1,M,7.4,0000*72
$GPGSA,A,2,12,02,17,,,,,,,,,,1.8,1.5,1.0*38
$GPRMC,175949.572,A,3748.8042,N,12217.8655,W,2.68,3.92,251011,,,D*73
$GPVTG,3.92,T,,M,2.68,N,5.0,K,N*03
$GPGGA,175950.572,3748.8083,N,12217.8637,W,2,03,1.5,25.1,M,-25.1,M,8.4,0000*7C
$GPGSA,A,2,12,02,17,,,,,,,,,,1.8,1.5,1.0*38
$GPRMC,175950.572,A,3748.8083,N,12217.8637,W,2.70,1.58,251011,,,D*7F
$GPVTG,1.58,T,,M,2.70,N,5.0,K,N*0E
$GPGGA,175951.572,3748.8106,N,12217.8628,W,2,03,1.5,25.1,M,-25.1,M,9.4,0000*7E
$GPGSA,A,2,12,02,17,,,,,,,,,,1.8,1.5,1.0*38
$GPRMC,175951.572,A,3748.8106,N,12217.8628,W,2.33,1.10,251011,,,D*77
$GPVTG,1.10,T,,M,2.33,N,4.3,K,N*07
$GPGGA,175952.572,3748.8174,N,12217.8625,W,2,03,1.5,25.1,M,-25.1,M,10.4,0000*4D
$GPGSA,A,2,12,02,17,,,,,,,,,,1.8,1.5,1.0*38
$GPGSV,3,1,12,02,41,179,20,17,35,050,30,12,31,306,38,27,63,241,26*78
$GPGSV,3,2,12,04,60,110,27,09,60,274,34,28,15,103,,10,03,129,*71
$GPGSV,3,3,12,25,01,297,24,14,00,328,,20,00,041,,48,00,000,27*74
$GPRMC,175952.572,A,3748.8174,N,12217.8625,W,0.49,9.68,251011,,,D*74
$GPVTG,9.68,T,,M,0.49,N,0.9,K,N*01
$GPGGA,175953.572,3748.8104,N,12217.8621,W,2,03,1.5,25.1,M,-25.1,M,11.4,0000*4E
$GPGSA,A,2,12,02,17,,,,,,,,,,1.8,1.5,1.0*38
$GPRMC,175953.572,A,3748.8104,N,12217.8621,W,0.45,162.19,251011,,,D*70
$GPVTG,162.19,T,,M,0.45,N,0.8,K,N*06
$GPGGA,175954.572,3748.8073,N,12217.8613,W,2,03,1.5,25.1,M,-25.1,M,12.4,0000*4A
$GPGSA,A,2,12,02,17,,,,,,,,,,1.8,1.5,1.0*38
$GPRMC,175954.572,A,3748.8073,N,12217.8613,W,0.17,83.19,251011,,,D*4E
$GPVTG,83.19,T,,M,0.17,N,0.3,K,N*34
$GPGGA,175955.572,3748.8059,N,12217.8609,W,2,03,1.5,25.1,M,-25.1,M,13.4,0000*49
$GPGSA,A,2,12,02,17,,,,,,,,,,1.8,1.5,1.0*38
$GPRMC,175955.572,A,3748.8059,N,12217.8609,W,0.71,101.91,251011,,,D*77
$GPVTG,101.91,T,,M,0.71,N,1.3,K,N*0E
$GPGGA,175956.572,3748.8030,N,12217.8565,W,2,03,1.5,25.1,M,-25.1,M,14.4,0000*4B
$GPGSA,A,2,12,02,17,,,,,,,,,,1.8,1.5,1.0*38
$GPRMC,175956.572,A,3748.8030,N,12217.8565,W,0.64,70.91,251011,,,D*41
$GPVTG,70.91,T,,M,0.64,N,1.2,K,N*3C
$GPGGA,175957.572,3748.7989,N,12217.8564,W,2,03,1.5,25.1,M,-25.1,M,15.4,0000*4E
$GPGSA,A,2,12,02,17,,,,,,,,,,1.8,1.5,1.0*38
$GPGSV,3,1,12,02,41,179,26,17,35,050,31,12,31,306,29,27,63,241,30*78
$GPGSV,3,2,12,04,60,110,20,09,60,274,31,28,15,103,19,10,03,129,*7B
$GPGSV,3,3,12,25,01,297,21,14,00,328,,20,00,041,,48,00,000,28*7E
$GPRMC,175957.572,A,3748.7989,N,12217.8564,W,0.17,72.22,251011,,,D*4B
$GPVTG,72.22,T,,M,0.17,N,0.3,K,N*32
$GPGGA,175958.572,3748.7959,N,12217.8570,W,2,03,1.5,25.1,M,-25.1,M,16.4,0000*4A
$GPGSA,A,2,12,02,17,,,,,,,,,,1.8,1.5,1.0*38
$GPRMC,175958.572,A,3748.7959,N,12217.8570,W,0.07,81.17,251011,,,D*47
$GPVTG,81.17,T,,M,0.07,N,0.1,K,N*3B
$GPGGA,175959.572,3748.7925,N,12217.8574,W,2,03,1.5,25.1,M,-25.1,M,17.4,0000*45
$GPGSA,A,2,12,02,17,,,,,,,,,,1.8,1.5,1.0*38
$GPRMC,175959.572,A,3748.7925,N,12217.8574,W,0.13,92.48,251011,,,D*44
$GPVTG,92.48,T,,M,0.13,N,0.2,K,N*35
$GPGGA,180000.572,3748.7925,N,12217.8568,W,1,03,1.5,25.1,M,-25.1,M,,0000*58
$GPGSA,A,2,12,02,17,,,,,,,,,,1.8,1.5,1.0*38
$GPRMC,180000.572,A,3748.7925,N,12217.8568,W,0.11,66.31,251011,,,A*44
$GPVTG,66.31,T,,M,0.11,N,0.2,K,N*32
$GPGGA,180001.572,3748.7962,N,12217.8570,W,1,03,1.5,25.1,M,-25.1,M,,0000*53
$GPGSA,A,2,12,02,17,,,,,,,,,,1.8,1.5,1.0*38
$GPRMC,180001.572,A,3748.7962,N,12217.8570,W,0.09,349.38,251011,,,A*71
$GPVTG,349.38,T,,M,0.09,N,0.2,K,N*0C
$GPGGA,180002.572,3748.7959,N,12217.8578,W,1,03,1.5,25.1,M,-25.1,M,,0000*50
$GPGSA,A,2,12,02,17,,,,,,,,,,1.8,1.5,1.0*38
$GPGSV,3,1,11,02,41,179,21,17,35,050,32,12,31,306,34,27,63,241,31*72
$GPGSV,3,2,11,04,60,110,21,09,60,274,33,28,15,103,17,10,03,129,20*77
$GPGSV,3,3,11,25,01,297,21,14,00,328,,20,00,041,*4B
$GPRMC,180002.572,A,3748.7959,N,12217.8578,W,2.46,359.55,251011,,,A*71
$GPVTG,359.55,T,,M,2.46,N,4.6,K,N*0F
$GPGGA,180003.572,3748.7889,N,12217.8583,W,1,03,1.5,25.1,M,-25.1,M,,0000*59
$GPGSA,A,2,12,02,17,,,,,,,,,,1.8,1.5,1.0*38
$GPRMC,180003.572,A,3748.7889,N,12217.8583,W,1.98,0.61,251011,,,A*70
$GPVTG,0.61,T,,M,1.98,N,3.7,K,N*01
$GPGGA,180004.572,3748.7970,N,12217.8585,W,1,03,1.5,25.1,M,-25.1,M,,0000*5F
$GPGSA,A,2,12,02,17,,,,,,,,,,1.8,1.5,1.0*38
$GPRMC,180004.572,A,3748.7970,N,12217.8585,W,0.96,3.99,251011,,,A*7D
$GPVTG,3.99,T,,M,0.96,N,1.8,K,N*07
$GPGGA,180005.572,3748.8032,N,12217.8587,W,1,03,1.5,25.1,M,-25.1,M,,0000*5C
$GPGSA,A,2,12,02,17,,,,,,,,,,1.8,1.5,1.0*38
$GPRMC,180005.572,A,3748.8032,N,12217.8587,W,0.06,349.79,251011,,,A*74
$GPVTG,349.79,T,,M,0.06,N,0.1,K,N*05
$GPGGA,180006.572,3748.8051,N,12217.8590,W,1,03,1.5,25.1,M,-25.1,M,,0000*5C
$GPGSA,A,2,12,02,17,,,,,,,,,,1.8,1.5,1.0*38
$GPRMC,180006.572,A,3748.8051,N,12217.8590,W,0.29,156.40,251011,,,A*7F
$GPVTG,156.40,T,,M,0.29,N,0.5,K,N*0A
$GPGGA,180007.572,3748.8006,N,12217.8590,W,1,03,1.5,25.1,M,-25.1,M,,0000*5F
$GPGSA,A,2,12,02,17,,,,,,,,,,1.8,1.5,1.0*38
$GPGSV,3,1,11,02,41,179,25,17,35,050,32,12,31,306,32,27,63,241,26*76
$GPGSV,3,2,11,04,60,110,08,09,60,274,29,28,15,103,18,10,03,129,*7A
$GPGSV,3,3,11,25,01,297,21,14,00,328,,20,00,041,*4B
$GPRMC,180007.572,A,3748.8006,N,12217.8590,W,0.14,48.49,251011,,,A*45
$GPVTG,48.49,T,,M,0.14,N,0.3,K,N*35
$GPGGA,180008.572,3748.8044,N,12217.8591,W,1,03,1.5,25.1,M,-25.1,M,,0000*57
$GPGSA,A,2,12,02,17,,,,,,,,,,1.8,1.5,1.0*38
$GPRMC,180008.572,A,3748.8044,N,12217.8591,W,0.10,101.15,251011,,,A*7C
$GPVTG,101.15,T,,M,0.10,N,0.2,K,N*05
$GPGGA,180009.572,3748.8046,N,12217.8591,W,1,03,1.5,25.1,M,-25.1,M,,0000*54
$GPGSA,A,2,12,02,17,,,,,,,,,,1.8,1.5,1.0*38
$GPRMC,180009.572,A,3748.8046,N,12217.8591,W,0.12,96.20,251011,,,A*44
$GPVTG,96.20,T,,M,0.12,N,0.2,K,N*3E
$GPGGA,180010.572,3748.8031,N,12217.8591,W,1,03,1.5,25.1,M,-25.1,M,,0000*5C
$GPGSA,A,2,12,02,17,,,,,,,,,,1.8,1.5,1.0*38
$GPRMC,180010.572,A,3748.8031,N,12217.8591,W,0.11,50.63,251011,,,A*42
$GPVTG,50.63,T,,M,0.11,N,0.2,K,N*30
$GPGGA,180011.572,3748.8030,N,12217.8592,W,1,03,1.5,25.1,M,-25.1,M,,0000*5F
$GPGSA,A,2,12,02,17,,,,,,,,,,1.8,1.5,1.0*38
$GPRMC,180011.572,A,3748.8030,N,12217.8592,W,0.07,79.25,251011,,,A*4F
$GPVTG,79.25,T,,M,0.07,N,0.1,K,N*3D
$GPGGA,180012.572,3748.8028,N,12217.8591,W,1,03,1.5,25.1,M,-25.1,M,,0000*56
$GPGSA,A,2,12,02,17,,,,,,,,,,1.8,1.5,1.0*38
$GPGSV,3,1,11,02,41,179,26,17,35,050,32,12,31,306,32,27,63,241,25*76
$GPGSV,3,2,11,04,60,110,20,09,60,274,29,28,15,103,19,10,03,129,*71
$GPGSV,3,3,11,25,01,297,20,14,00,328,,20,00,041,*4A
$GPVTG,85.31,T,,M,0.09,N,0.2,K,N*36
$GPGGA,180013.572,3748.8023,N,12217.8592,W,1,03,1.5,25.1,M,-25.1,M,,0000*5F
$GPGSA,A,2,12,02,17,,,,,,,,,,1.8,1.5,1.0*38
$GPRMC,180013.572,A,3748.8023,N,12217.8592,W,0.12,84.03,251011,,,A*4D
$GPVTG,84.03,T,,M,0.12,N,0.2,K,N*3C
$GPGGA,180014.572,3748.8021,N,12217.8592,W,1,03,1.5,25.1,M,-25.1,M,,0000*5A
$GPGSA,A,2,12,02,17,,,,,,,,,,1.8,1.5,1.0*38
$GPRMC,180014.572,A,3748.8021,N,12217.8592,W,0.09,96.33,251011,,,A*42
$GPVTG,96.33,T,,M,0.09,N,0.2,K,N*36
$GPGGA,180015.572,3748.8041,N,12217.8594,W,1,03,1.5,25.1,M,-25.1,M,,0000*5B
$GPGSA,A,2,12,02,17,,,,,,,,,,1.8,1.5,1.0*38
$GPRMC,180015.572,A,3748.8041,N,12217.8594,W,0.18,212.20,251011,,,A*7F
$GPVTG,212.20,T,,M,0.18,N,0.3,K,N*0B
$GPGGA,180016.572,3748.8039,N,12217.8615,W,1,03,1.5,25.1,M,-25.1,M,,0000*5D
$GPGSA,A,2,12,02,17,,,,,,,,,,1.8,1.5,1.0*38
$GPRMC,180016.572,A,3748.8039,N,12217.8615,W,0.56,244.50,251011,,,A*77
$GPVTG,244.50,T,,M,0.56,N,1.0,K,N*07
$GPGGA,180017.572,3748.8053,N,12217.8633,W,1,03,1.5,25.1,M,-25.1,M,,0000*54
$GPGSA,A,2,12,02,17,,,,,,,,,,1.8,1.5,1.0*38
$GPGSV,3,1,11,02,42,178,22,17,35,050,27,12,31,306,24,27,63,240,20*77
$GPGSV,3,2,11,04,60,109,21,09,60,274,29,28,15,103,26,10,04,129,*73
$GPGSV,3,3,11,25,02,298,20,14,00,328,,20,00,041,*46
$GPRMC,180017.572,A,3748.8053,N,12217.8633,W,0.94,22.08,251011,,,A*4F
$GPVTG,22.08,T,,M,0.94,N,1.7,K,N*31
$GPGGA,180018.572,3748.8051,N,12217.8535,W,1,03,1.5,25.1,M,-25.1,M,,0000*5C
$GPGSA,A,2,12,02,17,,,,,,,,,,1.8,1.5,1.0*38
$GPRMC,180018.572,A,3748.8051,N,12217.8535,W,5.16,175.59,251011,,,A*7F
$GPVTG,175.59,T,,M,5.16,N,9.6,K,N*00
$GPGGA,180031.571,3748.8023,N,12217.8529,W,1,03,1.5,25.1,M,-25.1,M,,0000*5C
$GPGSA,A,2,02,12,17,,,,,,,,,,1.8,1.5,1.0*38
$GPRMC,180031.571,A,3748.8023,N,12217.8529,W,3.60,161.35,251011,,,A*77
$GPVTG,161.35,T,,M,3.60,N,6.7,K,N*06
$GPGGA,180032.571,3748.8017,N,12217.8605,W,1,03,1.5,25.1,M,-25.1,M,,0000*55
$GPGSA,A,2,02,12,17,,,,,,,,,,1.8,1.5,1.0*38
$GPGSV,3,1,11,02,42,178,18,17,35,050,37,12,31,306,23,27,63,240,27*7F
$GPGSV,3,2,11,04,60,109,,09,60,274,28,28,15,103,20,10,04,129,16*70
$GPGSV,3,3,11,25,02,298,,14,00,328,,20,00,041,*44
$GPRMC,180032.571,A,3748.8017,N,12217.8605,W,1.78,190.87,251011,,,A*72
$GPVTG,190.87,T,,M,1.78,N,3.3,K,N*0B
$GPGGA,180033.571,3748.8024,N,12217.8592,W,1,03,1.5,25.1,M,-25.1,M,,0000*59
$GPGSA,A,2,02,12,17,,,,,,,,,,1.8,1.5,1.0*38
$GPRMC,180033.571,A,3748.8024,N,12217.8592,W,2.02,154.08,251011,,,A*7F
$GPVTG,154.08,T,,M,2.02,N,3.7,K,N*0E
$GPGGA,180034.571,3748.8026,N,12217.8606,W,1,03,1.5,25.1,M,-25.1,M,,0000*52
$GPGSA,A,2,02,12,17,,,,,,,,,,1.8,1.5,1.0*38
$GPRMC,180034.571,A,3748.8026,N,12217.8606,W,0.48,187.76,251011,,,A*7F
$GPVTG,187.76,T,,M,0.48,N,0.9,K,N*08
$GPGGA,180035.571,3748.8004,N,12217.8596,W,1,03,1.5,25.1,M,-25.1,M,,0000*59
$GPGSA,A,2,02,12,17,,,,,,,,,,1.8,1.5,1.0*38
$GPRMC,180035.571,A,3748.8004,N,12217.8596,W,0.99,2.53,251011,,,A*73
$GPVTG,2.53,T,,M,0.99,N,1.8,K,N*0F
$GPGGA,180036.571,3748.7983,N,12217.8533,W,1,03,1.5,25.1,M,-25.1,M,,0000*5C
$GPGSA,A,2,02,12,17,,,,,,,,,,1.8,1.5,1.0*38
$GPRMC,180036.571,A,3748.7983,N,12217.8533,W,0.38,29.64,251011,,,A*40
$GPVTG,29.64,T,,M,0.38,N,0.7,K,N*37
$GPGGA,180037.571,3748.8031,N,12217.8570,W,1,03,1.5,25.1,M,-25.1,M,,0000*55
$GPGSA,A,2,02,12,17,,,,,,,,,,1.8,1.5,1.0*38
$GPGSV,3,1,11,02,42,178,19,17,35,050,37,12,31,306,23,27,63,240,24*7D
$GPGSV,3,2,11,04,60,109,,09,60,274,28,28,15,103,22,10,04,129,14*70
$GPGSV,3,3,11,25,02,298,,14,00,328,,20,00,041,*44
$GPRMC,180037.571,A,3748.8031,N,12217.8570,W,0.52,189.73,251011,,,A*78
$GPGGA,180038.571,3748.8021,N,12217.8634,W,1,03,1.5,25.1,M,-25.1,M,,0000*58
$GPGSA,A,2,02,12,17,,,,,,,,,,1.8,1.5,1.0*38
$GPRMC,180038.571,A,3748.8021,N,12217.8634,W,1.34,346.07,251011,,,A*76
$GPVTG,346.07,T,,M,1.34,N,2.5,K,N*05
$GPGGA,180039.571,3748.7997,N,12217.8684,W,1,03,1.5,25.1,M,-25.1,M,,0000*59
$GPGSA,A,2,02,12,17,,,,,,,,,,1.8,1.5,1.0*38
$GPRMC,180039.571,A,3748.7997,N,12217.8684,W,0.42,288.16,251011,,,A*74
$GPVTG,288.16,T,,M,0.42,N,0.8,K,N*09
$GPGGA,180040.571,3748.7974,N,12217.8695,W,1,03,1.5,25.1,M,-25.1,M,,0000*5A
$GPGSA,A,2,02,12,17,,,,,,,,,,1.8,1.5,1.0*38
$GPRMC,180040.571,A,3748.7974,N,12217.8695,W,0.23,126.44,251011,,,A*70
$GPVTG,126.44,T,,M,0.23,N,0.4,K,N*02
$GPGGA,180041.571,3748.7973,N,12217.8801,W,1,03,1.5,25.1,M,-25.1,M,,0000*5F
$GPGSA,A,2,02,12,17,,,,,,,,,,1.8,1.5,1.0*38
$GPRMC,180041.571,A,3748.7973,N,12217.8801,W,0.70,105.90,251011,,,A*7B
$GPVTG,105.90,T,,M,0.70,N,1.3,K,N*0A
$GPGGA,180042.571,3748.7929,N,12217.8917,W,1,03,1.5,25.1,M,-25.1,M,,0000*55
$GPGSA,A,2,02,12,17,,,,,,,,,,1.8,1.5,1.0*38
$GPGSV,3,1,11,02,42,178,20,17,35,050,20,12,31,306,22,27,63,240,18*7F
$GPGSV,3,2,11,04,60,109,23,09,60,274,24,28,15,103,22,10,04,129,*78
$GPGSV,3,3,11,25,02,298,,14,00,328,,20,00,041,*44
$GPRMC,180042.571,A,3748.7929,N,12217.8917,W,1.41,127.70,251011,,,A*7C
$GPVTG,127.70,T,,M,1.41,N,2.6,K,N*01
$GPGGA,180043.571,3748.7955,N,12217.8781,W,1,03,1.5,25.1,M,-25.1,M,,0000*5E
$GPGSA,A,2,02,12,17,,,,,,,,,,1.8,1.5,1.0*38
$GPRMC,180043.571,A,3748.7955,N,12217.8781,W,2.13,124.83,251011,,,A*7C
$GPVTG,124.83,T,,M,2.13,N,3.9,K,N*04
$GPGGA,180044.571,3748.7941,N,12217.8676,W,1,03,1.5,25.1,M,-25.1,M,,0000*55
$GPGSA,A,2,02,12,17,,,,,,,,,,1.8,1.5,1.0*38
$GPRMC,180044.571,A,3748.7941,N,12217.8676,W,0.43,143.68,251011,,,A*74
$GPVTG,143.68,T,,M,0.43,N,0.8,K,N*05
$GPGGA,180045.571,3748.7981,N,12217.8697,W,1,03,1.5,25.1,M,-25.1,M,,0000*57
$GPGSA,A,2,02,12,17,,,,,,,,,,1.8,1.5,1.0*38
$GPRMC,180045.571,A,3748.7981,N,12217.8697,W,1.33,347.41,251011,,,A*7D
$GPVTG,347.41,T,,M,1.33,N,2.5,K,N*01
$GPGGA,180046.571,3748.7968,N,12217.8780,W,1,03,1.5,25.1,M,-25.1,M,,0000*54
$GPGSA,A,2,02,12,17,,,,,,,,,,1.8,1.5,1.0*38
$GPRMC,180046.571,A,3748.7968,N,12217.8780,W,0.34,4.14,251011,,,A*7C
$GPVTG,4.14,T,,M,0.34,N,0.6,K,N*02
$GPGGA,180047.571,3748.7967,N,12217.8771,W,1,03,1.5,25.1,M,-25.1,M,,0000*54
$GPGSA,A,2,02,12,17,,,,,,,,,,1.8,1.5,1.0*38
$GPGSV,3,1,11,02,42,178,20,17,35,050,24,12,31,306,22,27,63,240,19*7A
$GPGSV,3,2,11,04,60,109,23,09,60,274,22,28,15,103,22,10,04,129,*7E
$GPGSV,3,3,11,25,02,298,,14,00,328,,20,00,041,*44
$GPRMC,180047.571,A,3748.7967,N,12217.8771,W,1.36,203.96,251011,,,A*70
$GPVTG,203.96,T,,M,1.36,N,2.5,K,N*0F
$GPGGA,180048.571,3748.8048,N,12217.8742,W,1,03,1.5,25.1,M,-25.1,M,,0000*50
$GPGSA,A,2,02,12,17,,,,,,,,,,1.8,1.5,1.0*38
$GPRMC,180048.571,A,3748.8048,N,12217.8742,W,3.67,240.91,251011,,,A*72
$GPVTG,240.91,T,,M,3.67,N,6.8,K,N*00
$GPGGA,180049.571,3748.8046,N,12217.8688,W,1,03,1.5,25.1,M,-25.1,M,,0000*58
$GPGSA,A,2,02,12,17,,,,,,,,,,1.8,1.5,1.0*38
$GPRMC,180049.571,A,3748.8046,N,12217.8688,W,1.66,262.88,251011,,,A*71
$GPVTG,262.88,T,,M,1.66,N,3.1,K,N*07
$GPGGA,180050.571,3748.8006,N,12217.8781,W,1,03,1.5,25.1,M,-25.1,M,,0000*5C
$GPGSA,A,2,02,12,17,,,,,,,,,,1.8,1.5,1.0*38
$GPRMC,180050.571,A,3748.8006,N,12217.8781,W,0.25,120.80,251011,,,A*7E
$GPVTG,120.80,T,,M,0.25,N,0.5,K,N*0B
$GPGGA,180051.571,3748.7933,N,12217.8722,W,1,03,1.5,25.1,M,-25.1,M,,0000*54
$GPGSA,A,2,02,12,17,,,,,,,,,,1.8,1.5,1.0*38
$GPRMC,180051.571,A,3748.7933,N,12217.8722,W,2.43,63.85,251011,,,A*47
$GPVTG,63.85,T,,M,2.43,N,4.5,K,N*3E
$GPGGA,180052.571,3748.7951,N,12217.8722,W,1,03,1.5,25.1,M,-25.1,M,,0000*53
$GPGSA,A,2,02,12,17,,,,,,,,,,1.8,1.5,1.0*38
$GPGSV,3,1,11,02,42,178,21,17,35,050,20,12,31,306,30,27,63,240,20*76
$GPGSV,3,2,11,04,60,109,23,09,60,274,25,28,15,103,22,10,04,129,*79
$GPGSV,3,3,11,25,02,298,,14,00,328,,20,00,041,*44
$GPRMC,180052.571,A,3748.7951,N,12217.8722,W,1.29,58.47,251011,,,A*49
$GPVTG,58.47,T,,M,1.29,N,2.4,K,N*30
$GPGGA,180053.571,3748.7967,N,12217.8691,W,1,03,1.5,25.1,M,-25.1,M,,0000*5E
$GPGSA,A,2,02,12,17,,,,,,,,,,1.8,1.5,1.0*38
$GPRMC,180053.571,A,3748.7967,N,12217.8691,W,0.48,259.49,251011,,,A*7F
$GPVTG,259.49,T,,M,0.48,N,0.9,K,N*04
$GPGGA,180054.571,3748.7984,N,12217.8654,W,1,03,1.5,25.1,M,-25.1,M,,0000*5D
$GPGSA,A,2,02,12,17,,,,,,,,,,1.8,1.5,1.0*38
$GPRMC,180054.571,A,3748.7984,N,12217.8654,W,0.18,315.54,251011,,,A*7C
$GPVTG,315.54,T,,M,0.18,N,0.3,K,N*0E
$GPGGA,180055.571,3748.7963,N,12217.8648,W,1,03,1.5,25.1,M,-25.1,M,,0000*58
$GPGSA,A,2,02,12,17,,,,,,,,,,1.8,1.5,1.0*38
$GPRMC,180055.571,A,3748.7963,N,12217.8648,W,0.67,299.48,251011,,,A*79
$GPVTG,299.48,T,,M,0.67,N,1.2,K,N*0E
$GPGGA,180056.571,3748.7948,N,12217.8652,W,1,03,1.5,25.1,M,-25.1,M,,0000*59
$GPGSA,A,2,02,12,17,,,,,,,,,,1.8,1.5,1.0*38
$GPRMC,180056.571,A,3748.7948,N,12217.8652,W,1.30,155.15,251011,,,A*70
$GPVTG,155.15,T,,M,1.30,N,2.4,K,N*03
$GPGGA,180057.571,3748.7910,N,12217.8644,W,1,03,1.5,25.1,M,-25.1,M,,0000*52
$GPGSA,A,2,02,12,17,,,,,,,,,,1.8,1.5,1.0*38
$GPGSV,3,1,11,02,42,178,19,17,35,050,22,12,31,306,29,27,63,240,21*76
$GPGSV,3,2,11,04,60,109,23,09,60,274,26,28,15,103,22,10,04,129,*7A
$GPGSV,3,3,11,25,02,298,,14,00,328,,20,00,041,*44
$GPRMC,180057.571,A,3748.7910,N,12217.8644,W,1.27,142.48,251011,,,A*73
$GPVTG,142.48,T,,M,1.27,N,2.3,K,N*0C
$GPGGA,180058.571,3748.7972,N,12217.8615,W,1,03,1.5,25.1,M,-25.1,M,,0000*5D
$GPGSA,A,2,02,12,17,,,,,,,,,,1.8,1.5,1.0*38
$GPRMC,180058.571,A,3748.7972,N,12217.8615,W,0.84,172.87,251011,,,A*74
$GPVTG,172.87,T,,M,0.84,N,1.6,K,N*02
$GPGGA,180059.571,3748.8037,N,12217.8697,W,1,03,1.5,25.1,M,-25.1,M,,0000*51
$GPGSA,A,2,02,12,17,,,,,,,,,,1.8,1.5,1.0*38
$GPRMC,180059.571,A,3748.8037,N,12217.8697,W,0.54,115.27,251011,,,A*7E
$GPVTG,115.27,T,,M,0.54,N,1.0,K,N*02
$GPGGA,180100.571,3748.8021,N,12217.8636,W,1,03,1.5,25.1,M,-25.1,M,,0000*50
$GPGSA,A,2,02,12,17,,,,,,,,,,1.8,1.5,1.0*38
$GPRMC,180100.571,A,3748.8021,N,12217.8636,W,0.13,33.25,251011,,,A*4B
$GPVTG,33.25,T,,M,0.13,N,0.2,K,N*35
$GPGGA,180101.571,3748.8023,N,12217.8625,W,1,03,1.5,25.1,M,-25.1,M,,0000*51
$GPGSA,A,2,02,12,17,,,,,,,,,,1.8,1.5,1.0*38
$GPRMC,180101.571,A,3748.8023,N,12217.8625,W,1.10,296.52,251011,,,A*75
$GPVTG,296.52,T,,M,1.10,N,2.0,K,N*0A
$GPGGA,180102.571,3748.8024,N,12217.8646,W,1,03,1.5,25.1,M,-25.1,M,,0000*50
$GPGSA,A,2,02,12,17,,,,,,,,,,1.8,1.5,1.0*38
$GPGSV,3,1,11,02,42,178,27,17,35,050,30,12,31,306,24,27,63,240,26*72
$GPGSV,3,2,11,04,60,109,17,09,60,274,21,28,15,103,17,10,04,129,*7C
$GPGSV,3,3,11,25,02,298,,14,00,328,,20,00,041,*44
$GPVTG,320.17,T,,M,0.38,N,0.7,K,N*09
$GPGGA,180103.571,3748.8027,N,12217.8603,W,1,03,1.5,25.1,M,-25.1,M,,0000*53
$GPGSA,A,2,02,12,17,,,,,,,,,,1.8,1.5,1.0*38
$GPRMC,180103.571,A,3748.8027,N,12217.8603,W,1.60,3.15,251011,,,A*7D
$GPVTG,3.15,T,,M,1.60,N,3.0,K,N*01
$GPGGA,180104.571,3748.8036,N,12217.8581,W,1,03,1.5,25.1,M,-25.1,M,,0000*5D
$GPGSA,A,2,02,12,17,,,,,,,,,,1.8,1.5,1.0*38
$GPRMC,180104.571,A,3748.8036,N,12217.8581,W,3.63,4.53,251011,,,A*77
$GPVTG,4.53,T,,M,3.63,N,6.7,K,N*07
$GPGGA,180105.571,3748.8006,N,12217.8583,W,1,03,1.5,25.1,M,-25.1,M,,0000*5D
$GPGSA,A,2,02,12,17,,,,,,,,,,1.8,1.5,1.0*38
$GPRMC,180105.571,A,3748.8006,N,12217.8583,W,3.19,351.78,251011,,,A*70
$GPVTG,351.78,T,,M,3.19,N,5.9,K,N*0D
$GPGGA,180106.571,3748.8015,N,12217.8592,W,1,03,1.5,25.1,M,-25.1,M,,0000*5C
$GPGSA,A,2,02,12,17,,,,,,,,,,1.8,1.5,1.0*38
$GPRMC,180106.571,A,3748.8015,N,12217.8592,W,1.35,34.75,251011,,,A*40
$GPVTG,34.75,T,,M,1.35,N,2.5,K,N*37
$GPGGA,180107.571,3748.7996,N,12217.8633,W,1,03,1.5,25.1,M,-25.1,M,,0000*58
$GPGSA,A,2,02,12,17,,,,,,,,,,1.8,1.5,1.0*38
$GPGSV,3,1,11,02,42,178,27,17,35,050,38,12,31,306,33,27,63,240,21*7B
$GPGSV,3,2,11,04,60,109,22,09,60,274,26,28,15,103,19,10,04,129,*73
$GPGSV,3,3,11,25,02,298,,14,00,328,,20,00,041,*44
$GPRMC,180107.571,A,3748.7996,N,12217.8633,W,0.73,25.72,251011,,,A*40
$GPVTG,25.72,T,,M,0.73,N,1.3,K,N*36
$GPGGA,180108.571,3748.8011,N,12217.8634,W,1,03,1.5,25.1,M,-25.1,M,,0000*59
$GPGSA,A,2,02,12,17,,,,,,,,,,1.8,1.5,1.0*38
$GPRMC,180108.571,A,3748.8011,N,12217.8634,W,0.83,303.25,251011,,,A*7B
$GPVTG,303.25,T,,M,0.83,N,1.5,K,N*0A
$GPGGA,180109.571,3748.8002,N,12217.8645,W,1,03,1.5,25.1,M,-25.1,M,,0000*5C
$GPGSA,A,2,02,12,17,,,,,,,,,,1.8,1.5,1.0*38
$GPRMC,180109.571,A,3748.8002,N,12217.8645,W,0.43,295.18,251011,,,A*72
$GPVTG,295.18,T,,M,0.43,N,0.8,K,N*0A
$GPGGA,180110.571,3748.7986,N,12217.8665,W,1,03,1.5,25.1,M,-25.1,M,,0000*5C
$GPGSA,A,2,02,12,17,,,,,,,,,,1.8,1.5,1.0*38
$GPRMC,180110.571,A,3748.7986,N,12217.8665,W,0.54,53.60,251011,,,A*43
$GPVTG,53.60,T,,M,0.54,N,1.0,K,N*32
$GPGGA,180111.571,3748.8002,N,12217.8645,W,1,03,1.5,25.1,M,-25.1,M,,0000*55
$GPGSA,A,2,02,12,17,,,,,,,,,,1.8,1.5,1.0*38
$GPRMC,180111.571,A,3748.8002,N,12217.8645,W,0.30,154.18,251011,,,A*71
$GPVTG,154.18,T,,M,0.30,N,0.6,K,N*0E
$GPGGA,180112.571,3748.8007,N,12217.8632,W,1,03,1.5,25.1,M,-25.1,M,,0000*53
$GPGSA,A,2,02,12,17,,,,,,,,,,1.8,1.5,1.0*38
$GPGSV,3,1,11,02,42,178,32,17,35,050,25,12,31,306,32,27,63,240,26*75
$GPGSV,3,2,11,04,60,109,29,09,60,274,26,28,15,103,19,10,04,129,*78
$GPGSV,3,3,11,25,02,298,27,14,00,328,,20,00,041,*41
$GPRMC,180112.571,A,3748.8007,N,12217.8632,W,0.19,218.91,251011,,,A*76
$GPVTG,218.91,T,,M,0.19,N,0.3,K,N*0A
$GPGGA,180113.571,3748.8003,N,12217.8631,W,1,03,1.5,25.1,M,-25.1,M,,0000*55
$GPGSA,A,2,02,12,17,,,,,,,,,,1.8,1.5,1.0*38
$GPRMC,180113.571,A,3748.8003,N,12217.8631,W,0.15,86.53,251011,,,A*47
$GPVTG,86.53,T,,M,0.15,N,0.3,K,N*3D
$GPGGA,180114.571,3748.8001,N,12217.8639,W,1,03,1.5,25.1,M,-25.1,M,,0000*58
$GPGSA,A,2,02,12,17,,,,,,,,,,1.8,1.5,1.0*38
$GPRMC,180114.571,A,3748.8001,N,12217.8639,W,0.50,68.41,251011,,,A*48
$GPVTG,68.41,T,,M,0.50,N,0.9,K,N*35
$GPGGA,180115.571,3748.8003,N,12217.8641,W,1,03,1.5,25.1,M,-25.1,M,,0000*54
$GPGSA,A,2,02,12,17,,,,,,,,,,1.8,1.5,1.0*38
$GPRMC,180115.571,A,3748.8003,N,12217.8641,W,0.15,89.42,251011,,,A*49
$GPVTG,89.42,T,,M,0.15,N,0.3,K,N*32
$GPGGA,180116.571,3748.8021,N,12217.8604,W,1,03,1.5,25.1,M,-25.1,M,,0000*56
$GPGSA,A,2,02,12,17,,,,,,,,,,1.8,1.5,1.0*38
$GPRMC,180116.571,A,3748.8021,N,12217.8604,W,0.13,38.49,251011,,,A*4C
$GPVTG,38.49,T,,M,0.13,N,0.2,K,N*34
$GPGGA,180120.571,3748.8052,N,12217.8597,W,1,03,1.5,25.1,M,-25.1,M,,0000*5E
$GPGSA,A,2,12,17,02,,,,,,,,,,1.8,1.5,1.0*38
$GPRMC,180120.571,A,3748.8052,N,12217.8597,W,0.41,164.44,251011,,,A*76
$GPVTG,164.44,T,,M,0.41,N,0.8,K,N*0C
$GPGGA,180121.571,3748.8010,N,12217.8613,W,1,03,1.5,25.1,M,-25.1,M,,0000*56
$GPGSA,A,2,12,17,02,,,,,,,,,,1.8,1.5,1.0*38
$GPRMC,180121.571,A,3748.8010,N,12217.8613,W,0.16,105.56,251011,,,A*78
$GPVTG,105.56,T,,M,0.16,N,0.3,K,N*01
$GPGGA,180122.571,3748.7992,N,12217.8633,W,1,03,1.5,25.1,M,-25.1,M,,0000*5B
$GPGSA,A,2,12,17,02,,,,,,,,,,1.8,1.5,1.0*38
$GPGSV,3,1,12,02,42,178,28,17,35,050,21,12,31,306,28,27,63,240,15*72
$GPGSV,3,2,12,04,60,109,27,09,60,274,26,28,15,103,20,10,04,129,16*78
$GPGSV,3,3,12,25,02,298,19,14,00,328,,20,00,041,,48,44,197,24*7A
$GPRMC,180122.571,A,3748.7992,N,12217.8633,W,0.94,65.99,251011,,,A*4B
$GPVTG,65.99,T,,M,0.94,N,1.7,K,N*3A
$GPGGA,180123.571,3748.8018,N,12217.8671,W,1,03,1.5,25.1,M,-25.1,M,,0000*58
$GPGSA,A,2,12,17,02,,,,,,,,,,1.8,1.5,1.0*38
$GPRMC,180123.571,A,3748.8018,N,12217.8671,W,0.33,78.14,251011,,,A*4C
$GPVTG,78.14,T,,M,0.33,N,0.6,K,N*3E
$GPGGA,180124.571,3748.8016,N,12217.8678,W,1,03,1.5,25.1,M,-25.1,M,,0000*58
$GPGSA,A,2,12,17,02,,,,,,,,,,1.8,1.5,1.0*38
$GPRMC,180124.571,A,3748.8016,N,12217.8678,W,0.51,76.26,251011,,,A*47
$GPVTG,76.26,T,,M,0.51,N,0.9,K,N*3A
$GPGGA,180125.571,3748.7997,N,12217.8655,W,1,03,1.5,25.1,M,-25.1,M,,0000*59
$GPGSA,A,2,12,17,02,,,,,,,,,,1.8,1.5,1.0*38
$GPRMC,180125.571,A,3748.7997,N,12217.8655,W,0.01,67.38,251011,,,A*4C
$GPVTG,67.38,T,,M,0.01,N,0.0,K,N*39
$GPGGA,180126.571,3748.7978,N,12217.8598,W,1,03,1.5,25.1,M,-25.1,M,,0000*59
$GPGSA,A,2,12,17,02,,,,,,,,,,1.8,1.5,1.0*38
$GPRMC,180126.571,A,3748.7978,N,12217.8598,W,0.72,111.39,251011,,,A*79
$GPVTG,111.39,T,,M,0.72,N,1.3,K,N*0E
$GPGGA,180127.571,3748.8016,N,12217.8681,W,1,03,1.5,25.1,M,-25.1,M,,0000*5D
$GPGSA,A,2,12,17,02,,,,,,,,,,1.8,1.5,1.0*38
$GPGSV,3,1,12,02,42,178,29,17,35,050,31,12,31,306,24,27,63,240,24*7C
$GPGSV,3,2,12,04,60,109,32,09,60,274,30,28,15,103,28,10,04,129,19*7C
$GPGSV,3,3,12,25,02,298,19,14,00,328,,20,00,041,,48,44,197,28*76
$GPRMC,180127.571,A,3748.8016,N,12217.8681,W,0.08,30.61,251011,,,A*4F
$GPVTG,30.61,T,,M,0.08,N,0.2,K,N*3C
$GPGGA,180128.571,3748.7979,N,12217.8642,W,1,03,1.5,25.1,M,-25.1,M,,0000*52
$GPGSA,A,2,12,17,02,,,,,,,,,,1.8,1.5,1.0*38
$GPRMC,180128.571,A,3748.7979,N,12217.8642,W,0.29,114.81,251011,,,A*7A
$GPVTG,114.81,T,,M,0.29,N,0.5,K,N*01
$GPGGA,180129.571,3748.7981,N,12217.8630,W,1,03,1.5,25.1,M,-25.1,M,,0000*51
$GPGSA,A,2,12,17,02,,,,,,,,,,1.8,1.5,1.0*38
$GPRMC,180129.571,A,3748.7981,N,12217.8630,W,0.17,79.58,251011,,,A*4A
$GPVTG,79.58,T,,M,0.17,N,0.3,K,N*34
$GPGGA,180130.571,3748.7980,N,12217.8620,W,1,03,1.5,25.1,M,-25.1,M,,0000*59
$GPGSA,A,2,12,17,02,,,,,,,,,,1.8,1.5,1.0*38
$GPRMC,180130.571,A,3748.7980,N,12217.8620,W,0.17,69.71,251011,,,A*48
$GPVTG,69.71,T,,M,0.17,N,0.3,K,N*3E
$GPGGA,180131.571,3748.7985,N,12217.8628,W,1,03,1.5,25.1,M,-25.1,M,,0000*55
$GPGSA,A,2,12,17,02,,,,,,,,,,1.8,1.5,1.0*38
$GPRMC,180131.571,A,3748.7985,N,12217.8628,W,0.12,62.74,251011,,,A*4F
$GPVTG,62.74,T,,M,0.12,N,0.2,K,N*34
$GPGGA,180132.571,3748.7974,N,12217.8594,W,1,03,1.5,25.1,M,-25.1,M,,0000*5C
$GPGSA,A,2,12,17,02,,,,,,,,,,1.8,1.5,1.0*38
$GPGSV,3,1,12,02,42,178,30,17,35,050,38,12,31,306,27,27,63,239,20*74
$GPGSV,3,2,12,04,60,108,33,09,60,272,30,28,15,104,24,10,04,129,20*7B
$GPGSV,3,3,12,25,02,298,20,14,00,328,,20,00,041,,48,44,197,27*73
$GPRMC,180132.571,A,3748.7974,N,12217.8594,W,0.09,87.14,251011,,,A*41
$GPGGA,180133.571,3748.7991,N,12217.8630,W,1,03,1.5,25.1,M,-25.1,M,,0000*5B
$GPGSA,A,2,12,17,02,,,,,,,,,,1.8,1.5,1.0*38
$GPRMC,180133.571,A,3748.7991,N,12217.8630,W,0.48,107.42,251011,,,A*79
$GPVTG,107.42,T,,M,0.48,N,0.9,K,N*07
$GPGGA,180134.571,3748.7993,N,12217.8629,W,1,03,1.5,25.1,M,-25.1,M,,0000*56
$GPGSA,A,2,12,17,02,,,,,,,,,,1.8,1.5,1.0*38
$GPRMC,180134.571,A,3748.7993,N,12217.8629,W,1.90,113.69,251011,,,A*7C
$GPVTG,113.69,T,,M,1.90,N,3.5,K,N*00
$GPGGA,180135.571,3748.7980,N,12217.8592,W,1,03,1.5,25.1,M,-25.1,M,,0000*56
$GPGSA,A,2,12,17,02,,,,,,,,,,1.8,1.5,1.0*38
$GPRMC,180135.571,A,3748.7980,N,12217.8592,W,1.85,113.81,251011,,,A*7E
$GPVTG,113.81,T,,M,1.85,N,3.4,K,N*03
$GPGGA,180136.571,3748.7954,N,12217.8522,W,1,03,1.5,25.1,M,-25.1,M,,0000*57
$GPGSA,A,2,12,17,02,,,,,,,,,,1.8,1.5,1.0*38
$GPRMC,180136.571,A,3748.7954,N,12217.8522,W,1.31,295.71,251011,,,A*72
$GPVTG,295.71,T,,M,1.31,N,2.4,K,N*0F
$GPGGA,180137.571,3748.7984,N,12217.8600,W,1,03,1.5,25.1,M,-25.1,M,,0000*58
$GPGSA,A,2,12,17,02,,,,,,,,,,1.8,1.5,1.0*38
$GPGSV,3,1,12,02,42,178,30,17,35,050,27,12,31,306,17,27,63,239,24*7D
$GPGSV,3,2,12,04,60,108,32,09,60,272,20,28,15,104,21,10,04,129,15*78
$GPGSV,3,3,12,25,02,298,08,14,00,328,,20,00,041,,48,44,197,25*7B
$GPRMC,180137.571,A,3748.7984,N,12217.8600,W,3.99,291.52,251011,,,A*78
$GPVTG,291.52,T,,M,3.99,N,7.4,K,N*0F
$GPGGA,180138.571,3748.7975,N,12217.8594,W,1,03,1.5,25.1,M,-25.1,M,,0000*57
$GPGSA,A,2,12,17,02,,,,,,,,,,1.8,1.5,1.0*38
$GPRMC,180138.571,A,3748.7975,N,12217.8594,W,4.58,299.71,251011,,,A*74
$GPVTG,299.71,T,,M,4.58,N,8.5,K,N*02
$GPGGA,180139.571,3748.7990,N,12217.8622,W,1,03,1.5,25.1,M,-25.1,M,,0000*53
$GPGSA,A,2,12,17,02,,,,,,,,,,1.8,1.5,1.0*38
$GPRMC,180139.571,A,3748.7990,N,12217.8622,W,0.00,299.71,251011,,,A*79
$GPVTG,299.71,T,,M,0.00,N,0.0,K,N*06
$GPGGA,180140.571,3748.8005,N,12217.8613,W,1,03,1.5,25.1,M,-25.1,M,,0000*55
$GPGSA,A,2,12,17,02,,,,,,,,,,1.8,1.5,1.0*38
$GPRMC,180140.571,A,3748.8005,N,12217.8613,W,6.27,302.63,251011,,,A*7C
$GPVTG,302.63,T,,M,6.27,N,11.6,K,N*33
$GPGGA,180148.571,3748.8011,N,12217.8680,W,1,03,1.5,25.1,M,-25.1,M,,0000*52
$GPGSA,A,2,12,17,02,,,,,,,,,,1.8,1.5,1.0*38
$GPRMC,180148.571,A,3748.8011,N,12217.8680,W,0.81,289.05,251011,,,A*73
$GPVTG,289.05,T,,M,0.81,N,1.5,K,N*09
$GPGGA,180149.571,3748.8043,N,12217.8570,W,1,03,1.5,25.1,M,-25.1,M,,0000*58
$GPGSA,A,2,12,17,02,,,,,,,,,,1.8,1.5,1.0*38
$GPRMC,180149.571,A,3748.8043,N,12217.8570,W,0.70,320.16,251011,,,A*77
$GPVTG,320.16,T,,M,0.70,N,1.3,K,N*01
$GPGGA,180150.571,3748.8025,N,12217.8561,W,1,03,1.5,25.1,M,-25.1,M,,0000*50
$GPGSA,A,2,12,17,02,,,,,,,,,,1.8,1.5,1.0*38
$GPRMC,180150.571,A,3748.8025,N,12217.8561,W,2.45,306.92,251011,,,A*73
$GPVTG,306.92,T,,M,2.45,N,4.5,K,N*0E
$GPGGA,180151.571,3748.8011,N,12217.8588,W,1,03,1.5,25.1,M,-25.1,M,,0000*51
$GPGSA,A,2,12,17,02,,,,,,,,,,1.8,1.5,1.0*38
$GPRMC,180151.571,A,3748.8011,N,12217.8588,W,4.10,272.81,251011,,,A*74
$GPVTG,272.81,T,,M,4.10,N,7.6,K,N*08
$GPGGA,180152.571,3748.7983,N,12217.8646,W,1,03,1.5,25.1,M,-25.1,M,,0000*5E
$GPGSA,A,2,12,17,02,,,,,,,,,,1.8,1.5,1.0*38
$GPGSV,3,1,11,02,42,178,26,17,35,050,19,12,31,306,17,27,63,239,26*76
$GPGSV,3,2,11,04,60,108,22,09,60,272,25,28,15,104,20,10,04,129,*7A
$GPGSV,3,3,11,25,02,298,,14,00,328,,20,00,041,*44
$GPRMC,180152.571,A,3748.7983,N,12217.8646,W,1.57,270.55,251011,,,A*76
$GPVTG,270.55,T,,M,1.57,N,2.9,K,N*0F
$GPGGA,180153.571,3748.7984,N,12217.8598,W,1,03,1.5,25.1,M,-25.1,M,,0000*58
$GPGSA,A,2,12,17,02,,,,,,,,,,1.8,1.5,1.0*38
$GPRMC,180153.571,A,3748.7984,N,12217.8598,W,2.13,98.51,251011,,,A*43
$GPVTG,98.51,T,,M,2.13,N,3.9,K,N*3D
$GPGGA,180154.571,3748.7950,N,12217.8525,W,1,03,1.5,25.1,M,-25.1,M,,0000*50
$GPGSA,A,2,12,17,02,,,,,,,,,,1.8,1.5,1.0*38
$GPRMC,180154.571,A,3748.7950,N,12217.8525,W,5.19,113.28,251011,,,A*7A
$GPVTG,113.28,T,,M,5.19,N,9.6,K,N*09
$GPGGA,180155.571,3748.7956,N,12217.8582,W,1,03,1.5,25.1,M,-25.1,M,,0000*5A
$GPGSA,A,2,12,17,02,,,,,,,,,,1.8,1.5,1.0*38
$GPRMC,180155.571,A,3748.7956,N,12217.8582,W,4.93,114.96,251011,,,A*71
$GPVTG,114.96,T,,M,4.93,N,9.1,K,N*0F
$GPGGA,180156.571,3748.7915,N,12217.8548,W,1,03,1.5,25.1,M,-25.1,M,,0000*58
$GPGSA,A,2,12,17,02,,,,,,,,,,1.8,1.5,1.0*38
$GPRMC,180156.571,A,3748.7915,N,12217.8548,W,3.42,106.66,251011,,,A*74
$GPVTG,106.66,T,,M,3.42,N,6.3,K,N*05
$GPGGA,180157.571,3748.7925,N,12217.8489,W,1,03,1.5,25.1,M,-25.1,M,,0000*56
$GPGSA,A,2,12,17,02,,,,,,,,,,1.8,1.5,1.0*38
$GPGSV,3,1,11,02,42,178,27,17,35,050,19,12,31,306,16,27,63,239,23*73
$GPGSV,3,2,11,04,60,108,25,09,60,272,20,28,15,104,15,10,04,129,*7E
$GPGSV,3,3,11,25,02,298,,14,00,328,,20,00,041,*44
$GPRMC,180157.571,A,3748.7925,N,12217.8489,W,1.91,122.61,251011,,,A*77
$GPVTG,122.61,T,,M,1.91,N,3.5,K,N*0B
$GPGGA,180158.571,3748.7920,N,12217.8541,W,1,03,1.5,25.1,M,-25.1,M,,0000*59
$GPGSA,A,2,12,17,02,,,,,,,,,,1.8,1.5,1.0*38
$GPRMC,180158.571,A,3748.7920,N,12217.8541,W,1.42,297.53,251011,,,A*7A
$GPVTG,297.53,T,,M,1.42,N,2.6,K,N*0B
$GPGGA,180159.571,3748.7948,N,12217.8457,W,1,03,1.5,25.1,M,-25.1,M,,0000*50
$GPGSA,A,2,12,17,02,,,,,,,,,,1.8,1.5,1.0*38
$GPRMC,180159.571,A,3748.7948,N,12217.8457,W,1.61,233.30,251011,,,A*79
$GPVTG,233.30,T,,M,1.61,N,3.0,K,N*06
$GPGGA,180200.571,3748.7938,N,12217.8453,W,1,03,1.5,25.1,M,-25.1,M,,0000*5C
$GPGSA,A,2,12,17,02,,,,,,,,,,1.8,1.5,1.0*38
$GPRMC,180200.571,A,3748.7938,N,12217.8453,W,1.06,173.79,251011,,,A*7E
$GPVTG,173.79,T,,M,1.06,N,2.0,K,N*0C
$GPGGA,180201.571,3748.7962,N,12217.8483,W,1,03,1.5,25.1,M,-25.1,M,,0000*5F
$GPGSA,A,2,12,17,02,,,,,,,,,,1.8,1.5,1.0*38
$GPRMC,180201.571,A,3748.7962,N,12217.8483,W,1.76,184.39,251011,,,A*76
$GPVTG,184.39,T,,M,1.76,N,3.3,K,N*05
$GPGGA,180202.571,3748.7935,N,12217.8473,W,1,03,1.5,25.1,M,-25.1,M,,0000*51
$GPGSA,A,2,12,17,02,,,,,,,,,,1.8,1.5,1.0*38
$GPGSV,3,1,11,02,42,178,23,17,35,050,19,12,31,306,16,27,63,239,22*76
$GPGSV,3,2,11,04,60,108,26,09,60,272,21,28,15,104,16,10,04,129,*7F
$GPGSV,3,3,11,25,02,298,,14,00,328,,20,00,041,*44
$GPRMC,180202.571,A,3748.7935,N,12217.8473,W,1.62,224.33,251011,,,A*7E
$GPVTG,224.33,T,,M,1.62,N,3.0,K,N*00
$GPGGA,180203.571,3748.7895,N,12217.8430,W,1,03,1.5,25.1,M,-25.1,M,,0000*5C
$GPGSA,A,2,12,17,02,,,,,,,,,,1.8,1.5,1.0*38
$GPRMC,180203.571,A,3748.7895,N,12217.8430,W,1.79,130.30,251011,,,A*7C
$GPVTG,130.30,T,,M,1.79,N,3.3,K,N*0C
$GPGGA,180204.571,3748.7938,N,12217.8384,W,1,03,1.5,25.1,M,-25.1,M,,0000*55
$GPGSA,A,2,12,17,02,,,,,,,,,,1.8,1.5,1.0*38
$GPRMC,180204.571,A,3748.7938,N,12217.8384,W,0.97,92.73,251011,,,A*4A
$GPVTG,92.73,T,,M,0.97,N,1.8,K,N*3A
$GPGGA,180205.571,3748.7937,N,12217.8393,W,1,03,1.5,25.1,M,-25.1,M,,0000*5D
$GPGSA,A,2,12,17,02,,,,,,,,,,1.8,1.5,1.0*38
$GPRMC,180205.571,A,3748.7937,N,12217.8393,W,1.59,64.10,251011,,,A*4D
$GPVTG,64.10,T,,M,1.59,N,2.9,K,N*37
$GPGGA,180206.571,3748.7928,N,12217.8444,W,1,03,1.5,25.1,M,-25.1,M,,0000*5D
$GPGSA,A,2,12,17,02,,,,,,,,,,1.8,1.5,1.0*38
$GPRMC,180206.571,A,3748.7928,N,12217.8444,W,0.98,22.33,251011,,,A*42
$GPVTG,22.33,T,,M,0.98,N,1.8,K,N*3A
$GPGGA,180207.571,3748.7925,N,12217.8333,W,1,03,1.5,25.1,M,-25.1,M,,0000*56
$GPGSA,A,2,12,17,02,,,,,,,,,,1.8,1.5,1.0*38
$GPGSV,3,1,12,02,42,178,32,17,35,050,19,12,31,306,22,27,63,239,26*76
$GPGSV,3,2,12,04,60,108,26,09,60,272,24,28,15,104,27,10,04,129,27*7E
$GPGSV,3,3,12,25,02,298,,14,00,328,,20,00,041,,48,44,197,31*76
$GPRMC,180207.571,A,3748.7925,N,12217.8333,W,0.59,312.05,251011,,,A*71
$GPVTG,312.05,T,,M,0.59,N,1.1,K,N*0B
$GPGGA,180208.571,3748.7918,N,12217.8411,W,1,03,1.5,25.1,M,-25.1,M,,0000*50
$GPGSA,A,2,12,17,02,,,,,,,,,,1.8,1.5,1.0*38
$GPRMC,180208.571,A,3748.7918,N,12217.8411,W,1.25,137.55,251011,,,A*7D
$GPVTG,137.55,T,,M,1.25,N,2.3,K,N*00
$GPGGA,180209.571,3748.7893,N,12217.8410,W,1,03,1.5,25.1,M,-25.1,M,,0000*52
$GPGSA,A,2,12,17,02,,,,,,,,,,1.8,1.5,1.0*38
$GPRMC,180209.571,A,3748.7893,N,12217.8410,W,0.27,144.67,251011,,,A*79
$GPVTG,144.67,T,,M,0.27,N,0.5,K,N*02
$GPGGA,180210.571,3748.7866,N,12217.8459,W,1,03,1.5,25.1,M,-25.1,M,,0000*5D
$GPGSA,A,2,12,17,02,,,,,,,,,,1.8,1.5,1.0*38
$GPRMC,180210.571,A,3748.7866,N,12217.8459,W,1.74,124.94,251011,,,A*7B
$GPVTG,124.94,T,,M,1.74,N,3.2,K,N*0B
$GPGGA,180211.571,3748.7851,N,12217.8399,W,1,03,1.5,25.1,M,-25.1,M,,0000*53
$GPGSA,A,2,12,17,02,,,,,,,,,,1.8,1.5,1.0*38
$GPRMC,180211.571,A,3748.7851,N,12217.8399,W,1.15,117.50,251011,,,A*7A
$GPVTG,117.50,T,,M,1.15,N,2.1,K,N*06
$GPGGA,180212.571,3748.7846,N,12217.8404,W,1,03,1.5,25.1,M,-25.1,M,,0000*55
$GPGSA,A,2,12,17,02,,,,,,,,,,1.8,1.5,1.0*38
$GPGSV,3,1,12,02,42,178,33,17,35,050,26,12,31,306,23,27,63,239,29*75
$GPGSV,3,2,12,04,60,108,31,09,60,272,26,28,15,104,26,10,04,129,27*7B
$GPGSV,3,3,12,25,02,298,17,14,00,328,,20,00,041,,48,44,197,34*75
$GPRMC,180212.571,A,3748.7846,N,12217.8404,W,1.20,288.01,251011,,,A*7B
$GPVTG,288.01,T,,M,1.20,N,2.2,K,N*02
$GPGGA,180213.571,3748.7868,N,12217.8371,W,1,03,1.5,25.1,M,-25.1,M,,0000*5D
$GPGSA,A,2,12,17,02,,,,,,,,,,1.8,1.5,1.0*38
$GPRMC,180213.571,A,3748.7868,N,12217.8371,W,0.44,294.48,251011,,,A*70
$GPVTG,294.48,T,,M,0.44,N,0.8,K,N*09
$GPGGA,180214.571,3748.7859,N,12217.8368,W,1,03,1.5,25.1,M,-25.1,M,,0000*50
$GPGSA,A,2,12,17,02,,,,,,,,,,1.8,1.5,1.0*38
$GPRMC,180214.571,A,3748.7859,N,12217.8368,W,1.03,119.53,251011,,,A*73
$GPVTG,119.53,T,,M,1.03,N,1.9,K,N*07
$GPGGA,180215.571,3748.7848,N,12217.8348,W,1,03,1.5,25.1,M,-25.1,M,,0000*53
$GPGSA,A,2,12,17,02,,,,,,,,,,1.8,1.5,1.0*38
$GPRMC,180215.571,A,3748.7848,N,12217.8348,W,0.66,158.12,251011,,,A*72
$GPVTG,158.12,T,,M,0.66,N,1.2,K,N*0E
$GPGGA,180216.571,3748.7877,N,12217.8446,W,1,03,1.5,25.1,M,-25.1,M,,0000*55
$GPGSA,A,2,12,17,02,,,,,,,,,,1.8,1.5,1.0*38
$GPRMC,180216.571,A,3748.7877,N,12217.8446,W,1.83,116.20,251011,,,A*75
$GPVTG,116.20,T,,M,1.83,N,3.4,K,N*0B
$GPGGA,180217.571,3748.7915,N,12217.8409,W,1,03,1.5,25.1,M,-25.1,M,,0000*5A
$GPGSA,A,2,12,17,02,,,,,,,,,,1.8,1.5,1.0*38
$GPGSV,3,1,12,02,42,178,34,17,35,050,25,12,31,306,22,27,63,239,29*70
$GPGSV,3,2,12,04,60,108,31,09,60,272,27,28,15,104,21,10,04,129,28*72
$GPGSV,3,3,12,25,02,298,17,14,00,328,,20,00,041,,48,44,197,31*70
$GPRMC,180217.571,A,3748.7915,N,12217.8409,W,0.71,122.23,251011,,,A*72
$GPVTG,122.23,T,,M,0.71,N,1.3,K,N*06
$GPGGA,180218.571,3748.7891,N,12217.8360,W,1,03,1.5,25.1,M,-25.1,M,,0000*50
$GPGSA,A,2,12,17,02,,,,,,,,,,1.8,1.5,1.0*38
$GPRMC,180218.571,A,3748.7891,N,12217.8360,W,1.64,110.82,251011,,,A*77
$GPVTG,110.82,T,,M,1.64,N,3.0,K,N*08
$GPGGA,180219.571,3748.7863,N,12217.8309,W,1,03,1.5,25.1,M,-25.1,M,,0000*53
$GPGSA,A,2,12,17,02,,,,,,,,,,1.8,1.5,1.0*38
$GPRMC,180219.571,A,3748.7863,N,12217.8309,W,1.50,127.33,251011,,,A*7D
$GPVTG,127.33,T,,M,1.50,N,2.8,K,N*08
$GPGGA,180220.571,3748.7860,N,12217.8339,W,1,03,1.5,25.1,M,-25.1,M,,0000*59
$GPGSA,A,2,12,17,02,,,,,,,,,,1.8,1.5,1.0*38
$GPRMC,180220.571,A,3748.7860,N,12217.8339,W,1.19,119.49,251011,,,A*7A
$GPVTG,119.49,T,,M,1.19,N,2.2,K,N*0F
$GPGGA,180221.571,3748.7841,N,12217.8375,W,1,03,1.5,25.1,M,-25.1,M,,0000*53
$GPGSA,A,2,12,17,02,,,,,,,,,,1.8,1.5,1.0*38
$GPRMC,180221.571,A,3748.7841,N,12217.8375,W,1.91,119.55,251011,,,A*7D
$GPVTG,119.55,T,,M,1.91,N,3.5,K,N*04
$GPGGA,180222.571,3748.7843,N,12217.8416,W,1,03,1.5,25.1,M,-25.1,M,,0000*50
$GPGSA,A,2,12,17,02,,,,,,,,,,1.8,1.5,1.0*38
$GPGSV,3,1,12,02,42,178,33,17,35,050,26,12,31,306,22,27,63,239,29*74
$GPGSV,3,2,12,04,60,108,30,09,60,272,27,28,15,104,24,10,04,129,27*79
$GPGSV,3,3,12,25,02,298,18,14,00,328,,20,00,041,,48,44,197,32*7C
$GPRMC,180222.571,A,3748.7843,N,12217.8416,W,1.73,121.20,251011,,,A*7B
$GPVTG,121.20,T,,M,1.73,N,3.2,K,N*06
$GPGGA,180228.571,3748.7818,N,12217.8433,W,1,03,1.5,25.1,M,-25.1,M,,0000*53
$GPGSA,A,2,12,17,02,,,,,,,,,,1.8,1.5,1.0*38
$GPRMC,180228.571,A,3748.7818,N,12217.8433,W,1.02,195.77,251011,,,A*73
$GPVTG,195.77,T,,M,1.02,N,1.9,K,N*04
$GPGGA,180229.571,3748.7848,N,12217.8303,W,1,03,1.5,25.1,M,-25.1,M,,0000*53
$GPGSA,A,2,12,17,02,,,,,,,,,,1.8,1.5,1.0*38
$GPRMC,180229.571,A,3748.7848,N,12217.8303,W,0.67,231.71,251011,,,A*7A
$GPVTG,231.71,T,,M,0.67,N,1.2,K,N*06
$GPGGA,180230.571,3748.7831,N,12217.8289,W,1,03,1.5,25.1,M,-25.1,M,,0000*56
$GPGSA,A,2,12,17,02,,,,,,,,,,1.8,1.5,1.0*38
$GPRMC,180230.571,A,3748.7831,N,12217.8289,W,0.71,126.82,251011,,,A*71
$GPVTG,126.82,T,,M,0.71,N,1.3,K,N*09
$GPGGA,180231.571,3748.7843,N,12217.8287,W,1,03,1.5,25.1,M,-25.1,M,,0000*5C
$GPGSA,A,2,12,17,02,,,,,,,,,,1.8,1.5,1.0*38
$GPRMC,180231.571,A,3748.7843,N,12217.8287,W,1.84,158.27,251011,,,A*76
$GPVTG,158.27,T,,M,1.84,N,3.4,K,N*01
$GPGGA,180232.571,3748.7806,N,12217.8250,W,1,03,1.5,25.1,M,-25.1,M,,0000*54
$GPGSA,A,2,12,17,02,,,,,,,,,,1.8,1.5,1.0*38
$GPGSV,3,1,12,02,42,178,17,17,35,050,21,12,31,306,23,27,63,239,31*7D
$GPGSV,3,2,12,04,60,108,21,09,60,272,25,28,15,104,17,10,04,129,*7E
$GPGSV,3,3,12,25,02,298,18,14,00,328,,20,00,041,,48,44,197,27*78
$GPRMC,180232.571,A,3748.7806,N,12217.8250,W,1.82,191.73,251011,,,A*7C
$GPVTG,191.73,T,,M,1.82,N,3.4,K,N*03
$GPGGA,180240.571,3748.7741,N,12217.8280,W,1,03,1.5,25.1,M,-25.1,M,,0000*50
$GPGSA,A,2,12,17,02,,,,,,,,,,1.8,1.5,1.0*38
$GPRMC,180240.571,A,3748.7741,N,12217.8280,W,1.56,61.95,251011,,,A*47
$GPVTG,61.95,T,,M,1.56,N,2.9,K,N*30
$GPGGA,180241.571,3748.7776,N,12217.8253,W,1,03,1.5,25.1,M,-25.1,M,,0000*5B
$GPGSA,A,2,12,17,02,,,,,,,,,,1.8,1.5,1.0*38
$GPRMC,180241.571,A,3748.7776,N,12217.8253,W,1.84,107.15,251011,,,A*7A
$GPVTG,107.15,T,,M,1.84,N,3.4,K,N*0A
$GPGGA,180242.571,3748.7802,N,12217.8310,W,1,03,1.5,25.1,M,-25.1,M,,0000*52
$GPGSA,A,2,12,17,02,,,,,,,,,,1.8,1.5,1.0*38
$GPGSV,3,1,12,02,42,178,26,17,35,050,18,12,31,306,21,27,63,239,30*76
$GPGSV,3,2,12,04,60,108,30,09,60,272,28,28,15,104,17,10,04,129,17*75
$GPGSV,3,3,12,25,02,298,20,14,00,328,,20,00,041,,48,44,197,29*7D
$GPRMC,180242.571,A,3748.7802,N,12217.8310,W,2.19,135.35,251011,,,A*77
$GPGGA,180243.571,3748.7790,N,12217.8200,W,1,03,1.5,25.1,M,-25.1,M,,0000*57
$GPGSA,A,2,12,17,02,,,,,,,,,,1.8,1.5,1.0*38
$GPRMC,180243.571,A,3748.7790,N,12217.8200,W,1.70,134.32,251011,,,A*78
$GPVTG,134.32,T,,M,1.70,N,3.1,K,N*01
$GPGGA,180244.571,3748.7769,N,12217.8269,W,1,03,1.5,25.1,M,-25.1,M,,0000*59
$GPGSA,A,2,12,17,02,,,,,,,,,,1.8,1.5,1.0*38
$GPRMC,180244.571,A,3748.7769,N,12217.8269,W,0.85,257.57,251011,,,A*78
$GPVTG,257.57,T,,M,0.85,N,1.6,K,N*0A
$GPGGA,180245.571,3748.7770,N,12217.8255,W,1,03,1.5,25.1,M,-25.1,M,,0000*5F
$GPGSA,A,2,12,17,02,,,,,,,,,,1.8,1.5,1.0*38
$GPRMC,180245.571,A,3748.7770,N,12217.8255,W,1.20,308.36,251011,,,A*7C
$GPVTG,308.36,T,,M,1.20,N,2.2,K,N*0F
$GPGGA,180246.571,3748.7778,N,12217.8284,W,1,03,1.5,25.1,M,-25.1,M,,0000*58
$GPGSA,A,2,12,17,02,,,,,,,,,,1.8,1.5,1.0*38
$GPRMC,180246.571,A,3748.7778,N,12217.8284,W,1.99,67.31,251011,,,A*44
$GPVTG,67.31,T,,M,1.99,N,3.7,K,N*34
$GPGGA,180247.571,3748.7760,N,12217.8312,W,1,03,1.5,25.1,M,-25.1,M,,0000*5E
$GPGSA,A,2,12,17,02,,,,,,,,,,1.8,1.5,1.0*38
$GPGSV,3,1,12,02,43,178,37,17,34,051,22,12,32,307,21,27,62,238,31*7D
$GPGSV,3,2,12,04,60,107,31,09,60,271,29,28,14,104,27,15,04,226,*74
$GPGSV,3,3,12,10,04,128,33,25,02,298,17,14,01,327,,20,00,040,*70
$GPRMC,180247.571,A,3748.7760,N,12217.8312,W,1.45,104.69,251011,,,A*7A
$GPVTG,104.69,T,,M,1.45,N,2.7,K,N*0D
$GPGGA,180248.571,3748.7723,N,12217.8278,W,1,03,1.5,25.1,M,-25.1,M,,0000*5B
$GPGSA,A,2,12,17,02,,,,,,,,,,1.8,1.5,1.0*38
$GPRMC,180248.571,A,3748.7723,N,12217.8278,W,2.76,113.18,251011,,,A*7C
$GPVTG,113.18,T,,M,2.76,N,5.1,K,N*0F
$GPGGA,180249.571,3748.7764,N,12217.8235,W,1,03,1.5,25.1,M,-25.1,M,,0000*50
$GPGSA,A,2,12,17,02,,,,,,,,,,1.8,1.5,1.0*38
$GPRMC,180249.571,A,3748.7764,N,12217.8235,W,1.67,121.07,251011,,,A*7B
$GPVTG,121.07,T,,M,1.67,N,3.1,K,N*05
$GPGGA,180250.571,3748.7771,N,12217.8199,W,1,03,1.5,25.1,M,-25.1,M,,0000*59
$GPGSA,A,2,12,17,02,,,,,,,,,,1.8,1.5,1.0*38
$GPRMC,180250.571,A,3748.7771,N,12217.8199,W,2.96,102.82,251011,,,A*73
$GPVTG,102.82,T,,M,2.96,N,5.5,K,N*06
$GPGGA,180251.571,3748.7760,N,12217.8211,W,1,04,1.7,32.9,M,-25.1,M,,0000*50
$GPGSA,A,3,12,04,17,02,,,,,,,,,5.7,1.7,5.4*34
$GPRMC,180251.571,A,3748.7760,N,12217.8211,W,1.77,117.91,251011,,,A*7B
$GPVTG,117.91,T,,M,1.77,N,3.3,K,A*03
$GPGGA,180252.571,3748.7752,N,12217.8230,W,1,04,1.7,42.0,M,-25.1,M,,0000*5F
$GPGSA,A,3,12,04,17,02,,,,,,,,,5.7,1.7,5.4*34
$GPGSV,3,1,12,04,60,107,31,02,43,178,38,17,34,051,26,12,32,307,22*79
$GPGSV,3,2,12,27,62,238,32,09,60,271,29,28,14,104,26,15,04,226,18*73
$GPGSV,3,3,12,10,04,128,32,25,02,298,17,14,01,327,,20,00,040,*71
$GPRMC,180252.571,A,3748.7752,N,12217.8230,W,1.26,130.58,251011,,,A*7E
$GPVTG,130.58,T,,M,1.26,N,2.3,K,A*06
$GPGGA,180253.571,3748.7750,N,12217.8246,W,1,04,1.7,47.4,M,-25.1,M,,0000*5C
$GPGSA,A,3,12,04,17,02,,,,,,,,,5.7,1.7,5.4*34
$GPRMC,180253.571,A,3748.7750,N,12217.8246,W,1.74,133.93,251011,,,A*7F
$GPVTG,133.93,T,,M,1.74,N,3.2,K,A*05
$GPGGA,180254.000,3748.7751,N,12217.8252,W,1,04,1.7,49.0,M,-25.1,M,,0000*56
$GPGSA,A,3,12,04,17,02,,,,,,,,,5.7,1.7,5.4*34
$GPRMC,180254.000,A,3748.7751,N,12217.8252,W,1.85,141.65,251011,,,A*7D
$GPVTG,141.65,T,,M,1.85,N,3.4,K,A*01
$GPGGA,180255.000,3748.7750,N,12217.8238,W,1,04,1.7,44.0,M,-25.1,M,,0000*57
$GPGSA,A,3,12,04,17,02,,,,,,,,,5.7,1.7,5.4*34
$GPRMC,180255.000,A,3748.7750,N,12217.8238,W,2.08,119.88,251011,,,A*79
$GPVTG,119.88,T,,M,2.08,N,3.8,K,A*05
$GPGGA,180256.000,3748.7747,N,12217.8238,W,1,04,1.7,46.0,M,-25.1,M,,0000*50
$GPGSA,A,3,12,04,17,02,,,,,,,,,5.7,1.7,5.4*34
$GPRMC,180256.000,A,3748.7747,N,12217.8238,W,2.01,121.78,251011,,,A*71
$GPVTG,121.78,T,,M,2.01,N,3.7,K,A*07
$GPGGA,180257.000,3748.7742,N,12217.8246,W,1,04,1.7,51.5,M,-25.1,M,,0000*5E
$GPGSA,A,3,12,04,17,02,,,,,,,,,5.7,1.7,5.4*34
$GPGSV,3,1,12,04,60,107,31,02,43,178,38,17,34,051,25,12,32,307,28*70
$GPGSV,3,2,12,27,62,238,33,09,60,271,30,28,14,104,19,15,04,226,19*77
$GPGSV,3,3,12,10,04,128,30,25,02,298,17,14,01,327,,20,00,040,*73
$GPRMC,180257.000,A,3748.7742,N,12217.8246,W,1.88,133.98,251011,,,A*73
$GPGGA,180258.000,3748.7737,N,12217.8254,W,1,04,1.7,57.4,M,-25.1,M,,0000*57
$GPGSA,A,3,12,04,17,02,,,,,,,,,5.7,1.7,5.4*34
$GPRMC,180258.000,A,3748.7737,N,12217.8254,W,1.80,126.12,251011,,,A*73
$GPVTG,126.12,T,,M,1.80,N,3.3,K,A*02
$GPGGA,180259.000,3748.7734,N,12217.8261,W,1,04,1.7,61.6,M,-25.1,M,,0000*54
$GPGSA,A,3,12,04,17,02,,,,,,,,,5.7,1.7,5.4*34
$GPRMC,180259.000,A,3748.7734,N,12217.8261,W,1.76,120.95,251011,,,A*77
$GPVTG,120.95,T,,M,1.76,N,3.3,K,A*02
$GPGGA,180300.000,3748.7731,N,12217.8264,W,1,04,1.7,65.2,M,-25.1,M,,0000*59
$GPGSA,A,3,12,04,17,02,,,,,,,,,5.7,1.7,5.4*34
$GPRMC,180300.000,A,3748.7731,N,12217.8264,W,1.73,120.00,251011,,,A*73
$GPVTG,120.00,T,,M,1.73,N,3.2,K,A*0A
$GPGGA,180301.000,3748.7728,N,12217.8258,W,1,04,1.7,66.7,M,-25.1,M,,0000*59
$GPGSA,A,3,12,04,17,02,,,,,,,,,5.7,1.7,5.4*34
$GPRMC,180301.000,A,3748.7728,N,12217.8258,W,1.57,111.70,251011,,,A*76
$GPVTG,111.70,T,,M,1.57,N,2.9,K,A*03
$GPGGA,180302.000,3748.7725,N,12217.8255,W,2,04,1.7,68.3,M,-25.1,M,1.8,0000*74
$GPGSA,A,3,12,04,17,02,,,,,,,,,5.7,1.7,5.4*34
$GPGSV,3,1,12,27,62,238,33,04,61,107,31,09,60,271,29,02,43,178,38*77
$GPGSV,3,2,12,17,34,051,21,12,32,307,28,28,14,104,25,15,04,226,26*7E
$GPGSV,3,3,12,10,04,128,30,25,02,298,17,14,01,327,,20,00,040,*73
$GPRMC,180302.000,A,3748.7725,N,12217.8255,W,1.76,122.49,251011,,,D*79
$GPVTG,122.49,T,,M,1.76,N,3.3,K,D*04
$GPGGA,180303.000,3748.7725,N,12217.8243,W,2,04,1.7,66.1,M,-25.1,M,,0000*59
$GPGSA,A,3,12,04,17,02,,,,,,,,,5.7,1.7,5.4*34
$GPRMC,180303.000,A,3748.7725,N,12217.8243,W,1.22,110.11,251011,,,D*72
$GPVTG,110.11,T,,M,1.22,N,2.3,K,D*08
$GPGGA,180304.000,3748.7723,N,12217.8234,W,2,04,1.7,64.8,M,-25.1,M,3.8,0000*76
$GPGSA,A,3,12,04,17,02,,,,,,,,,5.7,1.7,5.4*34
$GPRMC,180304.000,A,3748.7723,N,12217.8234,W,1.45,117.66,251011,,,D*75
$GPVTG,117.66,T,,M,1.45,N,2.7,K,D*0A
$GPGGA,180305.000,3748.7723,N,12217.8222,W,2,04,1.7,61.9,M,-25.1,M,1.8,0000*76
$GPGSA,A,3,12,04,17,02,,,,,,,,,5.7,1.7,5.4*34
$GPRMC,180305.000,A,3748.7723,N,12217.8222,W,1.29,111.95,251011,,,D*73
$GPVTG,111.95,T,,M,1.29,N,2.4,K,D*09
$GPGGA,180306.000,3748.7720,N,12217.8208,W,2,04,1.7,59.4,M,-25.1,M,,0000*5F
$GPGSA,A,3,12,04,17,02,,,,,,,,,5.7,1.7,5.4*34
$GPRMC,180306.000,A,3748.7720,N,12217.8208,W,1.91,118.67,251011,,,D*7C
$GPVTG,118.67,T,,M,1.91,N,3.5,K,D*0E
$GPGGA,180307.000,3748.7717,N,12217.8198,W,2,04,1.7,58.2,M,-25.1,M,,0000*57
$GPGSA,A,3,12,04,17,02,,,,,,,,,5.7,1.7,5.4*34
$GPGSV,3,1,12,27,62,238,33,04,61,106,31,09,60,271,30,02,43,178,38*7E
$GPGSV,3,2,12,17,34,051,26,12,32,307,27,28,14,104,28,15,04,226,25*78
$GPGSV,3,3,12,10,04,128,23,25,03,298,17,14,01,327,,20,00,040,*70
$GPRMC,180307.000,A,3748.7717,N,12217.8198,W,2.14,109.59,251011,,,D*70
$GPVTG,109.59,T,,M,2.14,N,4.0,K,D*0F
$GPGGA,180308.000,3748.7717,N,12217.8180,W,2,04,1.7,53.9,M,-25.1,M,,0000*51
$GPGSA,A,3,12,04,17,02,,,,,,,,,5.7,1.7,5.4*34
$GPRMC,180308.000,A,3748.7717,N,12217.8180,W,2.70,112.59,251011,,,D*7E
$GPVTG,112.59,T,,M,2.70,N,5.0,K,D*06
$GPGGA,180309.000,3748.7716,N,12217.8163,W,2,04,1.7,49.5,M,-25.1,M,,0000*5B
$GPGSA,A,3,12,04,17,02,,,,,,,,,5.7,1.7,5.4*34
$GPRMC,180309.000,A,3748.7716,N,12217.8163,W,2.55,113.31,251011,,,D*7B
$GPVTG,113.31,T,,M,2.55,N,4.7,K,D*08
$GPGGA,180310.000,3748.7714,N,12217.8150,W,2,04,1.7,46.7,M,-25.1,M,2.8,0000*78
$GPGSA,A,3,12,04,17,02,,,,,,,,,5.7,1.7,5.4*34
$GPRMC,180310.000,A,3748.7714,N,12217.8150,W,2.41,116.84,251011,,,D*7F
$GPVTG,116.84,T,,M,2.41,N,4.5,K,D*04
$GPGGA,180311.000,3748.7712,N,12217.8140,W,2,04,1.7,44.4,M,-25.1,M,3.8,0000*7E
$GPGSA,A,3,12,04,17,02,,,,,,,,,5.7,1.7,5.4*34
$GPRMC,180311.000,A,3748.7712,N,12217.8140,W,1.95,119.87,251011,,,D*7F
$GPVTG,119.87,T,,M,1.95,N,3.6,K,D*06
$GPGGA,180312.000,3748.7709,N,12217.8121,W,2,04,1.7,40.0,M,-25.1,M,,0000*55
$GPGSA,A,3,12,04,17,02,,,,,,,,,5.7,1.7,5.4*34
$GPGSV,3,1,12,27,62,237,33,04,61,106,31,09,60,271,31,02,43,178,38*70
$GPGSV,3,2,12,17,34,051,26,12,32,307,27,28,14,104,22,15,04,226,25*72
$GPGSV,3,3,12,10,04,128,27,25,03,298,18,14,01,327,,20,00,040,*7B
$GPRMC,180312.000,A,3748.7709,N,12217.8121,W,2.30,114.91,251011,,,D*77
$GPGGA,180313.000,3748.7703,N,12217.8117,W,2,04,1.7,41.1,M,-25.1,M,,0000*5B
$GPGSA,A,3,12,04,17,02,,,,,,,,,5.7,1.7,5.4*34
$GPRMC,180313.000,A,3748.7703,N,12217.8117,W,2.10,126.98,251011,,,D*73
$GPVTG,126.98,T,,M,2.10,N,3.9,K,D*05
$GPGGA,180314.000,3748.7700,N,12217.8106,W,2,04,1.7,38.7,M,-25.1,M,,0000*57
$GPGSA,A,3,12,04,17,02,,,,,,,,,5.7,1.7,5.4*34
$GPRMC,180314.000,A,3748.7700,N,12217.8106,W,2.66,111.66,251011,,,D*73
$GPVTG,111.66,T,,M,2.66,N,4.9,K,D*06
$GPGGA,180315.000,3748.7697,N,12217.8090,W,2,04,1.7,35.4,M,-25.1,M,2.8,0000*7D
$GPGSA,A,3,12,04,17,02,,,,,,,,,5.7,1.7,5.4*34
$GPRMC,180315.000,A,3748.7697,N,12217.8090,W,2.45,113.25,251011,,,D*77
$GPVTG,113.25,T,,M,2.45,N,4.5,K,D*0E
$GPGGA,180316.000,3748.7695,N,12217.8080,W,2,04,1.7,33.1,M,-25.1,M,3.8,0000*7F
$GPGSA,A,3,12,04,17,02,,,,,,,,,5.7,1.7,5.4*34
$GPRMC,180316.000,A,3748.7695,N,12217.8080,W,2.16,113.54,251011,,,D*77
$GPVTG,113.54,T,,M,2.16,N,4.0,K,D*0B
$GPGGA,180317.000,3748.7693,N,12217.8071,W,2,04,1.7,31.4,M,-25.1,M,4.8,0000*76
$GPGSA,A,3,12,04,17,02,,,,,,,,,5.7,1.7,5.4*34
$GPGSV,3,1,12,27,62,237,33,04,61,106,32,09,60,271,31,02,43,178,38*73
$GPGSV,3,2,12,17,34,051,24,12,32,307,27,28,14,104,30,15,04,226,25*73
$GPGSV,3,3,12,10,04,128,23,25,03,298,24,14,01,327,,20,00,040,*70
$GPRMC,180317.000,A,3748.7693,N,12217.8071,W,2.60,111.18,251011,,,D*75
$GPVTG,111.18,T,,M,2.60,N,4.8,K,D*08
$GPGGA,180318.000,3748.7689,N,12217.8057,W,2,04,1.7,29.0,M,-25.1,M,,0000*59
$GPGSA,A,3,12,04,17,02,,,,,,,,,5.7,1.7,5.4*34
$GPRMC,180318.000,A,3748.7689,N,12217.8057,W,2.68,108.23,251011,,,D*7D
$GPVTG,108.23,T,,M,2.68,N,5.0,K,D*09
$GPGGA,180319.000,3748.7686,N,12217.8046,W,2,04,1.7,27.0,M,-25.1,M,,0000*59
$GPGSA,A,3,12,04,17,02,,,,,,,,,5.7,1.7,5.4*34
$GPRMC,180319.000,A,3748.7686,N,12217.8046,W,2.96,115.12,251011,,,D*7C
$GPVTG,115.12,T,,M,2.96,N,5.5,K,D*03
$GPGGA,180320.000,3748.7683,N,12217.8036,W,2,04,1.7,25.7,M,-25.1,M,,0000*54
$GPGSA,A,3,12,04,17,02,,,,,,,,,5.7,1.7,5.4*34
$GPRMC,180320.000,A,3748.7683,N,12217.8036,W,2.66,117.20,251011,,,D*78
$GPVTG,117.20,T,,M,2.66,N,4.9,K,D*02
$GPGGA,180321.000,3748.7681,N,12217.8029,W,2,04,1.7,23.6,M,-25.1,M,,0000*5E
$GPGSA,A,3,12,04,17,02,,,,,,,,,5.7,1.7,5.4*34
$GPRMC,180321.000,A,3748.7681,N,12217.8029,W,2.30,117.44,251011,,,D*74
$GPVTG,117.44,T,,M,2.30,N,4.3,K,D*09
$GPGGA,180322.000,3748.7677,N,12217.8010,W,2,04,1.7,19.1,M,-25.1,M,,0000*50
$GPGSA,A,3,12,04,17,02,,,,,,,,,5.7,1.7,5.4*34
$GPGSV,3,1,12,27,62,237,33,04,61,106,31,09,60,271,31,02,43,178,39*71
$GPGSV,3,2,12,17,34,051,24,12,32,307,25,28,14,105,22,10,04,128,21*7F
$GPGSV,3,3,12,15,04,226,22,25,03,298,24,14,01,327,,20,00,040,*79
$GPRMC,180322.000,A,3748.7677,N,12217.8010,W,2.68,115.67,251011,,,D*7A
$GPVTG,115.67,T,,M,2.68,N,5.0,K,D*05
$GPGGA,180323.000,3748.7673,N,12217.7997,W,2,04,1.7,16.0,M,-25.1,M,2.8,0000*76
$GPGSA,A,3,12,04,17,02,,,,,,,,,5.7,1.7,5.4*34
$GPRMC,180323.000,A,3748.7673,N,12217.7997,W,2.53,117.99,251011,,,D*7D
$GPVTG,117.99,T,,M,2.53,N,4.7,K,D*08
$GPGGA,180324.000,3748.7670,N,12217.7982,W,2,04,1.7,12.6,M,-25.1,M,,0000*50
$GPGSA,A,3,12,04,17,02,,,,,,,,,5.7,1.7,5.4*34
$GPRMC,180324.000,A,3748.7670,N,12217.7982,W,2.93,116.83,251011,,,D*7B
$GPVTG,116.83,T,,M,2.93,N,5.4,K,D*0C
$GPGGA,180325.000,3748.7667,N,12217.7972,W,2,04,1.7,10.3,M,-25.1,M,,0000*5F
$GPGSA,A,3,12,04,17,02,,,,,,,,,5.7,1.7,5.4*34
$GPRMC,180325.000,A,3748.7667,N,12217.7972,W,2.88,116.57,251011,,,D*70
$GPVTG,116.57,T,,M,2.88,N,5.3,K,D*08
$GPGGA,180326.000,3748.7662,N,12217.7965,W,2,04,1.7,9.9,M,-25.1,M,,0000*6D
$GPGSA,A,3,12,04,17,02,,,,,,,,,5.7,1.7,5.4*34
$GPRMC,180326.000,A,3748.7662,N,12217.7965,W,2.73,116.52,251011,,,D*71
$GPVTG,116.52,T,,M,2.73,N,5.1,K,D*0B
$GPGGA,180327.000,3748.7659,N,12217.7961,W,2,04,1.7,9.7,M,-25.1,M,2.8,0000*4A
$GPGSA,A,3,12,04,17,02,,,,,,,,,5.7,1.7,5.4*34
$GPGSV,3,1,12,27,62,237,33,04,61,106,32,09,60,271,31,02,43,178,39*72
$GPGSV,3,2,12,17,34,051,20,12,32,307,26,28,14,105,25,10,04,128,21*7F
$GPGSV,3,3,12,15,04,226,21,25,03,298,26,14,01,327,,20,00,040,*78
$GPRMC,180327.000,A,3748.7659,N,12217.7961,W,2.77,114.87,251011,,,D*72
$GPGGA,180328.000,3748.7655,N,12217.7954,W,2,04,1.7,9.3,M,-25.1,M,3.8,0000*4A
$GPGSA,A,3,12,04,17,02,,,,,,,,,5.6,1.7,5.4*35
$GPRMC,180328.000,A,3748.7655,N,12217.7954,W,2.29,109.68,251011,,,D*71
$GPVTG,109.68,T,,M,2.29,N,4.2,K,D*01
$GPGGA,180329.000,3748.7654,N,12217.7953,W,2,04,1.7,10.4,M,-25.1,M,4.8,0000*75
$GPGSA,A,3,12,04,17,02,,,,,,,,,5.6,1.7,5.4*35
$GPRMC,180329.000,A,3748.7654,N,12217.7953,W,1.43,103.00,251011,,,D*7D
$GPVTG,103.00,T,,M,1.43,N,2.6,K,D*08
$GPGGA,180330.000,3748.7653,N,12217.7943,W,2,04,1.7,8.0,M,-25.1,M,,0000*64
$GPGSA,A,3,12,04,17,02,,,,,,,,,5.6,1.7,5.4*35
$GPRMC,180330.000,A,3748.7653,N,12217.7943,W,1.22,96.37,251011,,,D*4D
$GPVTG,96.37,T,,M,1.22,N,2.3,K,D*33
$GPGGA,180331.000,3748.7654,N,12217.7936,W,2,04,1.7,5.9,M,-25.1,M,,0000*64
$GPGSA,A,3,12,04,17,02,,,,,,,,,5.6,1.7,5.4*35
$GPRMC,180331.000,A,3748.7654,N,12217.7936,W,1.38,94.69,251011,,,D*4B
$GPVTG,94.69,T,,M,1.38,N,2.6,K,D*34
$GPGGA,180332.000,3748.7652,N,12217.7922,W,2,04,1.7,3.4,M,-25.1,M,,0000*6F
$GPGSA,A,3,12,04,17,02,,,,,,,,,5.6,1.7,5.4*35
$GPGSV,3,1,12,27,62,237,32,04,61,106,30,09,60,271,26,02,43,178,39*77
$GPGSV,3,2,12,17,34,051,23,12,32,307,21,28,14,105,23,10,04,128,30*7D
$GPGSV,3,3,12,15,04,226,21,25,03,298,23,14,01,327,,20,00,040,*7D
$GPRMC,180332.000,A,3748.7652,N,12217.7922,W,1.21,88.47,251011,,,D*42
$GPVTG,88.47,T,,M,1.21,N,2.2,K,D*39
$GPGGA,180333.000,3748.7651,N,12217.7916,W,2,04,1.7,2.7,M,-25.1,M,2.8,0000*4C
$GPGSA,A,3,12,04,17,02,,,,,,,,,5.6,1.7,5.4*35
$GPRMC,180333.000,A,3748.7651,N,12217.7916,W,1.34,96.54,251011,,,D*4E
$GPVTG,96.54,T,,M,1.34,N,2.5,K,D*37
$GPGGA,180334.000,3748.7649,N,12217.7910,W,2,04,1.7,1.9,M,-25.1,M,3.8,0000*48
$GPGSA,A,3,12,04,17,02,,,,,,,,,5.6,1.7,5.4*35
$GPRMC,180334.000,A,3748.7649,N,12217.7910,W,1.85,103.22,251011,,,D*70
$GPVTG,103.22,T,,M,1.85,N,3.4,K,D*01
$GPGGA,180335.000,3748.7645,N,12217.7899,W,2,04,1.7,0.6,M,-25.1,M,4.8,0000*4C
$GPGSA,A,3,12,04,17,02,,,,,,,,,5.6,1.7,5.4*35
$GPRMC,180335.000,A,3748.7645,N,12217.7899,W,1.60,110.14,251011,,,D*71
$GPVTG,110.14,T,,M,1.60,N,3.0,K,D*09
$GPGGA,180336.000,3748.7639,N,12217.7897,W,2,04,1.7,1.3,M,-25.1,M,,0000*6C
$GPGSA,A,3,12,04,17,02,,,,,,,,,5.6,1.7,5.4*35
$GPRMC,180336.000,A,3748.7639,N,12217.7897,W,1.50,128.72,251011,,,D*7F
$GPVTG,128.72,T,,M,1.50,N,2.8,K,D*08
$GPGGA,180337.000,3748.7635,N,12217.7900,W,2,04,1.7,3.8,M,-25.1,M,,0000*67
$GPGSA,A,3,12,04,17,02,,,,,,,,,5.6,1.7,5.4*35
$GPGSV,3,1,12,27,62,237,32,04,61,106,28,09,60,271,33,02,43,178,38*7B
$GPGSV,3,2,12,17,34,051,24,12,32,307,26,28,14,105,22,10,04,128,28*75
$GPGSV,3,3,12,15,04,226,24,25,03,298,23,14,01,327,,20,00,040,*78
$GPRMC,180337.000,A,3748.7635,N,12217.7900,W,2.11,127.42,251011,,,D*77
$GPVTG,127.42,T,,M,2.11,N,3.9,K,D*02
$GPGGA,180338.000,3748.7632,N,12217.7902,W,2,04,1.7,5.9,M,-25.1,M,,0000*6A
$GPGSA,A,3,12,04,17,02,,,,,,,,,5.6,1.7,5.4*35
$GPRMC,180338.000,A,3748.7632,N,12217.7902,W,2.07,135.87,251011,,,D*70
$GPVTG,135.87,T,,M,2.07,N,3.8,K,D*0E
$GPGGA,180339.000,3748.7628,N,12217.7904,W,2,04,1.7,8.5,M,-25.1,M,2.8,0000*43
$GPGSA,A,3,12,04,17,02,,,,,,,,,5.6,1.7,5.4*35
$GPRMC,180339.000,A,3748.7628,N,12217.7904,W,2.31,122.60,251011,,,D*76
$GPVTG,122.60,T,,M,2.31,N,4.3,K,D*08
$GPGGA,180340.000,3748.7623,N,12217.7899,W,2,04,1.7,10.9,M,-25.1,M,,0000*52
$GPGSA,A,3,12,04,17,02,,,,,,,,,5.6,1.7,5.4*35
$GPRMC,180340.000,A,3748.7623,N,12217.7899,W,2.32,116.57,251011,,,D*76
$GPVTG,116.57,T,,M,2.32,N,4.3,K,D*08
$GPGGA,180341.000,3748.7620,N,12217.7900,W,2,04,1.7,15.0,M,-25.1,M,2.8,0000*79
$GPGSA,A,3,12,04,17,02,,,,,,,,,5.6,1.7,5.4*35
$GPRMC,180341.000,A,3748.7620,N,12217.7900,W,1.81,112.68,251011,,,D*76
$GPVTG,112.68,T,,M,1.81,N,3.3,K,D*0C
$GPGGA,180342.000,3748.7617,N,12217.7897,W,2,04,1.7,17.4,M,-25.1,M,,0000*53
$GPGSA,A,3,12,04,17,02,,,,,,,,,5.6,1.7,5.4*35
$GPGSV,3,1,12,27,62,237,32,04,61,106,30,09,60,270,33,02,43,178,39*72
$GPGSV,3,2,12,17,34,051,24,12,32,307,28,28,14,105,18,10,04,128,24*7E
$GPGSV,3,3,12,15,04,226,27,25,03,298,24,14,01,327,,20,00,040,*7C
$GPRMC,180342.000,A,3748.7617,N,12217.7897,W,1.13,98.62,251011,,,D*4C
$GPGGA,180343.000,3748.7615,N,12217.7885,W,2,04,1.7,17.3,M,-25.1,M,,0000*54
$GPGSA,A,3,12,04,17,02,,,,,,,,,5.6,1.7,5.4*35
$GPRMC,180343.000,A,3748.7615,N,12217.7885,W,1.61,103.46,251011,,,D*7C
$GPVTG,103.46,T,,M,1.61,N,3.0,K,D*0D
$GPGGA,180344.000,3748.7614,N,12217.7884,W,2,04,1.7,19.0,M,-25.1,M,,0000*5E
$GPGSA,A,3,12,04,17,02,,,,,,,,,5.6,1.7,5.4*35
$GPRMC,180344.000,A,3748.7614,N,12217.7884,W,0.94,108.61,251011,,,D*7E
$GPVTG,108.61,T,,M,0.94,N,1.7,K,D*0D
$GPGGA,180345.000,3748.7610,N,12217.7878,W,2,04,1.7,20.6,M,-25.1,M,2.8,0000*70
$GPGSA,A,3,12,04,17,02,,,,,,,,,5.6,1.7,5.4*35
$GPRMC,180345.000,A,3748.7610,N,12217.7878,W,1.94,126.12,251011,,,D*71
$GPVTG,126.12,T,,M,1.94,N,3.6,K,D*07
$GPGGA,180346.000,3748.7604,N,12217.7869,W,2,04,1.7,22.3,M,-25.1,M,1.8,0000*72
$GPGSA,A,3,12,04,17,02,,,,,,,,,5.6,1.7,5.4*35
$GPRMC,180346.000,A,3748.7604,N,12217.7869,W,2.70,122.16,251011,,,D*7E
$GPVTG,122.16,T,,M,2.70,N,5.0,K,D*0E
$GPGGA,180347.000,3748.7598,N,12217.7858,W,2,04,1.7,23.7,M,-25.1,M,2.8,0000*71
$GPGSA,A,3,12,04,17,02,,,,,,,,,5.6,1.7,5.4*35
$GPGSV,3,1,12,27,62,237,32,04,61,106,30,09,60,270,32,02,43,178,39*73
$GPGSV,3,2,12,17,34,051,19,12,32,307,22,28,14,105,18,10,04,128,19*74
$GPGSV,3,3,12,15,04,226,34,25,03,298,24,14,01,327,,20,00,040,*7E
$GPRMC,180347.000,A,3748.7598,N,12217.7858,W,2.34,126.11,251011,,,D*78
$GPVTG,126.11,T,,M,2.34,N,4.3,K,D*0F
$GPGGA,180348.000,3748.7591,N,12217.7849,W,2,04,1.7,25.5,M,-25.1,M,1.8,0000*70
$GPGSA,A,3,12,04,17,02,,,,,,,,,5.6,1.7,5.4*35
$GPRMC,180348.000,A,3748.7591,N,12217.7849,W,2.06,133.39,251011,,,D*71
$GPVTG,133.39,T,,M,2.06,N,3.8,K,D*0C
$GPGGA,180349.000,3748.7586,N,12217.7839,W,2,04,1.7,26.8,M,-25.1,M,1.8,0000*7E
$GPGSA,A,3,12,04,17,02,,,,,,,,,5.6,1.7,5.4*35
$GPRMC,180349.000,A,3748.7586,N,12217.7839,W,2.13,118.56,251011,,,D*75
$GPVTG,118.56,T,,M,2.13,N,3.9,K,D*09
$GPGGA,180350.000,3748.7582,N,12217.7830,W,2,04,1.7,28.1,M,-25.1,M,1.8,0000*7C
$GPGSA,A,3,12,04,17,02,,,,,,,,,5.6,1.7,5.4*35
$GPRMC,180350.000,A,3748.7582,N,12217.7830,W,1.69,98.67,251011,,,D*45
$GPVTG,98.67,T,,M,1.69,N,3.1,K,D*34
$GPGGA,180351.000,3748.7578,N,12217.7819,W,2,04,1.7,29.2,M,-25.1,M,2.8,0000*72
$GPGSA,A,3,12,04,17,02,,,,,,,,,5.6,1.7,5.4*35
$GPRMC,180351.000,A,3748.7578,N,12217.7819,W,1.36,100.79,251011,,,D*7F
$GPVTG,100.79,T,,M,1.36,N,2.5,K,D*04
$GPGGA,180352.000,3748.7576,N,12217.7812,W,2,04,1.7,29.9,M,-25.1,M,3.8,0000*7E
$GPGSA,A,3,12,04,17,02,,,,,,,,,5.6,1.7,5.4*35
$GPGSV,3,1,12,27,62,237,32,04,61,106,30,09,60,270,32,02,43,178,39*73
$GPGSV,3,2,12,17,34,051,19,12,32,307,23,28,14,105,18,10,04,128,24*7B
$GPGSV,3,3,12,15,04,226,34,25,03,298,24,14,01,327,,20,00,040,*7E
$GPRMC,180352.000,A,3748.7576,N,12217.7812,W,2.05,109.13,251011,,,D*7F
$GPVTG,109.13,T,,M,2.05,N,3.8,K,D*0E
$GPGGA,180353.000,3748.7571,N,12217.7801,W,2,04,1.7,30.4,M,-25.1,M,1.8,0000*7D
$GPGSA,A,3,12,04,17,02,,,,,,,,,5.6,1.7,5.4*35
