$ADVER,3080,2.3
$GPRMC,205407.844,A,3748.8013,N,12217.8625,W,0.40,113.53,251011,,,A*7B
$GPRMC,205408.844,A,3748.7962,N,12217.8601,W,1.09,219.56,251011,,,A*72
$GPRMC,205409.844,A,3748.7987,N,12217.8606,W,0.35,33.86,251011,,,A*46
$GPRMC,205411.000,A,3748.8000,N,12217.8603,W,0.17,12.61,251011,,,A*41
$GPRMC,205412.000,A,3748.8006,N,12217.8601,W,0.17,30.40,251011,,,A*45
$GPRMC,205413.000,A,3748.8009,N,12217.8601,W,0.16,38.54,251011,,,A*47
$GPRMC,205414.000,A,3748.8008,N,12217.8600,W,0.66,85.21,251011,,,A*43
$GPRMC,205415.000,A,3748.8014,N,12217.8598,W,0.36,134.60,251011,,,A*76
$GPRMC,205416.000,A,3748.8018,N,12217.8600,W,0.09,120.46,251011,,,A*76
$GPRMC,205417.000,A,3748.8024,N,12217.8603,W,0.66,346.68,251011,,,A*7C
$GPRMC,205418.000,A,3748.8022,N,12217.8607,W,0.20,302.53,251011,,,A*7B
$GPRMC,205419.000,A,3748.8018,N,12217.8607,W,0.29,186.94,251011,,,A*7F
$GPRMC,205420.000,A,3748.8021,N,12217.8610,W,0.17,326.51,251011,,,A*75
$GPRMC,205421.000,A,3748.8016,N,12217.8612,W,0.32,289.44,251011,,,A*75
$GPRMC,205422.000,A,3748.8013,N,12217.8613,W,0.10,335.15,251011,,,A*70
$GPRMC,205423.000,A,3748.8011,N,12217.8615,W,0.24,273.41,251011,,,A*70
$GPRMC,205424.000,A,3748.8003,N,12217.8625,W,0.52,172.11,251011,,,A*71
$GPRMC,205425.000,A,3748.7993,N,12217.8629,W,1.33,172.54,251011,,,A*74
$GPRMC,205426.000,A,3748.7985,N,12217.8630,W,2.04,170.33,251011,,,A*7C
$GPRMC,205427.000,A,3748.7982,N,12217.8631,W,1.01,181.99,251011,,,A*73
$GPRMC,205428.000,A,3748.7981,N,12217.8633,W,0.48,172.56,251011,,,A*7E
$GPRMC,205429.000,A,3748.7981,N,12217.8634,W,0.05,160.28,251011,,,A*7B
$GPRMC,205430.000,A,3748.7981,N,12217.8635,W,0.04,103.16,251011,,,A*7B
$GPRMC,205431.000,A,3748.7981,N,12217.8636,W,0.16,166.36,251011,,,A*7B
$GPRMC,205432.000,A,3748.7981,N,12217.8636,W,0.47,157.96,251011,,,A*74
$GPRMC,205433.000,A,3748.7983,N,12217.8637,W,0.05,66.74,251011,,,A*4F
$GPRMC,205434.000,A,3748.7986,N,12217.8637,W,0.26,350.47,251011,,,A*7A
$GPRMC,205435.000,A,3748.7989,N,12217.8639,W,0.10,164.73,251011,,,A*7D
$GPRMC,205436.000,A,3748.8009,N,12217.8644,W,0.87,352.26,251011,,,A*73
$GPRMC,205437.000,A,3748.7997,N,12217.8637,W,0.78,104.36,251011,,,A*77
$GPRMC,205438.000,A,3748.7976,N,12217.8641,W,1.21,206.29,251011,,,A*74
$GPRMC,205439.000,A,3748.7956,N,12217.8651,W,1.51,210.20,251011,,,A*7F
$GPRMC,205440.000,A,3748.7960,N,12217.8648,W,0.50,204.24,251011,,,A*7D
$GPRMC,205441.000,A,3748.7966,N,12217.8641,W,0.34,45.41,251011,,,A*45
$GPRMC,205442.000,A,3748.7967,N,12217.8638,W,1.18,32.94,251011,,,A*4E
$GPRMC,205443.000,A,3748.7966,N,12217.8636,W,0.30,70.69,251011,,,A*4F
$GPRMC,205444.000,A,3748.7965,N,12217.8633,W,0.50,198.93,251011,,,A*7A
$GPRMC,205445.000,A,3748.7967,N,12217.8629,W,0.37,42.81,251011,,,A*46
$GPRMC,205446.000,A,3748.7980,N,12217.8619,W,0.19,4.92,251011,,,A*73
$GPRMC,205447.000,A,3748.7970,N,12217.8631,W,1.48,264.58,251011,,,A*70
$GPRMC,205448.000,A,3748.7987,N,12217.8623,W,0.72,36.07,251011,,,A*43
$GPRMC,205449.000,A,3748.7995,N,12217.8619,W,0.31,46.98,251011,,,A*4E
$GPRMC,205450.000,A,3748.8009,N,12217.8621,W,1.39,354.84,251011,,,A*7A
$GPRMC,205451.000,A,3748.8013,N,12217.8619,W,0.67,331.30,251011,,,A*7D
$GPRMC,205452.000,A,3748.8009,N,12217.8621,W,0.78,175.05,251011,,,A*74
$GPRMC,205453.000,A,3748.8011,N,12217.8617,W,0.47,176.88,251011,,,A*73
$GPRMC,205454.000,A,3748.8014,N,12217.8614,W,0.60,183.91,251011,,,A*75
$GPRMC,205455.000,A,3748.8020,N,12217.8614,W,0.07,19.42,251011,,,A*4E
$GPRMC,205456.000,A,3748.8016,N,12217.8620,W,0.28,347.48,251011,,,A*70
$GPRMC,205457.000,A,3748.8023,N,12217.8625,W,0.93,345.16,251011,,,A*7B
$GPRMC,205458.000,A,3748.8023,N,12217.8628,W,0.13,317.14,251011,,,A*74
$GPRMC,205459.000,A,3748.8019,N,12217.8628,W,0.31,154.10,251011,,,A*7D
$GPRMC,205500.000,A,3748.8027,N,12217.8621,W,0.49,91.45,251011,,,A*43
$GPRMC,205501.000,A,3748.8026,N,12217.8618,W,0.49,51.20,251011,,,A*46
$GPRMC,205502.000,A,3748.8024,N,12217.8619,W,0.86,354.35,251011,,,A*77
$GPRMC,205503.000,A,3748.8015,N,12217.8617,W,0.11,96.37,251011,,,A*4B
$GPRMC,205504.000,A,3748.8005,N,12217.8614,W,0.29,157.85,251011,,,A*70
$GPRMC,205505.000,A,3748.7992,N,12217.8611,W,0.81,160.03,251011,,,A*74
$GPRMC,205506.000,A,3748.7988,N,12217.8610,W,0.23,157.01,251011,,,A*73
$GPRMC,205507.000,A,3748.7987,N,12217.8608,W,0.21,7.50,251011,,,A*76
$GPRMC,205508.000,A,3748.7991,N,12217.8608,W,0.22,40.48,251011,,,A*47
$GPRMC,205509.000,A,3748.7993,N,12217.8608,W,0.24,126.60,251011,,,A*79
$GPRMC,205510.000,A,3748.7991,N,12217.8607,W,0.50,154.80,251011,,,A*74
$GPRMC,205511.000,A,3748.7993,N,12217.8606,W,0.06,37.88,251011,,,A*49
$GPRMC,205512.000,A,3748.7997,N,12217.8606,W,0.85,355.43,251011,,,A*75
$GPRMC,205513.000,A,3748.7998,N,12217.8606,W,0.41,20.27,251011,,,A*40
$GPRMC,205514.000,A,3748.7994,N,12217.8608,W,0.87,205.70,251011,,,A*78
$GPRMC,205515.000,A,3748.7988,N,12217.8613,W,0.81,232.48,251011,,,A*77
$GPRMC,205516.000,A,3748.7984,N,12217.8618,W,0.42,231.96,251011,,,A*7C
$GPRMC,205517.000,A,3748.7982,N,12217.8620,W,0.36,323.34,251011,,,A*79
$GPRMC,205518.000,A,3748.7985,N,12217.8622,W,0.30,20.67,251011,,,A*43
$GPRMC,205519.000,A,3748.7987,N,12217.8619,W,0.14,25.86,251011,,,A*44
$GPRMC,205520.000,A,3748.7989,N,12217.8618,W,0.17,21.08,251011,,,A*40
$GPRMC,205521.000,A,3748.7990,N,12217.8616,W,0.34,94.55,251011,,,A*40
$GPRMC,205522.000,A,3748.7992,N,12217.8616,W,0.25,328.49,251011,,,A*78
$GPRMC,205523.000,A,3748.7991,N,12217.8614,W,0.24,13.95,251011,,,A*43
$GPRMC,205524.000,A,3748.7991,N,12217.8613,W,0.18,11.39,251011,,,A*48
$GPRMC,205525.000,A,3748.7991,N,12217.8612,W,0.12,54.80,251011,,,A*41
$GPRMC,205526.000,A,3748.7982,N,12217.8609,W,0.94,157.48,251011,,,A*72
$GPRMC,205527.000,A,3748.7974,N,12217.8607,W,1.33,162.97,251011,,,A*7C
$GPRMC,205528.000,A,3748.7965,N,12217.8604,W,1.66,164.69,251011,,,A*77
$GPRMC,205529.000,A,3748.7968,N,12217.8605,W,0.51,160.31,251011,,,A*76
$GPRMC,205530.000,A,3748.7964,N,12217.8605,W,0.49,231.57,251011,,,A*7C
$GPRMC,205531.000,A,3748.7974,N,12217.8609,W,1.06,357.49,251011,,,A*74
$GPRMC,205532.000,A,3748.7986,N,12217.8613,W,0.59,327.31,251011,,,A*72
$GPRMC,205533.000,A,3748.7991,N,12217.8616,W,0.42,298.16,251011,,,A*7A
$GPRMC,205534.000,A,3748.8007,N,12217.8614,W,0.92,11.81,251011,,,A*46
$GPRMC,205535.000,A,3748.8026,N,12217.8612,W,1.06,12.26,251011,,,A*40
$GPRMC,205536.000,A,3748.8037,N,12217.8615,W,0.78,0.75,251011,,,A*79
$GPRMC,205537.000,A,3748.8044,N,12217.8620,W,0.58,355.67,251011,,,A*78
$GPRMC,205538.000,A,3748.8042,N,12217.8625,W,0.16,336.26,251011,,,A*7E
$GPRMC,205539.000,A,3748.8053,N,12217.8626,W,0.53,348.41,251011,,,A*75
$GPRMC,205540.000,A,3748.8047,N,12217.8624,W,0.12,102.61,251011,,,A*77
$GPRMC,205541.000,A,3748.8039,N,12217.8621,W,0.17,133.29,251011,,,A*71
$GPRMC,205542.000,A,3748.8033,N,12217.8618,W,0.13,115.35,251011,,,A*7F
$GPRMC,205543.000,A,3748.8037,N,12217.8614,W,0.94,35.65,251011,,,A*4F
$GPRMC,205544.000,A,3748.8040,N,12217.8611,W,1.37,39.98,251011,,,A*4B
$GPRMC,205545.000,A,3748.8042,N,12217.8604,W,2.36,48.86,251011,,,A*47
$GPRMC,205546.000,A,3748.8046,N,12217.8602,W,3.32,34.98,251011,,,A*47
$GPRMC,205547.000,A,3748.8047,N,12217.8603,W,2.02,26.02,251011,,,A*44
$GPRMC,205548.000,A,3748.8047,N,12217.8604,W,0.77,22.97,251011,,,A*44
$GPRMC,205549.000,A,3748.8048,N,12217.8605,W,0.50,255.58,251011,,,A*7F
$GPRMC,205550.000,A,3748.8061,N,12217.8601,W,0.86,292.37,251011,,,A*71
$GPRMC,205551.000,A,3748.8061,N,12217.8610,W,1.64,236.97,251011,,,A*79
$GPRMC,205552.000,A,3748.8054,N,12217.8622,W,3.18,218.56,251011,,,A*75
$GPRMC,205553.000,A,3748.8042,N,12217.8632,W,4.73,210.99,251011,,,A*73
$GPRMC,205554.000,A,3748.8031,N,12217.8641,W,4.73,210.99,251011,,,E*70
$GPRMC,205555.000,A,3748.8028,N,12217.8658,W,4.88,233.50,251011,,,A*75
$GPRMC,205556.000,A,3748.8019,N,12217.8672,W,4.88,221.13,251011,,,A*78
$GPRMC,205557.000,A,3748.8009,N,12217.8676,W,4.32,217.47,251011,,,A*79
$GPRMC,205558.000,A,3748.8004,N,12217.8681,W,3.70,208.71,251011,,,A*79
$GPRMC,205559.000,A,3748.8004,N,12217.8669,W,2.40,183.62,251011,,,A*7E
$GPRMC,205600.000,A,3748.7946,N,12217.8709,W,2.52,189.61,251011,,,A*7C
$GPRMC,205601.000,A,3748.7984,N,12217.8679,W,1.12,158.99,251011,,,A*79
$GPRMC,205602.000,A,3748.8014,N,12217.8662,W,0.82,114.03,251011,,,A*7C
$GPRMC,205603.000,A,3748.8029,N,12217.8648,W,0.88,104.62,251011,,,A*77
$GPRMC,205604.000,A,3748.8026,N,12217.8645,W,0.45,117.86,251011,,,A*7B
$GPRMC,205605.000,A,3748.8034,N,12217.8643,W,0.20,265.46,251011,,,A*76
$GPRMC,205606.000,A,3748.8016,N,12217.8650,W,0.43,301.12,251011,,,A*70
$GPRMC,205607.000,A,3748.8015,N,12217.8653,W,0.28,252.97,251011,,,A*76
$GPRMC,205608.000,A,3748.8007,N,12217.8656,W,0.94,196.12,251011,,,A*7E
$GPRMC,205609.000,A,3748.8005,N,12217.8657,W,1.03,213.34,251011,,,A*79
$GPRMC,205610.000,A,3748.7996,N,12217.8661,W,0.57,172.62,251011,,,A*7F
$GPRMC,205611.000,A,3748.7999,N,12217.8654,W,0.37,217.84,251011,,,A*79
$GPRMC,205612.000,A,3748.7994,N,12217.8658,W,1.41,213.53,251011,,,A*75
$GPRMC,205613.000,A,3748.7995,N,12217.8662,W,2.32,209.57,251011,,,A*74
$GPRMC,205614.000,A,3748.7992,N,12217.8675,W,1.96,219.52,251011,,,A*7B
$GPRMC,205615.000,A,3748.7985,N,12217.8681,W,2.07,206.93,251011,,,A*7F
$GPRMC,205616.000,A,3748.7988,N,12217.8686,W,1.15,214.84,251011,,,A*73
$GPRMC,205617.000,A,3748.7980,N,12217.8689,W,1.88,204.87,251011,,,A*73
$GPRMC,205618.000,A,3748.7969,N,12217.8697,W,2.42,214.46,251011,,,A*7D
$GPRMC,205619.000,A,3748.7968,N,12217.8705,W,2.10,209.32,251011,,,A*7F
$GPRMC,205620.000,A,3748.7968,N,12217.8710,W,1.58,199.27,251011,,,A*70
$GPRMC,205621.000,A,3748.7960,N,12217.8716,W,2.41,204.34,251011,,,A*71
$GPRMC,205622.000,A,3748.7956,N,12217.8718,W,1.53,188.70,251011,,,A*7E
$GPRMC,205623.000,A,3748.7965,N,12217.8709,W,0.84,79.99,251011,,,A*4C
$GPRMC,205624.000,A,3748.7951,N,12217.8709,W,1.21,104.08,251011,,,A*71
$GPRMC,205625.000,A,3748.7937,N,12217.8709,W,1.23,130.65,251011,,,A*7E
$GPRMC,205626.000,A,3748.7929,N,12217.8711,W,1.83,169.29,251011,,,A*75
$GPRMC,205627.000,A,3748.7924,N,12217.8709,W,1.60,159.04,251011,,,A*71
$GPRMC,205628.000,A,3748.7919,N,12217.8708,W,1.67,168.59,251011,,,A*7C
$GPRMC,205629.000,A,3748.7918,N,12217.8706,W,1.52,165.25,251011,,,A*72
$GPRMC,205630.000,A,3748.7913,N,12217.8710,W,1.89,200.32,251011,,,A*76
$GPRMC,205631.000,A,3748.7902,N,12217.8724,W,2.32,223.65,251011,,,A*70
$GPRMC,205632.000,A,3748.7899,N,12217.8737,W,2.55,230.06,251011,,,A*74
$GPRMC,205633.000,A,3748.7891,N,12217.8746,W,2.85,212.07,251011,,,A*77
$GPRMC,205634.000,A,3748.7879,N,12217.8757,W,2.82,207.26,251011,,,A*76
$GPRMC,205635.000,A,3748.7871,N,12217.8762,W,3.43,205.83,251011,,,A*78
$GPRMC,205636.000,A,3748.7851,N,12217.8775,W,4.97,202.12,251011,,,A*7E
$GPRMC,205637.000,A,3748.7846,N,12217.8789,W,3.55,209.10,251011,,,A*7A
$GPRMC,205638.000,A,3748.7845,N,12217.8795,W,2.23,208.00,251011,,,A*7B
$GPRMC,205639.000,A,3748.7852,N,12217.8796,W,0.56,219.82,251011,,,A*75
$GPRMC,205640.000,A,3748.7846,N,12217.8809,W,1.12,212.28,251011,,,A*7D
$GPRMC,205641.000,A,3748.7862,N,12217.8807,W,0.11,357.82,251011,,,A*76
$GPRMC,205642.000,A,3748.7873,N,12217.8805,W,0.68,227.96,251011,,,A*7A
$GPRMC,205643.000,A,3748.7896,N,12217.8812,W,1.20,270.31,251011,,,A*74
$GPRMC,205644.000,A,3748.7897,N,12217.8823,W,1.89,247.32,251011,,,A*74
$GPRMC,205645.000,A,3748.7905,N,12217.8829,W,1.26,263.42,251011,,,A*71
$GPRMC,205646.000,A,3748.7919,N,12217.8827,W,1.58,354.57,251011,,,A*79
$GPRMC,205647.000,A,3748.7918,N,12217.8824,W,1.15,341.65,251011,,,A*76
$GPRMC,205648.000,A,3748.7913,N,12217.8832,W,0.83,246.80,251011,,,A*76
$GPRMC,205649.000,A,3748.7903,N,12217.8841,W,1.41,238.45,251011,,,A*7D
$GPRMC,205650.000,A,3748.7904,N,12217.8851,W,1.09,288.62,251011,,,A*71
$GPRMC,205651.000,A,3748.7913,N,12217.8856,W,1.55,315.43,251011,,,A*7E
$GPRMC,205652.000,A,3748.7922,N,12217.8859,W,1.27,318.90,251011,,,A*76
$GPRMC,205653.000,A,3748.7923,N,12217.8869,W,0.98,279.75,251011,,,A*7D
$GPRMC,205654.000,A,3748.7922,N,12217.8874,W,1.35,247.86,251011,,,A*70
$GPRMC,205655.000,A,3748.7924,N,12217.8883,W,1.78,232.56,251011,,,A*79
$GPRMC,205656.000,A,3748.7923,N,12217.8890,W,2.00,218.57,251011,,,A*7A
$GPRMC,205657.000,A,3748.7917,N,12217.8897,W,2.93,222.13,251011,,,A*78
$GPRMC,205658.000,A,3748.7912,N,12217.8905,W,2.98,220.47,251011,,,A*70
$GPRMC,205659.000,A,3748.7911,N,12217.8912,W,1.72,220.72,251011,,,A*75
$GPRMC,205700.000,A,3748.7924,N,12217.8904,W,0.28,11.02,251011,,,A*40
$GPRMC,205701.000,A,3748.7916,N,12217.8901,W,0.53,156.30,251011,,,A*7A
$GPRMC,205702.000,A,3748.7917,N,12217.8899,W,0.93,200.43,251011,,,A*70
$GPRMC,205703.000,A,3748.7909,N,12217.8905,W,0.63,231.53,251011,,,A*76
$GPRMC,205704.000,A,3748.7904,N,12217.8911,W,0.24,303.17,251011,,,A*7A
$GPRMC,205705.000,A,3748.7902,N,12217.8911,W,1.15,40.08,251011,,,A*44
$GPRMC,205706.000,A,3748.7908,N,12217.8906,W,2.63,43.55,251011,,,A*42
$GPRMC,205707.000,A,3748.7918,N,12217.8901,W,3.11,30.82,251011,,,A*4F
$GPRMC,205708.000,A,3748.7915,N,12217.8896,W,2.19,42.61,251011,,,A*43
$GPRMC,205709.000,A,3748.7909,N,12217.8894,W,0.74,44.60,251011,,,A*43
$GPRMC,205710.000,A,3748.7907,N,12217.8894,W,0.17,357.37,251011,,,A*73
$GPRMC,205711.000,A,3748.7914,N,12217.8896,W,0.58,51.15,251011,,,A*4C
$GPRMC,205712.000,A,3748.7907,N,12217.8899,W,0.47,123.49,251011,,,A*71
$GPRMC,205713.000,A,3748.7906,N,12217.8908,W,0.23,261.64,251011,,,A*70
$GPRMC,205714.000,A,3748.7887,N,12217.8920,W,1.96,205.98,251011,,,A*7B
$GPRMC,205715.000,A,3748.7864,N,12217.8935,W,2.70,200.18,251011,,,A*75
$GPRMC,205716.000,A,3748.7874,N,12217.8933,W,1.74,195.18,251011,,,A*79
$GPRMC,205717.000,A,3748.7875,N,12217.8937,W,3.03,199.17,251011,,,A*7C
$GPRMC,205718.000,A,3748.7882,N,12217.8929,W,2.63,166.55,251011,,,A*75
$GPRMC,205719.000,A,3748.7871,N,12217.8930,W,3.74,181.37,251011,,,A*7A
$GPRMC,205720.000,A,3748.7862,N,12217.8937,W,3.55,206.31,251011,,,A*7C
$GPRMC,205721.000,A,3748.7868,N,12217.8936,W,1.64,197.64,251011,,,A*7D
$GPRMC,205722.000,A,3748.7842,N,12217.8939,W,3.46,189.32,251011,,,A*77
$GPRMC,205723.000,A,3748.7838,N,12217.8935,W,3.75,186.64,251011,,,A*7B
$GPRMC,205724.000,A,3748.7823,N,12217.8933,W,4.66,176.79,251011,,,A*76
$GPRMC,205725.000,A,3748.7806,N,12217.8930,W,3.50,179.38,251011,,,A*7B
$GPRMC,205726.000,A,3748.7799,N,12217.8932,W,2.02,179.01,251011,,,A*7F
$GPRMC,205727.000,A,3748.7808,N,12217.8930,W,0.62,70.80,251011,,,A*4E
$GPRMC,205728.000,A,3748.7807,N,12217.8944,W,1.55,263.20,251011,,,A*72
$GPRMC,205729.000,A,3748.7806,N,12217.8962,W,1.52,249.39,251011,,,A*71
$GPRMC,205730.000,A,3748.7795,N,12217.8974,W,2.06,229.34,251011,,,A*72
$GPRMC,205731.000,A,3748.7777,N,12217.8983,W,2.74,201.67,251011,,,A*7E
$GPRMC,205732.000,A,3748.7772,N,12217.8979,W,1.90,159.09,251011,,,A*72
$GPRMC,205733.000,A,3748.7793,N,12217.8951,W,4.01,68.96,251011,,,A*4E
$GPRMC,205734.000,A,3748.7821,N,12217.8916,W,6.91,51.68,251011,,,A*4C
$GPRMC,205735.000,A,3748.7819,N,12217.8907,W,6.70,46.17,251011,,,A*47
$GPRMC,205736.000,A,3748.7831,N,12217.8888,W,6.49,42.43,251011,,,A*47
$GPRMC,205737.000,A,3748.7840,N,12217.8872,W,5.38,42.34,251011,,,A*40
$GPRMC,205738.000,A,3748.7854,N,12217.8867,W,4.25,34.16,251011,,,A*42
$GPRMC,205739.000,A,3748.7867,N,12217.8865,W,3.43,31.81,251011,,,A*4D
$GPRMC,205740.000,A,3748.7877,N,12217.8859,W,3.74,41.32,251011,,,A*46
$GPRMC,205741.000,A,3748.7887,N,12217.8853,W,3.88,45.00,251011,,,A*44
$GPRMC,205742.000,A,3748.7892,N,12217.8854,W,2.08,41.12,251011,,,A*4A
$GPRMC,205743.000,A,3748.7893,N,12217.8855,W,0.85,32.75,251011,,,A*49
$GPRMC,205744.000,A,3748.7895,N,12217.8859,W,0.34,54.53,251011,,,A*4A
$GPRMC,205745.000,A,3748.7891,N,12217.8868,W,0.54,121.21,251011,,,A*7D
$GPRMC,205746.000,A,3748.7883,N,12217.8879,W,0.95,183.24,251011,,,A*7D
$GPRMC,205747.000,A,3748.7870,N,12217.8884,W,1.28,171.33,251011,,,A*7E
$GPRMC,205748.000,A,3748.7858,N,12217.8887,W,1.45,156.57,251011,,,A*74
$GPRMC,205749.000,A,3748.7848,N,12217.8891,W,1.57,176.62,251011,,,A*74
$GPRMC,205750.000,A,3748.7839,N,12217.8903,W,0.82,224.45,251011,,,A*78
$GPRMC,205751.000,A,3748.7832,N,12217.8914,W,0.56,168.89,251011,,,A*76
$GPRMC,205752.000,A,3748.7824,N,12217.8919,W,0.48,133.04,251011,,,A*7B
$GPRMC,205753.000,A,3748.7807,N,12217.8923,W,1.13,159.25,251011,,,A*72
$GPRMC,205754.000,A,3748.7801,N,12217.8927,W,0.57,45.08,251011,,,A*45
$GPRMC,205755.000,A,3748.7793,N,12217.8930,W,1.27,58.71,251011,,,A*42
$GPRMC,205756.000,A,3748.7779,N,12217.8929,W,1.54,130.77,251011,,,A*70
$GPRMC,205757.000,A,3748.7767,N,12217.8932,W,1.77,177.72,251011,,,A*73
$GPRMC,205758.000,A,3748.7760,N,12217.8936,W,0.99,162.61,251011,,,A*78
$GPRMC,205759.000,A,3748.7748,N,12217.8935,W,0.55,84.46,251011,,,A*4C
$GPRMC,205800.000,A,3748.7733,N,12217.8940,W,1.29,179.40,251011,,,A*7E
$GPRMC,205801.000,A,3748.7713,N,12217.8944,W,2.55,198.69,251011,,,A*75
$GPRMC,205802.000,A,3748.7698,N,12217.8952,W,3.04,198.79,251011,,,A*77
$GPRMC,205803.000,A,3748.7683,N,12217.8962,W,2.36,202.50,251011,,,A*74
$GPRMC,205804.000,A,3748.7671,N,12217.8975,W,1.69,212.38,251011,,,A*7E
$GPRMC,205805.000,A,3748.7659,N,12217.8989,W,0.91,190.64,251011,,,A*70
$GPRMC,205806.000,A,3748.7649,N,12217.8995,W,0.29,51.87,251011,,,A*4D
$GPRMC,205807.000,A,3748.7638,N,12217.8998,W,0.58,45.02,251011,,,A*49
$GPRMC,205808.000,A,3748.7623,N,12217.9003,W,0.43,173.77,251011,,,A*7A
$GPRMC,205809.000,A,3748.7613,N,12217.9015,W,1.42,212.13,251011,,,A*79
$GPRMC,205810.000,A,3748.7601,N,12217.9021,W,1.14,159.26,251011,,,A*7C
$GPRMC,205811.000,A,3748.7580,N,12217.9036,W,0.67,155.44,251011,,,A*7C
$GPRMC,205812.000,A,3748.7560,N,12217.9045,W,0.43,78.55,251011,,,A*4D
$GPRMC,205813.000,A,3748.7550,N,12217.9045,W,1.22,72.30,251011,,,A*40
$GPRMC,205814.000,A,3748.7540,N,12217.9047,W,0.64,141.13,251011,,,A*77
$GPRMC,205815.000,A,3748.7529,N,12217.9053,W,0.37,122.01,251011,,,A*7C
$GPRMC,205816.000,A,3748.7514,N,12217.9057,W,0.94,27.65,251011,,,A*4A
$GPRMC,205817.000,A,3748.7506,N,12217.9066,W,0.89,34.49,251011,,,A*4A
$GPRMC,205818.000,A,3748.7493,N,12217.9079,W,0.59,62.10,251011,,,A*44
$GPRMC,205819.000,A,3748.7478,N,12217.9096,W,0.23,36.38,251011,,,A*47
$GPRMC,205820.000,A,3748.7471,N,12217.9112,W,0.18,62.16,251011,,,A*4C
$GPRMC,205821.000,A,3748.7462,N,12217.9125,W,0.67,128.29,251011,,,A*70
$GPRMC,205822.000,A,3748.7461,N,12217.9131,W,0.56,226.52,251011,,,A*76
$GPRMC,205823.000,A,3748.7455,N,12217.9139,W,1.59,243.76,251011,,,A*73
$GPRMC,205824.000,A,3748.7451,N,12217.9149,W,1.71,211.44,251011,,,A*7B
$GPRMC,205825.000,A,3748.7439,N,12217.9157,W,1.71,184.82,251011,,,A*7E
$GPRMC,205826.000,A,3748.7424,N,12217.9157,W,2.20,153.60,251011,,,A*70
$GPRMC,205827.000,A,3748.7406,N,12217.9158,W,2.25,155.77,251011,,,A*7B
$GPRMC,205828.000,A,3748.7393,N,12217.9159,W,1.64,153.61,251011,,,A*79
$GPRMC,205829.000,A,3748.7387,N,12217.9167,W,1.65,185.77,251011,,,A*7D
$GPRMC,205830.000,A,3748.7363,N,12217.9188,W,2.48,197.50,251011,,,A*74
$GPRMC,205831.000,A,3748.7358,N,12217.9201,W,1.42,206.64,251011,,,A*7A
$GPRMC,205832.000,A,3748.7354,N,12217.9211,W,0.77,177.34,251011,,,A*73
$GPRMC,205833.000,A,3748.7337,N,12217.9226,W,2.37,194.03,251011,,,A*7C
$GPRMC,205834.000,A,3748.7327,N,12217.9238,W,2.03,198.17,251011,,,A*7B
$GPRMC,205835.000,A,3748.7309,N,12217.9253,W,2.08,199.89,251011,,,A*76
$GPRMC,205836.000,A,3748.7297,N,12217.9263,W,2.04,191.80,251011,,,A*7D
$GPRMC,205837.000,A,3748.7286,N,12217.9275,W,1.99,194.78,251011,,,A*7E
$GPRMC,205838.000,A,3748.7282,N,12217.9286,W,2.07,200.95,251011,,,A*70
$GPRMC,205839.000,A,3748.7271,N,12217.9293,W,2.05,180.24,251011,,,A*7A
$GPRMC,205840.000,A,3748.7272,N,12217.9294,W,1.48,186.51,251011,,,A*7E
$GPRMC,205841.000,A,3748.7267,N,12217.9292,W,2.03,194.40,251011,,,A*72
$GPRMC,205842.000,A,3748.7259,N,12217.9293,W,1.82,191.09,251011,,,A*7F
$GPRMC,205843.000,A,3748.7251,N,12217.9299,W,1.84,185.87,251011,,,A*79
$GPRMC,205844.000,A,3748.7244,N,12217.9306,W,1.93,192.35,251011,,,A*74
$GPRMC,205845.000,A,3748.7240,N,12217.9311,W,1.93,184.09,251011,,,A*7F
$GPRMC,205846.000,A,3748.7238,N,12217.9316,W,1.89,207.95,251011,,,A*72
$GPRMC,205847.000,A,3748.7239,N,12217.9318,W,1.53,190.04,251011,,,A*7E
$GPRMC,205848.000,A,3748.7235,N,12217.9322,W,2.23,183.71,251011,,,A*70
$GPRMC,205849.000,A,3748.7224,N,12217.9336,W,3.22,229.99,251011,,,A*71
$GPRMC,205850.000,A,3748.7220,N,12217.9349,W,3.16,225.91,251011,,,A*76
$GPRMC,205851.000,A,3748.7216,N,12217.9368,W,3.19,214.31,251011,,,A*76
$GPRMC,205852.000,A,3748.7207,N,12217.9387,W,3.38,207.46,251011,,,A*75
$GPRMC,205853.000,A,3748.7199,N,12217.9394,W,2.68,190.24,251011,,,A*7F
$GPRMC,205854.000,A,3748.7188,N,12217.9399,W,2.04,181.32,251011,,,A*78
$GPRMC,205855.000,A,3748.7181,N,12217.9403,W,1.60,196.65,251011,,,A*71
$GPRMC,205856.000,A,3748.7177,N,12217.9411,W,1.70,206.25,251011,,,A*77
$GPRMC,205857.000,A,3748.7173,N,12217.9416,W,1.73,182.96,251011,,,A*71
$GPRMC,205858.000,A,3748.7167,N,12217.9414,W,2.08,168.15,251011,,,A*79
$GPRMC,205859.000,A,3748.7157,N,12217.9418,W,2.50,173.20,251011,,,A*76
$GPRMC,205900.000,A,3748.7149,N,12217.9418,W,2.03,185.21,251011,,,A*7A
$GPRMC,205901.000,A,3748.7141,N,12217.9424,W,2.25,210.47,251011,,,A*77
$GPRMC,205902.000,A,3748.7137,N,12217.9423,W,2.02,209.04,251011,,,A*78
$GPRMC,205903.000,A,3748.7132,N,12217.9424,W,2.13,198.35,251011,,,A*72
$GPRMC,205904.000,A,3748.7129,N,12217.9419,W,1.82,196.00,251011,,,A*72
$GPRMC,205905.000,A,3748.7126,N,12217.9428,W,1.84,202.83,251011,,,A*7D
$GPRMC,205906.000,A,3748.7125,N,12217.9435,W,1.81,215.89,251011,,,A*78
$GPRMC,205907.000,A,3748.7121,N,12217.9435,W,2.08,220.12,251011,,,A*7B
$GPRMC,205908.000,A,3748.7115,N,12217.9441,W,2.11,203.56,251011,,,A*79
$GPRMC,205909.000,A,3748.7108,N,12217.9443,W,2.30,186.52,251011,,,A*7F
$GPRMC,205910.000,A,3748.7100,N,12217.9448,W,2.19,181.94,251011,,,A*72
$GPRMC,205911.000,A,3748.7092,N,12217.9454,W,1.92,188.40,251011,,,A*74
$GPRMC,205912.000,A,3748.7085,N,12217.9462,W,2.41,209.64,251011,,,A*75
$GPRMC,205913.000,A,3748.7077,N,12217.9473,W,2.48,214.02,251011,,,A*7C
$GPRMC,205914.000,A,3748.7075,N,12217.9486,W,2.60,212.50,251011,,,A*78
$GPRMC,205915.000,A,3748.7073,N,12217.9492,W,2.21,208.33,251011,,,A*71
$GPRMC,205916.000,A,3748.7062,N,12217.9493,W,2.18,209.37,251011,,,A*7C
$GPRMC,205917.000,A,3748.7053,N,12217.9492,W,2.12,204.79,251011,,,A*73
$GPRMC,205918.000,A,3748.7049,N,12217.9487,W,1.80,183.67,251011,,,A*78
$GPRMC,205919.000,A,3748.7040,N,12217.9486,W,2.21,169.88,251011,,,A*7C
$GPRMC,205920.000,A,3748.7033,N,12217.9486,W,1.90,181.31,251011,,,A*7F
$GPRMC,205921.000,A,3748.7027,N,12217.9487,W,1.62,189.72,251011,,,A*78
$GPRMC,205922.000,A,3748.7020,N,12217.9497,W,2.00,209.15,251011,,,A*70
$GPRMC,205923.000,A,3748.7013,N,12217.9505,W,1.98,200.22,251011,,,A*74
$GPRMC,205924.000,A,3748.7008,N,12217.9505,W,1.84,183.94,251011,,,A*71
$GPRMC,205925.000,A,3748.7007,N,12217.9504,W,1.64,187.75,251011,,,A*7B
$GPRMC,205926.000,A,3748.7003,N,12217.9499,W,1.66,176.86,251011,,,A*79
$GPRMC,205927.000,A,3748.7002,N,12217.9499,W,2.25,175.12,251011,,,A*73
$GPRMC,205928.000,A,3748.6998,N,12217.9503,W,1.22,208.93,251011,,,A*71
$GPRMC,205929.000,A,3748.6994,N,12217.9517,W,1.85,231.57,251011,,,A*76
$GPRMC,205930.000,A,3748.6990,N,12217.9528,W,1.81,208.03,251011,,,A*79
$GPRMC,205931.000,A,3748.6985,N,12217.9540,W,1.78,216.81,251011,,,A*71
$GPRMC,205932.000,A,3748.6981,N,12217.9545,W,2.46,200.47,251011,,,A*70
$GPRMC,205933.000,A,3748.6976,N,12217.9546,W,2.64,211.66,251011,,,A*79
$GPRMC,205934.000,A,3748.6973,N,12217.9550,W,2.42,216.82,251011,,,A*75
$GPRMC,205935.000,A,3748.6974,N,12217.9551,W,1.70,206.54,251011,,,A*7A
$GPRMC,205936.000,A,3748.6967,N,12217.9548,W,1.54,180.24,251011,,,A*7F
$GPRMC,205937.000,A,3748.6966,N,12217.9541,W,0.93,175.28,251011,,,A*7A
$GPRMC,205938.000,A,3748.6959,N,12217.9534,W,1.51,186.02,251011,,,A*70
$GPRMC,205939.000,A,3748.6954,N,12217.9529,W,1.42,201.87,251011,,,A*73
$GPRMC,205940.000,A,3748.6948,N,12217.9524,W,1.12,199.76,251011,,,A*74
$GPRMC,205941.000,A,3748.6942,N,12217.9517,W,1.85,176.85,251011,,,A*7C
$GPRMC,205942.000,A,3748.6936,N,12217.9515,W,1.57,167.72,251011,,,A*79
$GPRMC,205943.000,A,3748.6933,N,12217.9511,W,1.21,179.16,251011,,,A*75
$GPRMC,205944.000,A,3748.6926,N,12217.9510,W,1.03,174.29,251011,,,A*76
$GPRMC,205945.000,A,3748.6924,N,12217.9522,W,0.86,228.92,251011,,,A*72
$GPRMC,205946.000,A,3748.6923,N,12217.9528,W,1.79,209.36,251011,,,A*70
$GPRMC,205947.000,A,3748.6918,N,12217.9541,W,2.14,211.05,251011,,,A*77
$GPRMC,205948.000,A,3748.6914,N,12217.9555,W,2.07,215.80,251011,,,A*7A
$GPRMC,205949.000,A,3748.6909,N,12217.9566,W,2.31,213.29,251011,,,A*77
$GPRMC,205950.000,A,3748.6907,N,12217.9579,W,2.09,218.83,251011,,,A*7F
$GPRMC,205951.000,A,3748.6903,N,12217.9589,W,1.95,212.49,251011,,,A*7F
$GPRMC,205952.000,A,3748.6899,N,12217.9596,W,1.84,198.14,251011,,,A*79
$GPRMC,205953.000,A,3748.6890,N,12217.9601,W,1.88,182.03,251011,,,A*7D
$GPRMC,205954.000,A,3748.6883,N,12217.9608,W,2.02,181.66,251011,,,A*70
$GPRMC,205955.000,A,3748.6873,N,12217.9614,W,2.43,193.25,251011,,,A*72
$GPRMC,205956.000,A,3748.6864,N,12217.9626,W,2.42,204.28,251011,,,A*77
$GPRMC,205957.000,A,3748.6853,N,12217.9640,W,2.70,196.42,251011,,,A*77
$GPRMC,205958.000,A,3748.6842,N,12217.9650,W,2.80,190.77,251011,,,A*76
$GPRMC,205959.000,A,3748.6835,N,12217.9651,W,2.42,190.80,251011,,,A*70
$GPRMC,210000.000,A,3748.6824,N,12217.9657,W,2.07,199.42,251011,,,A*71
$GPRMC,210001.000,A,3748.6815,N,12217.9655,W,2.30,176.97,251011,,,A*7D
$GPRMC,210002.000,A,3748.6805,N,12217.9653,W,2.12,179.63,251011,,,A*7D
$GPRMC,210003.000,A,3748.6795,N,12217.9655,W,2.05,207.34,251011,,,A*72
$GPRMC,210004.000,A,3748.6787,N,12217.9653,W,2.19,202.24,251011,,,A*79
$GPRMC,210005.000,A,3748.6780,N,12217.9652,W,1.80,195.61,251011,,,A*71
$GPRMC,210006.000,A,3748.6773,N,12217.9659,W,1.83,201.39,251011,,,A*75
$GPRMC,210007.000,A,3748.6768,N,12217.9668,W,2.24,216.64,251011,,,A*7C
$GPRMC,210008.000,A,3748.6765,N,12217.9679,W,2.48,235.64,251011,,,A*75
$GPRMC,210009.000,A,3748.6763,N,12217.9690,W,2.33,236.32,251011,,,A*79
$GPRMC,210010.000,A,3748.6758,N,12217.9697,W,1.85,219.78,251011,,,A*73
$GPRMC,210011.000,A,3748.6750,N,12217.9707,W,1.92,205.60,251011,,,A*70
$GPRMC,210012.000,A,3748.6742,N,12217.9720,W,1.90,213.40,251011,,,A*72
$GPRMC,210013.000,A,3748.6737,N,12217.9731,W,2.34,217.65,251011,,,A*7F
$GPRMC,210014.000,A,3748.6737,N,12217.9734,W,2.21,211.85,251011,,,A*71
$GPRMC,210015.000,A,3748.6732,N,12217.9740,W,2.13,209.95,251011,,,A*7F
$GPRMC,210016.000,A,3748.6726,N,12217.9744,W,2.30,178.59,251011,,,A*79
$GPRMC,210017.000,A,3748.6717,N,12217.9748,W,2.88,164.33,251011,,,A*74
$GPRMC,210018.000,A,3748.6705,N,12217.9752,W,3.24,173.00,251011,,,A*72
$GPRMC,210019.000,A,3748.6692,N,12217.9754,W,4.14,175.81,251011,,,A*71
$GPRMC,210020.000,A,3748.6684,N,12217.9752,W,3.82,181.20,251011,,,A*72
$GPRMC,210021.000,A,3748.6683,N,12217.9747,W,2.81,179.16,251011,,,A*70
$GPRMC,210022.000,A,3748.6680,N,12217.9746,W,2.23,183.31,251011,,,A*79
$GPRMC,210023.000,A,3748.6678,N,12217.9746,W,1.79,177.96,251011,,,A*75
$GPRMC,210024.000,A,3748.6679,N,12217.9748,W,1.56,182.13,251011,,,A*77
$GPRMC,210025.000,A,3748.6674,N,12217.9754,W,1.68,188.45,251011,,,A*72
$GPRMC,210026.000,A,3748.6667,N,12217.9760,W,1.89,200.78,251011,,,A*76
$GPRMC,210027.000,A,3748.6661,N,12217.9765,W,2.00,214.43,251011,,,A*7B
$GPRMC,210028.000,A,3748.6661,N,12217.9763,W,1.66,217.69,251011,,,A*7A
$GPRMC,210029.000,A,3748.6654,N,12217.9767,W,2.00,210.78,251011,,,A*7D
$GPRMC,210030.000,A,3748.6652,N,12217.9770,W,1.95,194.21,251011,,,A*79
$GPRMC,210031.000,A,3748.6642,N,12217.9773,W,2.19,188.06,251011,,,A*75
$GPRMC,210032.000,A,3748.6636,N,12217.9775,W,2.03,187.28,251011,,,A*7B
$GPRMC,210033.000,A,3748.6631,N,12217.9777,W,1.59,183.51,251011,,,A*79
$GPRMC,210034.000,A,3748.6626,N,12217.9783,W,1.36,192.35,251011,,,A*78
$GPRMC,210035.000,A,3748.6622,N,12217.9793,W,0.85,192.30,251011,,,A*70
$GPRMC,210036.000,A,3748.6622,N,12217.9791,W,0.42,140.65,251011,,,A*75
$GPRMC,210037.000,A,3748.6625,N,12217.9788,W,0.25,112.43,251011,,,A*79
$GPRMC,210038.000,A,3748.6629,N,12217.9783,W,0.75,62.69,251011,,,A*4A
$GPRMC,210039.000,A,3748.6632,N,12217.9782,W,0.32,127.67,251011,,,A*7D
$GPRMC,210040.000,A,3748.6629,N,12217.9780,W,0.72,159.32,251011,,,A*76
$GPRMC,210041.000,A,3748.6628,N,12217.9780,W,0.86,164.77,251011,,,A*72
$GPRMC,210042.000,A,3748.6628,N,12217.9781,W,0.75,166.11,251011,,,A*7E
$GPRMC,210043.000,A,3748.6630,N,12217.9781,W,0.24,158.12,251011,,,A*7C
$GPRMC,210044.000,A,3748.6619,N,12217.9777,W,0.78,179.31,251011,,,A*72
$GPRMC,210045.000,A,3748.6611,N,12217.9773,W,0.68,172.48,251011,,,A*7B
$GPRMC,210046.000,A,3748.6605,N,12217.9770,W,0.38,124.64,251011,,,A*76
$GPRMC,210047.000,A,3748.6601,N,12217.9766,W,0.30,136.18,251011,,,A*74
$GPRMC,210048.000,A,3748.6604,N,12217.9763,W,0.44,118.08,251011,,,A*75
$GPRMC,210049.000,A,3748.6605,N,12217.9758,W,0.68,123.20,251011,,,A*71
$GPRMC,210050.000,A,3748.6602,N,12217.9751,W,0.79,128.04,251011,,,A*7A
$GPRMC,210051.000,A,3748.6606,N,12217.9749,W,0.61,113.69,251011,,,A*7C
$GPRMC,210052.000,A,3748.6608,N,12217.9747,W,0.13,106.44,251011,,,A*71
$GPRMC,210053.000,A,3748.6614,N,12217.9749,W,0.34,241.00,251011,,,A*76
$GPRMC,210054.000,A,3748.6618,N,12217.9755,W,1.12,233.22,251011,,,A*70
$GPRMC,210055.000,A,3748.6619,N,12217.9762,W,1.44,222.38,251011,,,A*7C
$GPRMC,210056.000,A,3748.6618,N,12217.9765,W,1.47,196.52,251011,,,A*7A
$GPRMC,210057.000,A,3748.6619,N,12217.9763,W,1.41,181.48,251011,,,A*77
$GPRMC,210058.000,A,3748.6612,N,12217.9767,W,2.11,197.31,251011,,,A*78
$GPRMC,210059.000,A,3748.6608,N,12217.9772,W,1.80,193.59,251011,,,A*77
$GPRMC,210100.000,A,3748.6604,N,12217.9783,W,1.72,199.33,251011,,,A*73
$GPRMC,210101.000,A,3748.6596,N,12217.9790,W,1.64,184.91,251011,,,A*7B
$GPRMC,210102.000,A,3748.6592,N,12217.9803,W,1.55,232.85,251011,,,A*70
$GPRMC,210103.000,A,3748.6587,N,12217.9817,W,2.01,229.02,251011,,,A*77
$GPRMC,210104.000,A,3748.6581,N,12217.9830,W,2.22,214.49,251011,,,A*73
$GPRMC,210105.000,A,3748.6570,N,12217.9842,W,3.12,201.59,251011,,,A*7E
$GPRMC,210106.000,A,3748.6565,N,12217.9852,W,2.33,196.01,251011,,,A*7A
$GPRMC,210107.000,A,3748.6559,N,12217.9863,W,2.76,217.57,251011,,,A*7E
$GPRMC,210108.000,A,3748.6552,N,12217.9878,W,3.56,211.18,251011,,,A*7E
$GPRMC,210109.000,A,3748.6541,N,12217.9889,W,3.87,208.30,251011,,,A*7D
$GPRMC,210110.000,A,3748.6532,N,12217.9907,W,3.04,205.70,251011,,,A*74
$GPRMC,210111.000,A,3748.6524,N,12217.9916,W,1.94,201.81,251011,,,A*73
$GPRMC,210112.000,A,3748.6520,N,12217.9930,W,1.80,216.86,251011,,,A*74
$GPRMC,210113.000,A,3748.6516,N,12217.9945,W,1.82,236.70,251011,,,A*7B
$GPRMC,210114.000,A,3748.6511,N,12217.9947,W,1.08,211.58,251011,,,A*74
$GPRMC,210115.000,A,3748.6511,N,12217.9944,W,1.05,195.48,251011,,,A*75
$GPRMC,210116.000,A,3748.6512,N,12217.9945,W,1.24,176.04,251011,,,A*72
$GPRMC,210117.000,A,3748.6505,N,12217.9945,W,2.27,184.71,251011,,,A*7A
$GPRMC,210118.000,A,3748.6491,N,12217.9947,W,2.11,198.94,251011,,,A*78
$GPRMC,210119.000,A,3748.6482,N,12217.9940,W,2.27,168.70,251011,,,A*7C
$GPRMC,210120.000,A,3748.6475,N,12217.9938,W,2.03,170.24,251011,,,A*7F
$GPRMC,210121.000,A,3748.6470,N,12217.9938,W,1.90,185.30,251011,,,A*7D
$GPRMC,210122.000,A,3748.6462,N,12217.9942,W,1.84,188.21,251011,,,A*78
$GPRMC,210123.000,A,3748.6458,N,12217.9946,W,1.93,193.74,251011,,,A*78
$GPRMC,210124.000,A,3748.6453,N,12217.9948,W,2.39,194.55,251011,,,A*7D
$GPRMC,210125.000,A,3748.6444,N,12217.9955,W,2.45,183.70,251011,,,A*7C
$GPRMC,210126.000,A,3748.6436,N,12217.9961,W,2.20,185.14,251011,,,A*7A
$GPRMC,210127.000,A,3748.6434,N,12217.9964,W,1.97,180.66,251011,,,A*73
$GPRMC,210128.000,A,3748.6429,N,12217.9966,W,2.14,175.97,251011,,,A*7E
$GPRMC,210129.000,A,3748.6428,N,12217.9968,W,1.99,187.52,251011,,,A*72
$GPRMC,210130.000,A,3748.6418,N,12217.9963,W,2.20,186.44,251011,,,A*75
$GPRMC,210131.000,A,3748.6408,N,12217.9960,W,2.27,194.22,251011,,,A*72
$GPRMC,210132.000,A,3748.6399,N,12217.9960,W,2.16,184.40,251011,,,A*79
$GPRMC,210133.000,A,3748.6390,N,12217.9964,W,2.17,190.68,251011,,,A*7B
$GPRMC,210134.000,A,3748.6387,N,12217.9973,W,2.08,192.20,251011,,,A*7C
$GPRMC,210135.000,A,3748.6382,N,12217.9977,W,2.10,175.54,251011,,,A*7F
$GPRMC,210136.000,A,3748.6378,N,12217.9979,W,2.22,165.03,251011,,,A*75
$GPRMC,210137.000,A,3748.6373,N,12217.9984,W,1.98,180.28,251011,,,A*7D
$GPRMC,210138.000,A,3748.6368,N,12217.9990,W,1.55,192.12,251011,,,A*76
$GPRMC,210139.000,A,3748.6363,N,12218.0001,W,1.98,206.27,251011,,,A*72
$GPRMC,210140.000,A,3748.6356,N,12218.0004,W,2.08,199.54,251011,,,A*74
$GPRMC,210141.000,A,3748.6350,N,12218.0017,W,2.03,209.12,251011,,,A*72
$GPRMC,210142.000,A,3748.6342,N,12218.0025,W,1.99,200.66,251011,,,A*79
$GPRMC,210143.000,A,3748.6333,N,12218.0033,W,2.17,197.93,251011,,,A*7B
$GPRMC,210144.000,A,3748.6324,N,12218.0038,W,2.29,198.54,251011,,,A*78
$GPRMC,210145.000,A,3748.6321,N,12218.0048,W,2.18,216.74,251011,,,A*7E
$GPRMC,210146.000,A,3748.6319,N,12218.0054,W,2.14,200.61,251011,,,A*74
$GPRMC,210147.000,A,3748.6312,N,12218.0063,W,1.94,208.30,251011,,,A*7D
$GPRMC,210148.000,A,3748.6305,N,12218.0068,W,1.84,218.51,251011,,,A*78
$GPRMC,210149.000,A,3748.6299,N,12218.0076,W,1.99,197.59,251011,,,A*72
$GPRMC,210150.000,A,3748.6293,N,12218.0089,W,2.28,224.11,251011,,,A*7E
$GPRMC,210151.000,A,3748.6285,N,12218.0100,W,2.37,215.01,251011,,,A*75
$GPRMC,210152.000,A,3748.6278,N,12218.0114,W,2.32,220.60,251011,,,A*75
$GPRMC,210153.000,A,3748.6272,N,12218.0120,W,1.39,204.26,251011,,,A*75
$GPRMC,210154.000,A,3748.6264,N,12218.0125,W,2.14,206.16,251011,,,A*7D
$GPRMC,210155.000,A,3748.6255,N,12218.0128,W,2.19,184.16,251011,,,A*77
$GPRMC,210156.000,A,3748.6247,N,12218.0137,W,2.09,196.47,251011,,,A*7F
$GPRMC,210157.000,A,3748.6240,N,12218.0143,W,1.39,205.33,251011,,,A*70
$GPRMC,210158.000,A,3748.6234,N,12218.0156,W,1.42,216.56,251011,,,A*75
$GPRMC,210159.000,A,3748.6225,N,12218.0171,W,2.20,215.24,251011,,,A*70
$GPRMC,210200.000,A,3748.6220,N,12218.0182,W,2.47,228.41,251011,,,A*7A
$GPRMC,210201.000,A,3748.6216,N,12218.0193,W,2.74,219.51,251011,,,A*7D
$GPRMC,210202.000,A,3748.6210,N,12218.0196,W,2.50,197.73,251011,,,A*7E
$GPRMC,210203.000,A,3748.6202,N,12218.0192,W,2.22,189.75,251011,,,A*74
$GPRMC,210204.000,A,3748.6195,N,12218.0188,W,2.44,194.58,251011,,,A*76
$GPRMC,210205.000,A,3748.6188,N,12218.0180,W,2.33,174.18,251011,,,A*79
$GPRMC,210206.000,A,3748.6175,N,12218.0180,W,2.89,180.17,251011,,,A*7D
$GPRMC,210207.000,A,3748.6169,N,12218.0171,W,2.78,162.77,251011,,,A*7B
$GPRMC,210208.000,A,3748.6167,N,12218.0156,W,2.69,139.12,251011,,,A*72
$GPRMC,210209.000,A,3748.6162,N,12218.0139,W,2.35,132.94,251011,,,A*73
$GPRMC,210210.000,A,3748.6161,N,12218.0121,W,1.92,104.64,251011,,,A*75
$GPRMC,210211.000,A,3748.6157,N,12218.0103,W,1.94,121.07,251011,,,A*75
$GPRMC,210212.000,A,3748.6151,N,12218.0088,W,2.08,119.63,251011,,,A*7D
$GPRMC,210213.000,A,3748.6144,N,12218.0072,W,2.05,140.86,251011,,,A*77
$GPRMC,210214.000,A,3748.6135,N,12218.0061,W,1.94,141.34,251011,,,A*77
$GPRMC,210215.000,A,3748.6129,N,12218.0053,W,1.65,168.38,251011,,,A*73
$GPRMC,210216.000,A,3748.6123,N,12218.0046,W,2.58,165.15,251011,,,A*71
$GPRMC,210217.000,A,3748.6110,N,12218.0038,W,3.22,163.73,251011,,,A*73
$GPRMC,210218.000,A,3748.6099,N,12218.0033,W,2.73,171.29,251011,,,A*7E
$GPRMC,210219.000,A,3748.6094,N,12218.0027,W,1.89,167.93,251011,,,A*77
$GPRMC,210220.000,A,3748.6093,N,12218.0015,W,1.20,119.33,251011,,,A*7B
$GPRMC,210221.000,A,3748.6091,N,12218.0006,W,1.88,122.05,251011,,,A*75
$GPRMC,210222.000,A,3748.6091,N,12217.9993,W,2.47,120.32,251011,,,A*73
$GPRMC,210223.000,A,3748.6087,N,12217.9983,W,1.94,112.25,251011,,,A*7E
$GPRMC,210224.000,A,3748.6075,N,12217.9979,W,2.03,146.55,251011,,,A*7A
$GPRMC,210225.000,A,3748.6063,N,12217.9978,W,1.58,150.31,251011,,,A*75
$GPRMC,210226.000,A,3748.6057,N,12217.9972,W,1.50,145.88,251011,,,A*75
$GPRMC,210227.000,A,3748.6047,N,12217.9966,W,2.44,150.14,251011,,,A*77
$GPRMC,210228.000,A,3748.6043,N,12217.9956,W,2.13,120.93,251011,,,A*75
$GPRMC,210229.000,A,3748.6042,N,12217.9946,W,2.10,137.15,251011,,,A*7F
$GPRMC,210230.000,A,3748.6046,N,12217.9935,W,1.72,128.38,251011,,,A*71
$GPRMC,210231.000,A,3748.6041,N,12217.9926,W,2.34,120.50,251011,,,A*72
$GPRMC,210232.000,A,3748.6029,N,12217.9919,W,3.07,145.48,251011,,,A*78
$GPRMC,210233.000,A,3748.6021,N,12217.9913,W,2.71,146.45,251011,,,A*75
$GPRMC,210234.000,A,3748.6014,N,12217.9906,W,2.67,139.59,251011,,,A*72
$GPRMC,210235.000,A,3748.6002,N,12217.9902,W,2.19,163.83,251011,,,A*71
$GPRMC,210236.000,A,3748.6013,N,12217.9887,W,2.04,122.55,251011,,,A*7C
$GPRMC,210237.000,A,3748.6019,N,12217.9871,W,1.67,120.75,251011,,,A*78
$GPRMC,210238.000,A,3748.6011,N,12217.9868,W,1.88,133.50,251011,,,A*73
$GPRMC,210239.000,A,3748.6006,N,12217.9863,W,2.20,130.66,251011,,,A*78
$GPRMC,210240.000,A,3748.6002,N,12217.9857,W,1.79,115.30,251011,,,A*7E
$GPRMC,210241.000,A,3748.5997,N,12217.9851,W,1.55,110.05,251011,,,A*72
$GPRMC,210242.000,A,3748.5995,N,12217.9843,W,1.57,98.66,251011,,,A*46
$GPRMC,210243.000,A,3748.5991,N,12217.9837,W,1.40,117.59,251011,,,A*7C
$GPRMC,210244.000,A,3748.5992,N,12217.9834,W,1.64,117.18,251011,,,A*78
$GPRMC,210245.000,A,3748.5992,N,12217.9820,W,2.46,119.94,251011,,,A*75
$GPRMC,210246.000,A,3748.5989,N,12217.9808,W,2.17,144.16,251011,,,A*70
$GPRMC,210247.000,A,3748.5979,N,12217.9802,W,2.38,166.77,251011,,,A*7E
$GPRMC,210248.000,A,3748.5964,N,12217.9803,W,2.18,168.84,251011,,,A*7C
$GPRMC,210249.000,A,3748.5951,N,12217.9801,W,1.95,153.72,251011,,,A*7E
$GPRMC,210250.000,A,3748.5943,N,12217.9792,W,1.69,120.21,251011,,,A*71
$GPRMC,210251.000,A,3748.5934,N,12217.9791,W,1.54,129.83,251011,,,A*7C
$GPRMC,210252.000,A,3748.5929,N,12217.9785,W,1.77,149.08,251011,,,A*72
$GPRMC,210253.000,A,3748.5924,N,12217.9780,W,1.65,168.09,251011,,,A*7A
$GPRMC,210254.000,A,3748.5921,N,12217.9772,W,1.60,156.42,251011,,,A*72
$GPRMC,210255.000,A,3748.5923,N,12217.9764,W,0.72,155.17,251011,,,A*77
$GPRMC,210256.000,A,3748.5923,N,12217.9759,W,0.50,99.09,251011,,,A*44
$GPRMC,210257.000,A,3748.5921,N,12217.9753,W,1.14,119.19,251011,,,A*74
$GPRMC,210258.000,A,3748.5915,N,12217.9751,W,1.44,127.02,251011,,,A*7C
$GPRMC,210259.000,A,3748.5912,N,12217.9749,W,1.30,70.71,251011,,,A*47
$GPRMC,210300.000,A,3748.5908,N,12217.9742,W,1.94,68.33,251011,,,A*4B
$GPRMC,210301.000,A,3748.5911,N,12217.9735,W,2.26,73.80,251011,,,A*4A
$GPRMC,210302.000,A,3748.5908,N,12217.9730,W,1.18,74.13,251011,,,A*47
$GPRMC,210303.000,A,3748.5906,N,12217.9723,W,0.11,9.92,251011,,,A*71
$GPRMC,210304.000,A,3748.5906,N,12217.9718,W,0.27,259.76,251011,,,A*76
$GPRMC,210305.000,A,3748.5907,N,12217.9705,W,1.34,68.31,251011,,,A*4A
$GPRMC,210306.000,A,3748.5904,N,12217.9692,W,0.89,98.90,251011,,,A*46
$GPRMC,210307.000,A,3748.5903,N,12217.9678,W,1.62,133.50,251011,,,A*7C
$GPRMC,210308.000,A,3748.5902,N,12217.9672,W,1.01,143.39,251011,,,A*75
$GPRMC,210309.000,A,3748.5894,N,12217.9668,W,0.80,121.66,251011,,,A*77
$GPRMC,210310.000,A,3748.5892,N,12217.9662,W,0.82,96.82,251011,,,A*46
$GPRMC,210311.000,A,3748.5888,N,12217.9661,W,0.98,103.14,251011,,,A*76
$GPRMC,210312.000,A,3748.5882,N,12217.9655,W,1.58,120.14,251011,,,A*74
$GPRMC,210313.000,A,3748.5882,N,12217.9645,W,2.13,103.37,251011,,,A*78
$GPRMC,210314.000,A,3748.5875,N,12217.9635,W,3.00,125.93,251011,,,A*79
$GPRMC,210315.000,A,3748.5869,N,12217.9618,W,3.23,131.70,251011,,,A*73
$GPRMC,210316.000,A,3748.5864,N,12217.9604,W,3.21,131.71,251011,,,A*73
$GPRMC,210317.000,A,3748.5861,N,12217.9587,W,3.24,143.99,251011,,,A*79
$GPRMC,210318.000,A,3748.5855,N,12217.9584,W,2.53,157.89,251011,,,A*77
$GPRMC,210319.000,A,3748.5850,N,12217.9573,W,1.37,126.47,251011,,,A*7E
$GPRMC,210320.000,A,3748.5853,N,12217.9563,W,0.89,99.21,251011,,,A*47
$GPRMC,210321.000,A,3748.5854,N,12217.9557,W,1.11,46.78,251011,,,A*48
$GPRMC,210322.000,A,3748.5859,N,12217.9556,W,0.86,339.03,251011,,,A*7F
$GPRMC,210323.000,A,3748.5858,N,12217.9554,W,0.49,185.92,251011,,,A*73
$GPRMC,210324.000,A,3748.5850,N,12217.9548,W,1.17,143.88,251011,,,A*7A
$GPRMC,210325.000,A,3748.5844,N,12217.9541,W,1.84,128.78,251011,,,A*7F
$GPRMC,210326.000,A,3748.5837,N,12217.9530,W,1.81,115.29,251011,,,A*71
$GPRMC,210327.000,A,3748.5832,N,12217.9524,W,2.04,105.11,251011,,,A*74
$GPRMC,210328.000,A,3748.5834,N,12217.9518,W,1.68,96.68,251011,,,A*4E
$GPRMC,210329.000,A,3748.5837,N,12217.9514,W,1.09,118.88,251011,,,A*7E
$GPRMC,210330.000,A,3748.5834,N,12217.9510,W,0.77,190.95,251011,,,A*75
$GPRMC,210331.000,A,3748.5827,N,12217.9507,W,1.60,187.90,251011,,,A*74
$GPRMC,210332.000,A,3748.5824,N,12217.9503,W,2.33,177.71,251011,,,A*75
$GPRMC,210333.000,A,3748.5818,N,12217.9502,W,2.15,158.72,251011,,,A*70
$GPRMC,210334.000,A,3748.5811,N,12217.9499,W,1.88,155.21,251011,,,A*71
$GPRMC,210335.000,A,3748.5804,N,12217.9497,W,1.66,165.07,251011,,,A*7D
$GPRMC,210336.000,A,3748.5791,N,12217.9489,W,1.82,167.54,251011,,,A*7C
$GPRMC,210337.000,A,3748.5783,N,12217.9482,W,2.01,142.12,251011,,,A*78
$GPRMC,210338.000,A,3748.5779,N,12217.9472,W,2.02,124.93,251011,,,A*77
$GPRMC,210339.000,A,3748.5771,N,12217.9473,W,1.26,120.76,251011,,,A*75
$GPRMC,210340.000,A,3748.5765,N,12217.9472,W,1.11,106.41,251011,,,A*7B
$GPRMC,210341.000,A,3748.5760,N,12217.9470,W,1.38,119.64,251011,,,A*7F
$GPRMC,210342.000,A,3748.5756,N,12217.9465,W,1.33,125.58,251011,,,A*76
$GPRMC,210343.000,A,3748.5751,N,12217.9464,W,1.26,149.98,251011,,,A*73
$GPRMC,210344.000,A,3748.5746,N,12217.9468,W,1.02,181.59,251011,,,A*71
$GPRMC,210345.000,A,3748.5744,N,12217.9473,W,1.11,193.47,251011,,,A*76
$GPRMC,210346.000,A,3748.5740,N,12217.9476,W,1.11,223.62,251011,,,A*7B
$GPRMC,210347.000,A,3748.5738,N,12217.9481,W,1.19,234.12,251011,,,A*74
$GPRMC,210348.000,A,3748.5730,N,12217.9486,W,1.28,179.14,251011,,,A*7A
$GPRMC,210349.000,A,3748.5723,N,12217.9492,W,1.84,196.28,251011,,,A*74
$GPRMC,210350.000,A,3748.5717,N,12217.9495,W,2.47,205.10,251011,,,A*72
$GPRMC,210351.000,A,3748.5714,N,12217.9508,W,2.25,230.61,251011,,,A*71
$GPRMC,210352.000,A,3748.5709,N,12217.9523,W,2.54,225.38,251011,,,A*79
$GPRMC,210353.000,A,3748.5705,N,12217.9527,W,2.40,213.10,251011,,,A*7A
$GPRMC,210354.000,A,3748.5706,N,12217.9527,W,1.94,204.53,251011,,,A*75
$GPRMC,210355.000,A,3748.5700,N,12217.9534,W,2.22,208.11,251011,,,A*74
$GPRMC,210356.000,A,3748.5694,N,12217.9534,W,2.09,207.85,251011,,,A*70
$GPRMC,210357.000,A,3748.5687,N,12217.9532,W,2.18,194.39,251011,,,A*7B
$GPRMC,210358.000,A,3748.5682,N,12217.9533,W,2.55,207.97,251011,,,A*74
$GPRMC,210359.000,A,3748.5681,N,12217.9536,W,2.63,209.26,251011,,,A*72
$GPRMC,210400.000,A,3748.5674,N,12217.9537,W,1.57,184.69,251011,,,A*7B
$GPRMC,210401.000,A,3748.5673,N,12217.9532,W,1.14,191.97,251011,,,A*7A
$GPRMC,210402.000,A,3748.5669,N,12217.9542,W,1.98,222.18,251011,,,A*7D
$GPRMC,210403.000,A,3748.5668,N,12217.9550,W,2.15,242.39,251011,,,A*7D
$GPRMC,210404.000,A,3748.5662,N,12217.9560,W,2.41,228.23,251011,,,A*75
$GPRMC,210405.000,A,3748.5662,N,12217.9565,W,1.15,225.56,251011,,,A*7C
$GPRMC,210406.000,A,3748.5660,N,12217.9571,W,1.28,218.07,251011,,,A*7C
$GPRMC,210407.000,A,3748.5657,N,12217.9575,W,1.22,198.60,251011,,,A*7D
$GPRMC,210408.000,A,3748.5648,N,12217.9582,W,1.46,195.25,251011,,,A*7A
$GPRMC,210409.000,A,3748.5638,N,12217.9585,W,1.19,177.75,251011,,,A*78
$GPRMC,210410.000,A,3748.5636,N,12217.9588,W,0.25,180.66,251011,,,A*77
$GPRMC,210411.000,A,3748.5629,N,12217.9592,W,1.31,160.16,251011,,,A*7E
$GPRMC,210412.000,A,3748.5624,N,12217.9590,W,1.65,167.45,251011,,,A*72
$GPRMC,210413.000,A,3748.5615,N,12217.9595,W,1.84,203.12,251011,,,A*78
$GPRMC,210414.000,A,3748.5609,N,12217.9600,W,1.93,188.92,251011,,,A*73
$GPRMC,210415.000,A,3748.5601,N,12217.9605,W,2.08,193.32,251011,,,A*7E
$GPRMC,210416.000,A,3748.5593,N,12217.9613,W,2.34,210.82,251011,,,A*7E
$GPRMC,210417.000,A,3748.5586,N,12217.9623,W,2.45,211.69,251011,,,A*7A
$GPRMC,210418.000,A,3748.5576,N,12217.9628,W,2.66,205.09,251011,,,A*73
$GPRMC,210419.000,A,3748.5568,N,12217.9640,W,2.65,206.91,251011,,,A*72
$GPRMC,210420.000,A,3748.5560,N,12217.9652,W,2.38,216.76,251011,,,A*73
$GPRMC,210421.000,A,3748.5553,N,12217.9656,W,2.01,199.41,251011,,,A*7C
$GPRMC,210422.000,A,3748.5545,N,12217.9661,W,1.97,193.25,251011,,,A*78
$GPRMC,210423.000,A,3748.5538,N,12217.9666,W,1.86,204.95,251011,,,A*72
$GPRMC,210424.000,A,3748.5532,N,12217.9671,W,1.76,198.40,251011,,,A*78
$GPRMC,210425.000,A,3748.5525,N,12217.9679,W,1.64,196.88,251011,,,A*7E
$GPRMC,210426.000,A,3748.5518,N,12217.9687,W,2.20,217.47,251011,,,A*78
$GPRMC,210427.000,A,3748.5510,N,12217.9694,W,1.87,217.46,251011,,,A*7C
$GPRMC,210428.000,A,3748.5501,N,12217.9699,W,1.96,226.83,251011,,,A*75
$GPRMC,210429.000,A,3748.5496,N,12217.9701,W,1.76,201.02,251011,,,A*79
$GPRMC,210430.000,A,3748.5493,N,12217.9706,W,1.83,201.85,251011,,,A*76
$GPRMC,210431.000,A,3748.5489,N,12217.9710,W,1.81,200.11,251011,,,A*75
$GPRMC,210432.000,A,3748.5485,N,12217.9711,W,1.78,201.83,251011,,,A*77
$GPRMC,210433.000,A,3748.5480,N,12217.9715,W,1.76,200.28,251011,,,A*79
$GPRMC,210434.000,A,3748.5478,N,12217.9719,W,1.30,191.75,251011,,,A*74
$GPRMC,210435.000,A,3748.5475,N,12217.9719,W,1.47,185.48,251011,,,A*73
$GPRMC,210436.000,A,3748.5470,N,12217.9728,W,1.20,181.95,251011,,,A*72
$GPRMC,210437.000,A,3748.5466,N,12217.9737,W,0.61,192.59,251011,,,A*7C
$GPRMC,210438.000,A,3748.5463,N,12217.9738,W,0.79,162.00,251011,,,A*73
$GPRMC,210439.000,A,3748.5460,N,12217.9740,W,1.41,206.93,251011,,,A*7F
$GPRMC,210440.000,A,3748.5458,N,12217.9746,W,1.44,238.41,251011,,,A*7B
$GPRMC,210441.000,A,3748.5456,N,12217.9746,W,0.31,223.25,251011,,,A*7F
$GPRMC,210442.000,A,3748.5450,N,12217.9748,W,0.24,141.34,251011,,,A*77
$GPRMC,210443.000,A,3748.5443,N,12217.9752,W,0.86,215.38,251011,,,A*79
$GPRMC,210444.000,A,3748.5440,N,12217.9752,W,0.32,191.88,251011,,,A*76
$GPRMC,210445.000,A,3748.5440,N,12217.9748,W,0.88,61.57,251011,,,A*41
$GPRMC,210446.000,A,3748.5441,N,12217.9738,W,0.80,65.53,251011,,,A*4C
$GPRMC,210447.000,A,3748.5439,N,12217.9737,W,0.27,121.65,251011,,,A*74
$GPRMC,210448.000,A,3748.5435,N,12217.9738,W,0.93,210.10,251011,,,A*74
$GPRMC,210449.000,A,3748.5435,N,12217.9746,W,1.27,227.55,251011,,,A*77
$GPRMC,210450.000,A,3748.5431,N,12217.9759,W,0.69,236.73,251011,,,A*7A
$GPRMC,210451.000,A,3748.5431,N,12217.9767,W,0.35,319.85,251011,,,A*7A
$GPRMC,210452.000,A,3748.5432,N,12217.9770,W,0.25,336.71,251011,,,A*7B
$GPRMC,210453.000,A,3748.5432,N,12217.9771,W,0.26,26.33,251011,,,A*4C
$GPRMC,210454.000,A,3748.5432,N,12217.9764,W,0.30,97.11,251011,,,A*42
$GPRMC,210455.000,A,3748.5427,N,12217.9766,W,0.34,124.13,251011,,,A*7A
$GPRMC,210456.000,A,3748.5423,N,12217.9760,W,0.13,168.71,251011,,,A*72
$GPRMC,210457.000,A,3748.5424,N,12217.9757,W,1.15,309.78,251011,,,A*7B
$GPRMC,210458.000,A,3748.5422,N,12217.9764,W,0.63,325.36,251011,,,A*76
$GPRMC,210459.000,A,3748.5423,N,12217.9764,W,0.29,227.17,251011,,,A*78
$GPRMC,210500.000,A,3748.5422,N,12217.9757,W,0.35,198.76,251011,,,A*79
$GPRMC,210501.000,A,3748.5421,N,12217.9754,W,0.84,224.84,251011,,,A*7B
$GPRMC,210502.000,A,3748.5417,N,12217.9754,W,0.43,284.97,251011,,,A*7E
$GPRMC,210503.000,A,3748.5413,N,12217.9756,W,0.32,230.93,251011,,,A*74
$GPRMC,210504.000,A,3748.5409,N,12217.9756,W,0.27,146.39,251011,,,A*7E
$GPRMC,210505.000,A,3748.5403,N,12217.9758,W,1.21,171.25,251011,,,A*75
$GPRMC,210506.000,A,3748.5400,N,12217.9758,W,1.08,177.91,251011,,,A*77
$GPRMC,210507.000,A,3748.5392,N,12217.9754,W,1.36,161.19,251011,,,A*7C
$GPRMC,210508.000,A,3748.5389,N,12217.9752,W,0.89,144.97,251011,,,A*7B
$GPRMC,210509.000,A,3748.5389,N,12217.9752,W,1.21,68.29,251011,,,A*43
$GPRMC,210510.000,A,3748.5385,N,12217.9755,W,1.55,59.91,251011,,,A*42
$GPRMC,210511.000,A,3748.5394,N,12217.9749,W,2.17,43.55,251011,,,A*48
$GPRMC,210512.000,A,3748.5398,N,12217.9744,W,2.22,39.52,251011,,,A*46
$GPRMC,210513.000,A,3748.5407,N,12217.9735,W,1.72,45.01,251011,,,A*4B
$GPRMC,210514.000,A,3748.5417,N,12217.9729,W,1.27,39.07,251011,,,A*4D
$GPRMC,210515.000,A,3748.5423,N,12217.9728,W,1.44,55.47,251011,,,A*41
$GPRMC,210516.000,A,3748.5420,N,12217.9734,W,0.17,305.24,251011,,,A*78
$GPRMC,210517.000,A,3748.5418,N,12217.9739,W,0.44,267.55,251011,,,A*7A
$GPRMC,210518.000,A,3748.5417,N,12217.9739,W,0.52,222.94,251011,,,A*71
$GPRMC,210519.000,A,3748.5420,N,12217.9742,W,0.76,176.02,251011,,,A*73
$GPRMC,210520.000,A,3748.5420,N,12217.9741,W,0.28,148.77,251011,,,A*7E
$GPRMC,210521.000,A,3748.5423,N,12217.9743,W,0.23,158.22,251011,,,A*74
$GPRMC,210522.000,A,3748.5426,N,12217.9741,W,0.21,124.88,251011,,,A*79
$GPRMC,210523.000,A,3748.5420,N,12217.9740,W,0.36,179.40,251011,,,A*75
$GPRMC,210524.000,A,3748.5423,N,12217.9743,W,0.32,314.38,251011,,,A*70
$GPRMC,210525.000,A,3748.5428,N,12217.9744,W,0.67,343.26,251011,,,A*70
$GPRMC,210526.000,A,3748.5426,N,12217.9742,W,0.28,1.59,251011,,,A*7D
$GPRMC,210527.000,A,3748.5423,N,12217.9738,W,0.64,70.53,251011,,,A*40
$GPRMC,210528.000,A,3748.5418,N,12217.9736,W,0.39,163.76,251011,,,A*75
$GPRMC,210529.000,A,3748.5412,N,12217.9732,W,0.68,109.93,251011,,,A*79
$GPRMC,210530.000,A,3748.5415,N,12217.9730,W,0.38,128.96,251011,,,A*77
$GPRMC,210531.000,A,3748.5417,N,12217.9732,W,0.60,267.57,251011,,,A*7E
$GPRMC,210532.000,A,3748.5422,N,12217.9735,W,1.52,301.17,251011,,,A*79
$GPRMC,210533.000,A,3748.5425,N,12217.9741,W,2.10,296.36,251011,,,A*75
$GPRMC,210534.000,A,3748.5429,N,12217.9746,W,1.94,294.51,251011,,,A*75
$GPRMC,210535.000,A,3748.5444,N,12217.9753,W,2.38,295.08,251011,,,A*73
$GPRMC,210536.000,A,3748.5458,N,12217.9759,W,2.32,298.21,251011,,,A*7B
$GPRMC,210537.000,A,3748.5466,N,12217.9765,W,2.09,308.12,251011,,,A*78
$GPRMC,210538.000,A,3748.5469,N,12217.9771,W,2.16,323.42,251011,,,A*7F
$GPRMC,210539.000,A,3748.5479,N,12217.9775,W,1.80,332.03,251011,,,A*72
$GPRMC,210540.000,A,3748.5484,N,12217.9777,W,1.20,353.53,251011,,,A*74
$GPRMC,210541.000,A,3748.5488,N,12217.9778,W,1.05,344.36,251011,,,A*74
$GPRMC,210542.000,A,3748.5486,N,12217.9777,W,0.12,225.91,251011,,,A*7A
$GPRMC,210543.000,A,3748.5482,N,12217.9776,W,0.26,223.94,251011,,,A*7A
$GPRMC,210544.000,A,3748.5478,N,12217.9773,W,0.45,192.52,251011,,,A*7B
$GPRMC,210545.000,A,3748.5479,N,12217.9773,W,0.30,12.05,251011,,,A*42
$GPRMC,210546.000,A,3748.5484,N,12217.9776,W,0.16,314.15,251011,,,A*76
$GPRMC,210547.000,A,3748.5488,N,12217.9778,W,0.18,298.81,251011,,,A*73
$GPRMC,210548.000,A,3748.5497,N,12217.9780,W,0.95,359.97,251011,,,A*7B
$GPRMC,210549.000,A,3748.5499,N,12217.9779,W,0.37,44.37,251011,,,A*4F
$GPRMC,210550.000,A,3748.5493,N,12217.9776,W,1.49,133.00,251011,,,A*7F
$GPRMC,210551.000,A,3748.5492,N,12217.9767,W,2.39,143.07,251011,,,A*7B
$GPRMC,210552.000,A,3748.5486,N,12217.9762,W,2.44,149.08,251011,,,A*77
$GPRMC,210553.000,A,3748.5481,N,12217.9760,W,2.10,161.71,251011,,,A*76
$GPRMC,210554.000,A,3748.5475,N,12217.9764,W,1.79,170.39,251011,,,A*7E
$GPRMC,210555.000,A,3748.5467,N,12217.9766,W,2.71,191.94,251011,,,A*7D
$GPRMC,210556.000,A,3748.5457,N,12217.9765,W,3.05,182.29,251011,,,A*78
$GPRMC,210557.000,A,3748.5447,N,12217.9763,W,2.74,180.57,251011,,,A*72
$GPRMC,210558.000,A,3748.5439,N,12217.9761,W,2.14,159.00,251011,,,A*76
$GPRMC,210559.000,A,3748.5433,N,12217.9759,W,1.72,157.07,251011,,,A*7C
$GPRMC,210600.000,A,3748.5427,N,12217.9758,W,1.83,155.53,251011,,,A*7A
$GPRMC,210601.000,A,3748.5419,N,12217.9761,W,1.90,134.77,251011,,,A*7F
$GPRMC,210602.000,A,3748.5416,N,12217.9762,W,1.31,137.35,251011,,,A*7E
$GPRMC,210603.000,A,3748.5412,N,12217.9764,W,1.62,179.84,251011,,,A*7B
$GPRMC,210604.000,A,3748.5407,N,12217.9770,W,1.81,191.59,251011,,,A*76
$GPRMC,210605.000,A,3748.5400,N,12217.9771,W,1.91,191.48,251011,,,A*70
$GPRMC,210606.000,A,3748.5391,N,12217.9775,W,2.04,184.63,251011,,,A*7A
$GPRMC,210607.000,A,3748.5385,N,12217.9780,W,2.11,196.52,251011,,,A*71
$GPRMC,210608.000,A,3748.5378,N,12217.9784,W,2.43,204.93,251011,,,A*7A
$GPRMC,210609.000,A,3748.5370,N,12217.9789,W,2.48,208.56,251011,,,A*70
$GPRMC,210610.000,A,3748.5362,N,12217.9791,W,2.67,194.15,251011,,,A*7E
$GPRMC,210611.000,A,3748.5349,N,12217.9793,W,3.01,197.24,251011,,,A*74
$GPRMC,210612.000,A,3748.5343,N,12217.9793,W,2.20,185.54,251011,,,A*7B
$GPRMC,210613.000,A,3748.5334,N,12217.9797,W,2.05,183.10,251011,,,A*7F
$GPRMC,210614.000,A,3748.5331,N,12217.9801,W,2.44,198.74,251011,,,A*70
$GPRMC,210615.000,A,3748.5326,N,12217.9808,W,2.08,201.63,251011,,,A*73
$GPRMC,210616.000,A,3748.5322,N,12217.9817,W,1.71,226.62,251011,,,A*73
$GPRMC,210617.000,A,3748.5318,N,12217.9826,W,1.58,235.17,251011,,,A*72
$GPRMC,210618.000,A,3748.5311,N,12217.9832,W,1.65,177.55,251011,,,A*7C
$GPRMC,210619.000,A,3748.5303,N,12217.9835,W,1.69,175.40,251011,,,A*73
$GPRMC,210620.000,A,3748.5298,N,12217.9841,W,1.33,199.30,251011,,,A*73
$GPRMC,210621.000,A,3748.5293,N,12217.9848,W,1.26,216.08,251011,,,A*7B
$GPRMC,210622.000,A,3748.5288,N,12217.9849,W,1.87,198.80,251011,,,A*7D
$GPRMC,210623.000,A,3748.5282,N,12217.9851,W,2.31,194.00,251011,,,A*75
$GPRMC,210624.000,A,3748.5278,N,12217.9851,W,1.47,201.92,251011,,,A*71
$GPRMC,210625.000,A,3748.5273,N,12217.9851,W,1.15,188.51,251011,,,A*71
$GPRMC,210626.000,A,3748.5262,N,12217.9856,W,1.69,186.60,251011,,,A*72
$GPRMC,210627.000,A,3748.5257,N,12217.9856,W,1.07,174.07,251011,,,A*71
$GPRMC,210628.000,A,3748.5254,N,12217.9854,W,0.62,138.44,251011,,,A*72
$GPRMC,210629.000,A,3748.5250,N,12217.9860,W,1.27,192.73,251011,,,A*74
$GPRMC,210630.000,A,3748.5245,N,12217.9867,W,0.96,161.95,251011,,,A*70
$GPRMC,210631.000,A,3748.5245,N,12217.9869,W,0.93,160.80,251011,,,A*7F
$GPRMC,210632.000,A,3748.5241,N,12217.9865,W,2.02,169.05,251011,,,A*7A
$GPRMC,210633.000,A,3748.5236,N,12217.9864,W,1.99,181.88,251011,,,A*78
$GPRMC,210634.000,A,3748.5232,N,12217.9866,W,2.09,181.40,251011,,,A*77
$GPRMC,210635.000,A,3748.5226,N,12217.9871,W,2.21,179.65,251011,,,A*7F
$GPRMC,210636.000,A,3748.5219,N,12217.9878,W,2.05,199.30,251011,,,A*71
$GPRMC,210637.000,A,3748.5213,N,12217.9881,W,1.52,202.58,251011,,,A*72
$GPRMC,210638.000,A,3748.5207,N,12217.9885,W,0.81,211.06,251011,,,A*7A
$GPRMC,210639.000,A,3748.5204,N,12217.9892,W,0.98,192.23,251011,,,A*79
$GPRMC,210640.000,A,3748.5193,N,12217.9899,W,1.25,169.70,251011,,,A*74
$GPRMC,210641.000,A,3748.5190,N,12217.9902,W,1.02,177.67,251011,,,A*79
$GPRMC,210642.000,A,3748.5185,N,12217.9910,W,1.08,220.82,251011,,,A*7D
$GPRMC,210643.000,A,3748.5184,N,12217.9920,W,1.06,229.38,251011,,,A*78
$GPRMC,210644.000,A,3748.5185,N,12217.9928,W,0.32,267.65,251011,,,A*72
$GPRMC,210645.000,A,3748.5185,N,12217.9922,W,0.18,70.00,251011,,,A*46
$GPRMC,210646.000,A,3748.5179,N,12217.9924,W,0.30,154.55,251011,,,A*7D
$GPRMC,210647.000,A,3748.5177,N,12217.9926,W,0.11,332.95,251011,,,A*7D
$GPRMC,210648.000,A,3748.5176,N,12217.9930,W,1.04,233.94,251011,,,A*70
$GPRMC,210649.000,A,3748.5168,N,12217.9941,W,0.97,226.03,251011,,,A*79
$GPRMC,210650.000,A,3748.5170,N,12217.9937,W,0.47,70.31,251011,,,A*44
$GPRMC,210651.000,A,3748.5172,N,12217.9937,W,0.41,52.38,251011,,,A*48
$GPRMC,210652.000,A,3748.5169,N,12217.9938,W,0.41,42.65,251011,,,A*47
$GPRMC,210653.000,A,3748.5170,N,12217.9941,W,1.03,71.54,251011,,,A*45
$GPRMC,210654.000,A,3748.5173,N,12217.9939,W,0.98,38.21,251011,,,A*42
$GPRMC,210655.000,A,3748.5168,N,12217.9947,W,0.54,14.85,251011,,,A*40
$GPRMC,210656.000,A,3748.5168,N,12217.9948,W,0.17,180.55,251011,,,A*7A
$GPRMC,210657.000,A,3748.5161,N,12217.9955,W,1.47,234.56,251011,,,A*75
$GPRMC,210658.000,A,3748.5157,N,12217.9964,W,2.74,237.03,251011,,,A*7D
$GPRMC,210659.000,A,3748.5151,N,12217.9963,W,2.70,232.37,251011,,,A*7B
$GPRMC,210700.000,A,3748.5148,N,12217.9961,W,1.36,203.60,251011,,,A*7D
$GPRMC,210701.000,A,3748.5146,N,12217.9951,W,1.09,173.24,251011,,,A*79
$GPRMC,210702.000,A,3748.5138,N,12217.9956,W,1.84,207.38,251011,,,A*7C
$GPRMC,210703.000,A,3748.5131,N,12217.9957,W,1.61,201.99,251011,,,A*73
$GPRMC,210704.000,A,3748.5124,N,12217.9961,W,1.51,197.43,251011,,,A*7D
$GPRMC,210705.000,A,3748.5124,N,12217.9963,W,1.05,185.24,251011,,,A*7D
$GPRMC,210706.000,A,3748.5124,N,12217.9963,W,1.04,177.76,251011,,,A*75
$GPRMC,210707.000,A,3748.5122,N,12217.9964,W,1.01,175.86,251011,,,A*7D
$GPRMC,210708.000,A,3748.5123,N,12217.9964,W,1.15,204.17,251011,,,A*7B
$GPRMC,210709.000,A,3748.5121,N,12217.9963,W,0.99,202.55,251011,,,A*7A
$GPRMC,210710.000,A,3748.5118,N,12217.9964,W,1.31,207.70,251011,,,A*7E
$GPRMC,210711.000,A,3748.5114,N,12217.9972,W,1.26,219.10,251011,,,A*7B
$GPRMC,210712.000,A,3748.5114,N,12217.9974,W,0.08,209.02,251011,,,A*71
$GPRMC,210713.000,A,3748.5105,N,12217.9985,W,0.36,267.35,251011,,,A*7F
$GPRMC,210714.000,A,3748.5101,N,12217.9992,W,0.52,253.92,251011,,,A*72
$GPRMC,210715.000,A,3748.5102,N,12217.9996,W,0.23,253.13,251011,,,A*7B
$GPRMC,210716.000,A,3748.5104,N,12217.9999,W,0.12,197.16,251011,,,A*7D
$GPRMC,210717.000,A,3748.5104,N,12217.9998,W,0.13,80.46,251011,,,A*4E
$GPRMC,210718.000,A,3748.5101,N,12218.0004,W,0.43,310.10,251011,,,A*72
$GPRMC,210719.000,A,3748.5095,N,12218.0010,W,1.07,114.00,251011,,,A*7C
$GPRMC,210720.000,A,3748.5092,N,12218.0011,W,0.60,92.65,251011,,,A*4C
$GPRMC,210721.000,A,3748.5097,N,12218.0007,W,0.38,61.99,251011,,,A*4D
$GPRMC,210722.000,A,3748.5099,N,12218.0005,W,1.12,66.54,251011,,,A*4D
$GPRMC,210723.000,A,3748.5101,N,12218.0001,W,1.00,35.84,251011,,,A*40
$GPRMC,210724.000,A,3748.5099,N,12217.9999,W,0.71,171.13,251011,,,A*71
$GPRMC,210725.000,A,3748.5093,N,12218.0001,W,0.87,175.91,251011,,,A*73
$GPRMC,210726.000,A,3748.5090,N,12217.9999,W,1.06,151.16,251011,,,A*7C
$GPRMC,210727.000,A,3748.5084,N,12218.0000,W,1.14,171.89,251011,,,A*70
$GPRMC,210728.000,A,3748.5078,N,12217.9998,W,1.71,193.58,251011,,,A*71
$GPRMC,210729.000,A,3748.5070,N,12218.0000,W,2.42,207.89,251011,,,A*77
$GPRMC,210730.000,A,3748.5055,N,12218.0011,W,3.74,206.04,251011,,,A*78
$GPRMC,210731.000,A,3748.5053,N,12218.0017,W,2.79,203.02,251011,,,A*76
$GPRMC,210732.000,A,3748.5042,N,12218.0021,W,2.71,188.84,251011,,,A*76
$GPRMC,210733.000,A,3748.5027,N,12218.0033,W,2.96,214.07,251011,,,A*73
$GPRMC,210734.000,A,3748.5026,N,12218.0039,W,2.47,247.04,251011,,,A*76
$GPRMC,210735.000,A,3748.5019,N,12218.0043,W,2.49,199.87,251011,,,A*73
$GPRMC,210736.000,A,3748.5016,N,12218.0045,W,1.83,178.49,251011,,,A*71
$GPRMC,210737.000,A,3748.5011,N,12218.0057,W,1.53,183.99,251011,,,A*70
$GPRMC,210738.000,A,3748.5013,N,12218.0064,W,1.81,203.77,251011,,,A*79
$GPRMC,210739.000,A,3748.5008,N,12218.0069,W,2.05,207.75,251011,,,A*76
$GPRMC,210740.000,A,3748.5001,N,12218.0076,W,2.12,211.73,251011,,,A*78
$GPRMC,210741.000,A,3748.4998,N,12218.0087,W,2.02,227.49,251011,,,A*72
$GPRMC,210742.000,A,3748.4995,N,12218.0091,W,1.52,210.11,251011,,,A*74
$GPRMC,210743.000,A,3748.4998,N,12218.0095,W,1.24,225.33,251011,,,A*7B
$GPRMC,210744.000,A,3748.4997,N,12218.0103,W,1.09,209.71,251011,,,A*7A
$GPRMC,210745.000,A,3748.4994,N,12218.0111,W,1.33,216.24,251011,,,A*7C
$GPRMC,210746.000,A,3748.4990,N,12218.0113,W,1.30,205.60,251011,,,A*78
$GPRMC,210747.000,A,3748.4984,N,12218.0116,W,1.88,210.12,251011,,,A*7B
$GPRMC,210748.000,A,3748.4977,N,12218.0127,W,1.87,213.02,251011,,,A*77
$GPRMC,210749.000,A,3748.4974,N,12218.0123,W,1.31,194.78,251011,,,A*7D
$GPRMC,210750.000,A,3748.4965,N,12218.0135,W,1.98,215.73,251011,,,A*70
$GPRMC,210751.000,A,3748.4959,N,12218.0141,W,2.12,209.58,251011,,,D*7D
$GPRMC,210752.000,A,3748.4955,N,12218.0145,W,2.02,209.73,251011,,,D*7E
$GPRMC,210753.000,A,3748.4951,N,12218.0148,W,2.12,200.06,251011,,,D*7C
$GPRMC,210754.000,A,3748.4944,N,12218.0148,W,2.30,193.14,251011,,,D*75
$GPRMC,210755.000,A,3748.4940,N,12218.0147,W,1.57,188.42,251011,,,D*74
$GPRMC,210756.000,A,3748.4936,N,12218.0143,W,1.52,172.34,251011,,,D*73
$GPRMC,210757.000,A,3748.4933,N,12218.0142,W,1.87,193.69,251011,,,D*79
$GPRMC,210758.000,A,3748.4929,N,12218.0142,W,2.10,197.03,251011,,,D*78
$GPRMC,210759.000,A,3748.4923,N,12218.0145,W,1.85,207.54,251011,,,D*73
$GPRMC,210800.000,A,3748.4921,N,12218.0145,W,1.68,193.74,251011,,,D*7D
$GPRMC,210801.000,A,3748.4919,N,12218.0147,W,1.78,204.29,251011,,,D*71
$GPRMC,210802.000,A,3748.4914,N,12218.0153,W,2.36,204.23,251011,,,D*79
$GPRMC,210803.000,A,3748.4906,N,12218.0154,W,2.34,206.41,251011,,,D*78
$GPRMC,210804.000,A,3748.4898,N,12218.0161,W,2.24,196.39,251011,,,D*7B
$GPRMC,210805.000,A,3748.4887,N,12218.0170,W,1.77,192.77,251011,,,D*7F
$GPRMC,210806.000,A,3748.4877,N,12218.0179,W,1.78,216.94,251011,,,D*77
$GPRMC,210807.000,A,3748.4870,N,12218.0184,W,2.17,224.49,251011,,,D*78
$GPRMC,210808.000,A,3748.4865,N,12218.0191,W,1.92,218.84,251011,,,D*77
$GPRMC,210809.000,A,3748.4861,N,12218.0195,W,1.87,201.33,251011,,,D*76
$GPRMC,210810.000,A,3748.4856,N,12218.0199,W,2.09,210.09,251011,,,D*7A
$GPRMC,210811.000,A,3748.4850,N,12218.0201,W,2.45,195.61,251011,,,D*77
$GPRMC,210812.000,A,3748.4843,N,12218.0204,W,2.46,209.26,251011,,,D*75
$GPRMC,210813.000,A,3748.4835,N,12218.0209,W,2.79,217.39,251011,,,D*75
