$ADVER,3080,2.3
$GPRMC,190304.650,A,3748.7996,N,12217.8611,W,0.16,15.82,211211,,,A*49
$GPGGA,190305.650,3748.7997,N,12217.8610,W,1,04,1.7,-2.7,M,-25.1,M,,0000*42
$GPGSA,A,3,05,15,29,30,,,,,,,,,2.7,1.7,2.0*3A
$GPRMC,190305.650,A,3748.7997,N,12217.8610,W,0.17,23.71,211211,,,A*40
$GPVTG,23.71,T,,M,0.17,N,0.3,K,A*3F
$GPGGA,190306.650,3748.7998,N,12217.8609,W,1,04,1.7,-2.7,M,-25.1,M,,0000*46
$GPGSA,A,3,05,15,29,30,,,,,,,,,2.7,1.7,2.0*3A
$GPRMC,190306.650,A,3748.7998,N,12217.8609,W,0.13,19.28,211211,,,A*45
$GPVTG,19.28,T,,M,0.13,N,0.2,K,A*3F
$GPGGA,190307.000,3748.7998,N,12217.8609,W,1,04,1.7,-2.7,M,-25.1,M,,0000*44
$GPGSA,A,3,05,15,29,30,,,,,,,,,2.7,1.7,2.0*3A
$GPGSV,3,1,12,29,79,041,28,05,35,048,32,30,23,309,34,15,17,132,41*74
$GPGSV,3,2,12,21,47,277,26,25,31,190,32,18,30,203,30,26,17,095,31*75
$GPGSV,3,3,12,12,08,170,28,16,04,326,,02,02,072,,31,00,264,*7E
$GPRMC,190307.000,A,3748.7998,N,12217.8609,W,0.12,1.26,211211,,,A*71
$GPVTG,1.26,T,,M,0.12,N,0.2,K,A*09
$GPGGA,190308.000,3748.7999,N,12217.8609,W,1,04,1.7,-2.7,M,-25.1,M,,0000*4A
$GPGSA,A,3,05,15,29,30,,,,,,,,,2.7,1.7,2.0*3A
$GPRMC,190308.000,A,3748.7999,N,12217.8609,W,0.15,20.01,211211,,,A*4E
$GPVTG,20.01,T,,M,0.15,N,0.3,K,A*39
$GPGGA,190309.000,3748.7999,N,12217.8609,W,1,04,1.7,-2.7,M,-25.1,M,,0000*4B
$GPGSA,A,3,05,15,29,30,,,,,,,,,2.7,1.7,2.0*3A
$GPRMC,190309.000,A,3748.7999,N,12217.8609,W,0.16,15.25,211211,,,A*4C
$GPVTG,15.25,T,,M,0.16,N,0.3,K,A*3A
$GPGGA,190310.000,3748.8000,N,12217.8608,W,1,04,1.7,-2.7,M,-25.1,M,,0000*44
$GPGSA,A,3,05,15,29,30,,,,,,,,,2.7,1.7,2.0*3A
$GPRMC,190310.000,A,3748.8000,N,12217.8608,W,0.17,27.35,211211,,,A*42
$GPVTG,27.35,T,,M,0.17,N,0.3,K,A*3B
$GPGGA,190311.000,3748.8000,N,12217.8608,W,1,04,1.7,-2.8,M,-25.1,M,,0000*4A
$GPGSA,A,3,05,15,29,30,,,,,,,,,2.7,1.7,2.0*3A
$GPRMC,190311.000,A,3748.8000,N,12217.8608,W,0.16,16.65,211211,,,A*45
$GPVTG,16.65,T,,M,0.16,N,0.3,K,A*3D
$GPGGA,190312.000,3748.8001,N,12217.8608,W,1,04,1.7,-2.7,M,-25.1,M,,0000*47
$GPGSA,A,3,05,15,29,30,,,,,,,,,2.7,1.7,2.0*3A
$GPGSV,3,1,12,29,79,041,28,05,35,048,31,30,23,309,34,15,17,132,41*77
$GPGSV,3,2,12,21,47,277,26,25,31,190,31,18,30,203,30,26,17,095,32*75
$GPGSV,3,3,12,12,08,170,28,16,04,326,24,02,02,072,,31,00,264,*78
$GPRMC,190312.000,A,3748.8001,N,12217.8608,W,0.16,19.46,211211,,,A*49
$GPGGA,190313.000,3748.8001,N,12217.8607,W,1,04,1.7,-2.7,M,-25.1,M,,0000*49
$GPGSA,A,3,05,15,29,30,,,,,,,,,2.7,1.7,2.0*3A
$GPRMC,190313.000,A,3748.8001,N,12217.8607,W,0.16,24.24,211211,,,A*4D
$GPVTG,24.24,T,,M,0.16,N,0.3,K,A*39
$GPGGA,190314.000,3748.8001,N,12217.8607,W,1,04,1.7,-2.6,M,-25.1,M,,0000*4F
$GPGSA,A,3,05,15,29,30,,,,,,,,,2.7,1.7,2.0*3A
$GPRMC,190314.000,A,3748.8001,N,12217.8607,W,0.14,18.85,211211,,,A*4C
$GPVTG,18.85,T,,M,0.14,N,0.3,K,A*3F
$GPGGA,190315.000,3748.8002,N,12217.8607,W,1,04,1.7,-2.5,M,-25.1,M,,0000*4E
$GPGSA,A,3,05,15,29,30,,,,,,,,,2.7,1.7,2.0*3A
$GPRMC,190315.000,A,3748.8002,N,12217.8607,W,0.16,17.42,211211,,,A*48
$GPVTG,17.42,T,,M,0.16,N,0.3,K,A*39
$GPGGA,190316.000,3748.8002,N,12217.8607,W,1,04,1.7,-2.4,M,-25.1,M,,0000*4C
$GPGSA,A,3,05,15,29,30,,,,,,,,,2.7,1.7,2.0*3A
$GPRMC,190316.000,A,3748.8002,N,12217.8607,W,0.17,22.60,211211,,,A*4C
$GPVTG,22.60,T,,M,0.17,N,0.3,K,A*3E
$GPGGA,190317.000,3748.8002,N,12217.8607,W,1,04,1.7,-2.3,M,-25.1,M,,0000*4A
$GPGSA,A,3,05,15,29,30,,,,,,,,,2.7,1.7,2.0*3A
$GPGSV,3,1,12,29,79,041,27,21,47,277,26,05,35,048,31,25,31,190,31*79
$GPGSV,3,2,12,18,30,203,30,30,23,309,34,26,17,095,26,15,17,132,42*72
$GPGSV,3,3,12,12,08,170,28,16,04,326,,02,02,072,,31,00,264,*7E
$GPRMC,190317.000,A,3748.8002,N,12217.8607,W,0.13,14.65,211211,,,A*49
$GPVTG,14.65,T,,M,0.13,N,0.2,K,A*3B
$GPGGA,190318.000,3748.8002,N,12217.8607,W,1,04,1.7,-2.1,M,-25.1,M,,0000*47
$GPGSA,A,3,05,15,29,30,,,,,,,,,2.7,1.7,2.0*3A
$GPRMC,190318.000,A,3748.8002,N,12217.8607,W,0.08,7.56,211211,,,A*7E
$GPVTG,7.56,T,,M,0.08,N,0.2,K,A*03
$GPGGA,190319.000,3748.8002,N,12217.8607,W,1,04,1.7,-2.0,M,-25.1,M,,0000*47
$GPGSA,A,3,05,15,29,30,,,,,,,,,2.7,1.7,2.0*3A
$GPRMC,190319.000,A,3748.8002,N,12217.8607,W,0.17,22.59,211211,,,A*49
$GPVTG,22.59,T,,M,0.17,N,0.3,K,A*34
$GPGGA,190320.000,3748.8003,N,12217.8607,W,1,04,1.7,-1.8,M,-25.1,M,,0000*47
$GPGSA,A,3,05,15,29,30,,,,,,,,,2.7,1.7,2.0*3A
$GPRMC,190320.000,A,3748.8003,N,12217.8607,W,0.14,28.40,211211,,,A*43
$GPVTG,28.40,T,,M,0.14,N,0.3,K,A*35
$GPGGA,190321.000,3748.8003,N,12217.8607,W,1,04,1.7,-1.6,M,-25.1,M,,0000*48
$GPGSA,A,3,05,15,29,30,,,,,,,,,2.7,1.7,2.0*3A
$GPRMC,190321.000,A,3748.8003,N,12217.8607,W,0.11,10.58,211211,,,A*45
$GPVTG,10.58,T,,M,0.11,N,0.2,K,A*33
$GPGGA,190322.000,3748.8002,N,12217.8607,W,1,04,1.7,-1.4,M,-25.1,M,,0000*48
$GPGSA,A,3,05,15,29,30,,,,,,,,,2.7,1.7,2.0*3A
$GPGSV,3,1,12,29,79,041,27,21,47,277,26,05,35,048,31,25,31,190,30*78
$GPGSV,3,2,12,18,30,203,30,30,23,309,33,26,17,095,30,15,17,132,42*72
$GPRMC,190322.000,A,3748.8002,N,12217.8607,W,0.11,25.96,211211,,,A*43
$GPVTG,25.96,T,,M,0.11,N,0.2,K,A*37
$GPGGA,190323.000,3748.8002,N,12217.8608,W,1,04,1.7,-1.2,M,-25.1,M,,0000*40
$GPGSA,A,3,05,15,29,30,,,,,,,,,2.7,1.7,2.0*3A
$GPRMC,190323.000,A,3748.8002,N,12217.8608,W,0.13,18.62,211211,,,A*4A
$GPVTG,18.62,T,,M,0.13,N,0.2,K,A*30
$GPGGA,190324.000,3748.8002,N,12217.8608,W,1,04,1.7,-1.1,M,-25.1,M,,0000*44
$GPGSA,A,3,05,15,29,30,,,,,,,,,2.7,1.7,2.0*3A
$GPRMC,190324.000,A,3748.8002,N,12217.8608,W,0.10,12.25,211211,,,A*47
$GPVTG,12.25,T,,M,0.10,N,0.2,K,A*3A
$GPGGA,190325.000,3748.8002,N,12217.8608,W,1,04,1.7,-0.9,M,-25.1,M,,0000*4C
$GPGSA,A,3,05,15,29,30,,,,,,,,,2.7,1.7,2.0*3A
$GPRMC,190325.000,A,3748.8002,N,12217.8608,W,0.09,18.81,211211,,,A*4A
$GPVTG,18.81,T,,M,0.09,N,0.2,K,A*36
$GPGGA,190326.000,3748.8002,N,12217.8608,W,1,04,1.7,-0.8,M,-25.1,M,,0000*4E
$GPGSA,A,3,05,15,29,30,,,,,,,,,2.7,1.7,2.0*3A
$GPRMC,190326.000,A,3748.8002,N,12217.8608,W,0.14,30.15,211211,,,A*42
$GPVTG,30.15,T,,M,0.14,N,0.3,K,A*3C
$GPGGA,190327.000,3748.8002,N,12217.8609,W,1,04,1.7,-0.6,M,-25.1,M,,0000*40
$GPGSA,A,3,05,15,29,30,,,,,,,,,2.7,1.7,2.0*3A
$GPGSV,3,1,12,29,79,041,28,21,47,277,26,05,35,048,30,25,31,190,41*70
$GPGSV,3,2,12,18,30,203,38,30,23,309,33,26,17,095,31,15,17,132,42*7B
$GPGSV,3,3,12,12,08,170,28,16,04,326,22,02,02,072,,31,00,264,*7E
$GPRMC,190327.000,A,3748.8002,N,12217.8609,W,0.09,19.68,211211,,,A*4F
$GPVTG,19.68,T,,M,0.09,N,0.2,K,A*30
$GPGGA,190328.000,3748.8002,N,12217.8609,W,1,04,1.7,-0.5,M,-25.1,M,,0000*4C
$GPGSA,A,3,05,15,29,30,,,,,,,,,2.7,1.7,2.0*3A
$GPRMC,190328.000,A,3748.8002,N,12217.8609,W,0.08,349.98,211211,,,A*78
$GPVTG,349.98,T,,M,0.08,N,0.2,K,A*08
$GPGGA,190329.000,3748.8002,N,12217.8609,W,1,04,1.7,-0.4,M,-25.1,M,,0000*4C
$GPGSA,A,3,05,15,29,30,,,,,,,,,2.7,1.7,2.0*3A
$GPRMC,190329.000,A,3748.8002,N,12217.8609,W,0.10,20.46,211211,,,A*4F
$GPVTG,20.46,T,,M,0.10,N,0.2,K,A*3E
$GPGGA,190330.000,3748.8002,N,12217.8610,W,1,04,1.7,-0.3,M,-25.1,M,,0000*4B
$GPGSA,A,3,05,15,29,30,,,,,,,,,2.7,1.7,2.0*3A
$GPRMC,190330.000,A,3748.8002,N,12217.8610,W,0.12,18.91,211211,,,A*4C
$GPVTG,18.91,T,,M,0.12,N,0.2,K,A*3D
$GPGGA,190331.000,3748.8002,N,12217.8610,W,1,04,1.7,-0.2,M,-25.1,M,,0000*4B
$GPGSA,A,3,05,15,29,30,,,,,,,,,2.7,1.7,2.0*3A
$GPRMC,190331.000,A,3748.8002,N,12217.8610,W,0.09,16.17,211211,,,A*47
$GPVTG,16.17,T,,M,0.09,N,0.2,K,A*37
$GPGGA,190332.000,3748.8002,N,12217.8610,W,1,04,1.7,-0.1,M,-25.1,M,,0000*4B
$GPGSA,A,3,05,15,29,30,,,,,,,,,2.7,1.7,2.0*3A
$GPGSV,3,1,12,29,79,041,29,21,47,277,27,05,35,048,30,25,31,190,41*70
$GPGSV,3,2,12,18,30,203,37,30,23,309,33,26,17,095,31,15,17,132,42*74
$GPGSV,3,3,12,12,08,170,29,16,04,326,,02,02,072,,31,00,264,*7F
$GPRMC,190332.000,A,3748.8002,N,12217.8610,W,0.08,1.13,211211,,,A*77
$GPVTG,1.13,T,,M,0.08,N,0.1,K,A*07
$GPGGA,190333.000,3748.8002,N,12217.8610,W,1,04,1.7,0.0,M,-25.1,M,,0000*66
$GPGSA,A,3,05,15,29,30,,,,,,,,,2.7,1.7,2.0*3A
$GPRMC,190333.000,A,3748.8002,N,12217.8610,W,0.14,28.02,211211,,,A*40
$GPVTG,28.02,T,,M,0.14,N,0.3,K,A*33
$GPGGA,190334.000,3748.8002,N,12217.8611,W,1,06,1.1,0.1,M,-25.1,M,,0000*65
$GPGSA,A,3,05,15,29,30,18,12,,,,,,,2.1,1.1,1.8*3B
$GPRMC,190334.000,A,3748.8002,N,12217.8611,W,0.06,347.42,211211,,,A*7B
$GPVTG,347.42,T,,M,0.06,N,0.1,K,A*0C
$GPGGA,190335.000,3748.8001,N,12217.8611,W,1,06,1.1,0.2,M,-25.1,M,,0000*64
$GPGSA,A,3,05,15,29,30,18,12,,,,,,,2.1,1.1,1.8*3B
$GPRMC,190335.000,A,3748.8001,N,12217.8611,W,0.06,347.49,211211,,,A*72
$GPVTG,347.49,T,,M,0.06,N,0.1,K,A*07
$GPGGA,190336.000,3748.8001,N,12217.8611,W,1,06,1.1,0.3,M,-25.1,M,,0000*66
$GPGSA,A,3,05,15,29,30,18,12,,,,,,,2.1,1.1,1.8*3B
$GPRMC,190336.000,A,3748.8001,N,12217.8611,W,0.07,349.04,211211,,,A*77
$GPVTG,349.04,T,,M,0.07,N,0.1,K,A*01
$GPGGA,190337.000,3748.8001,N,12217.8611,W,1,06,1.1,0.3,M,-25.1,M,,0000*67
$GPGSA,A,3,05,15,29,30,18,12,,,,,,,2.1,1.1,1.8*3B
$GPGSV,3,1,12,29,79,042,29,21,47,277,27,05,35,048,29,25,31,190,41*7B
$GPGSV,3,2,12,18,30,203,37,30,23,309,33,26,17,095,30,15,17,132,42*75
$GPGSV,3,3,12,12,08,170,29,16,04,326,20,02,02,072,,31,00,264,*7D
$GPVTG,339.62,T,,M,0.07,N,0.1,K,A*06
$GPGGA,190338.000,3748.8002,N,12217.8611,W,1,06,1.1,0.4,M,-25.1,M,,0000*6C
$GPGSA,A,3,05,15,29,30,18,12,,,,,,,2.1,1.1,1.8*3B
$GPRMC,190338.000,A,3748.8002,N,12217.8611,W,0.07,353.85,211211,,,A*78
$GPVTG,353.85,T,,M,0.07,N,0.1,K,A*03
$GPGGA,190339.000,3748.8002,N,12217.8611,W,1,06,1.1,0.5,M,-25.1,M,,0000*6C
$GPGSA,A,3,05,15,29,30,18,12,,,,,,,2.1,1.1,1.8*3B
$GPRMC,190339.000,A,3748.8002,N,12217.8611,W,0.07,335.66,211211,,,A*74
$GPVTG,335.66,T,,M,0.07,N,0.1,K,A*0E
$GPGGA,190340.000,3748.8002,N,12217.8611,W,1,06,1.1,0.6,M,-25.1,M,,0000*61
$GPGSA,A,3,05,15,29,30,18,12,,,,,,,2.1,1.1,1.8*3B
$GPRMC,190340.000,A,3748.8002,N,12217.8611,W,0.07,345.41,211211,,,A*78
$GPVTG,345.41,T,,M,0.07,N,0.1,K,A*0C
$GPGGA,190341.000,3748.8002,N,12217.8611,W,1,06,1.1,0.6,M,-25.1,M,,0000*60
$GPGSA,A,3,05,15,29,30,18,12,,,,,,,2.1,1.1,1.8*3B
$GPRMC,190341.000,A,3748.8002,N,12217.8611,W,0.06,351.24,211211,,,A*7E
$GPVTG,351.24,T,,M,0.06,N,0.1,K,A*0B
$GPGGA,190342.000,3748.8002,N,12217.8611,W,1,06,1.1,0.7,M,-25.1,M,,0000*62
$GPGSA,A,3,05,15,29,30,18,12,,,,,,,2.1,1.1,1.8*3B
$GPGSV,3,1,12,29,79,042,30,21,47,277,27,05,35,048,28,25,31,190,41*72
$GPGSV,3,2,12,18,30,203,37,30,23,309,33,26,17,095,30,15,17,132,42*75
$GPGSV,3,3,12,12,08,170,30,16,05,326,,02,02,072,,31,00,264,*76
$GPRMC,190342.000,A,3748.8002,N,12217.8611,W,0.06,345.78,211211,,,A*71
$GPVTG,345.78,T,,M,0.06,N,0.1,K,A*07
$GPGGA,190343.000,3748.8002,N,12217.8611,W,1,06,1.1,0.7,M,-25.1,M,,0000*63
$GPGSA,A,3,05,15,29,30,18,12,,,,,,,2.1,1.1,1.8*3B
$GPRMC,190343.000,A,3748.8002,N,12217.8611,W,0.06,331.58,211211,,,A*71
$GPVTG,331.58,T,,M,0.06,N,0.1,K,A*06
$GPGGA,190344.000,3748.8002,N,12217.8611,W,1,06,1.1,0.8,M,-25.1,M,,0000*6B
$GPGSA,A,3,05,15,29,30,18,12,,,,,,,2.1,1.1,1.8*3B
$GPRMC,190344.000,A,3748.8002,N,12217.8611,W,0.07,346.59,211211,,,A*76
$GPVTG,346.59,T,,M,0.07,N,0.1,K,A*06
$GPGGA,190345.000,3748.8002,N,12217.8611,W,1,06,1.1,0.8,M,-25.1,M,,0000*6A
$GPGSA,A,3,05,15,29,30,18,12,,,,,,,2.1,1.1,1.8*3B
$GPRMC,190345.000,A,3748.8002,N,12217.8611,W,0.06,340.83,211211,,,A*77
$GPVTG,340.83,T,,M,0.06,N,0.1,K,A*06
$GPGGA,190346.000,3748.8003,N,12217.8611,W,1,06,1.1,0.9,M,-25.1,M,,0000*69
$GPGSA,A,3,05,15,29,30,18,12,,,,,,,2.1,1.1,1.8*3B
$GPRMC,190346.000,A,3748.8003,N,12217.8611,W,0.07,349.45,211211,,,A*77
$GPVTG,349.45,T,,M,0.07,N,0.1,K,A*04
$GPGGA,190347.000,3748.8003,N,12217.8611,W,1,06,1.1,0.9,M,-25.1,M,,0000*68
$GPGSA,A,3,05,15,29,30,18,12,,,,,,,2.1,1.1,1.8*3B
$GPGSV,3,1,12,29,79,043,30,21,47,277,26,05,35,048,28,25,31,190,40*73
$GPGSV,3,2,12,18,30,203,37,30,23,309,33,26,17,095,30,15,17,132,42*75
$GPGSV,3,3,12,12,08,170,30,16,05,326,,02,02,072,,31,00,264,*76
$GPRMC,190347.000,A,3748.8003,N,12217.8611,W,0.08,338.94,211211,,,A*73
$GPVTG,338.94,T,,M,0.08,N,0.1,K,A*01
$GPGGA,190348.000,3748.8003,N,12217.8611,W,1,06,1.1,0.9,M,-25.1,M,,0000*67
$GPGSA,A,3,05,15,29,30,18,12,,,,,,,2.1,1.1,1.8*3B
$GPRMC,190348.000,A,3748.8003,N,12217.8611,W,0.06,334.94,211211,,,A*7E
$GPVTG,334.94,T,,M,0.06,N,0.1,K,A*03
$GPGGA,190349.000,3748.8003,N,12217.8611,W,2,06,1.1,0.8,M,-25.1,M,,0000*64
$GPGSA,A,3,05,15,29,30,18,12,,,,,,,2.1,1.1,1.8*3B
$GPRMC,190349.000,A,3748.8003,N,12217.8611,W,0.11,319.74,211211,,,D*7D
$GPVTG,319.74,T,,M,0.11,N,0.2,K,D*02
$GPGGA,190350.000,3748.8003,N,12217.8611,W,2,06,1.1,0.9,M,-25.1,M,,0000*6D
$GPGSA,A,3,05,15,29,30,18,12,,,,,,,2.1,1.1,1.8*3B
$GPRMC,190350.000,A,3748.8003,N,12217.8611,W,0.08,328.20,211211,,,D*7E
$GPVTG,328.20,T,,M,0.08,N,0.1,K,D*0A
$GPGGA,190351.000,3748.8003,N,12217.8611,W,2,06,1.1,0.9,M,-25.1,M,,0000*6C
$GPGSA,A,3,05,15,29,30,18,12,,,,,,,2.1,1.1,1.8*3B
$GPRMC,190351.000,A,3748.8003,N,12217.8611,W,0.08,327.92,211211,,,D*79
$GPVTG,327.92,T,,M,0.08,N,0.2,K,D*0F
$GPGGA,190352.000,3748.8004,N,12217.8611,W,2,07,1.0,0.9,M,-25.1,M,,0000*68
$GPGSA,A,3,05,15,29,30,26,18,12,,,,,,2.0,1.0,1.7*30
$GPGSV,3,1,12,29,79,043,30,21,47,277,26,05,35,048,28,25,31,190,40*73
$GPGSV,3,2,12,18,30,203,37,30,23,309,33,26,17,095,30,15,17,132,42*75
$GPGSV,3,3,12,12,08,170,30,16,05,326,,02,02,072,,31,00,264,*76
$GPVTG,327.25,T,,M,0.10,N,0.2,K,D*0A
$GPGGA,190353.000,3748.8004,N,12217.8612,W,2,07,1.0,0.9,M,-25.1,M,3.8,0000*4F
$GPGSA,A,3,05,15,29,30,26,18,12,,,,,,2.0,1.0,1.7*30
$GPRMC,190353.000,A,3748.8004,N,12217.8612,W,0.09,343.29,211211,,,D*7C
$GPVTG,343.29,T,,M,0.09,N,0.2,K,D*0C
$GPGGA,190354.000,3748.8004,N,12217.8612,W,2,07,1.0,1.0,M,-25.1,M,4.8,0000*47
$GPGSA,A,3,05,15,29,30,26,18,12,,,,,,2.0,1.0,1.7*30
$GPRMC,190354.000,A,3748.8004,N,12217.8612,W,0.08,341.42,211211,,,D*75
$GPVTG,341.42,T,,M,0.08,N,0.1,K,D*01
$GPGGA,190355.000,3748.8004,N,12217.8611,W,2,07,1.0,1.0,M,-25.1,M,,0000*67
$GPGSA,A,3,05,15,29,30,26,18,12,,,,,,2.0,1.0,1.7*30
$GPRMC,190355.000,A,3748.8004,N,12217.8611,W,0.05,5.66,211211,,,D*7F
$GPVTG,5.66,T,,M,0.05,N,0.1,K,D*09
$GPGGA,190356.000,3748.8004,N,12217.8611,W,2,07,1.0,1.0,M,-25.1,M,,0000*64
$GPGSA,A,3,05,15,29,30,26,18,12,,,,,,2.0,1.0,1.7*30
$GPRMC,190356.000,A,3748.8004,N,12217.8611,W,0.06,12.46,211211,,,D*4B
$GPVTG,12.46,T,,M,0.06,N,0.1,K,D*3E
$GPGGA,190357.000,3748.8004,N,12217.8611,W,2,07,1.0,0.9,M,-25.1,M,,0000*6D
$GPGSA,A,3,05,15,29,30,26,18,12,,,,,,2.0,1.0,1.7*30
$GPGSV,3,1,12,29,79,043,30,21,47,277,25,05,35,048,28,25,31,190,40*70
$GPGSV,3,2,12,18,30,203,37,30,23,309,33,26,17,095,30,15,17,132,42*75
$GPGSV,3,3,12,12,08,170,30,16,05,326,20,02,02,072,,31,00,264,*74
$GPRMC,190357.000,A,3748.8004,N,12217.8611,W,0.06,0.01,211211,,,D*7A
$GPVTG,0.01,T,,M,0.06,N,0.1,K,D*0E
$GPGGA,190358.000,3748.8004,N,12217.8612,W,2,08,0.9,0.9,M,-25.1,M,,0000*66
$GPGSA,A,3,05,15,29,30,25,26,18,12,,,,,1.9,0.9,1.7*35
$GPRMC,190358.000,A,3748.8004,N,12217.8612,W,0.06,312.05,211211,,,D*72
$GPVTG,312.05,T,,M,0.06,N,0.1,K,D*0A
$GPGGA,190359.000,3748.8004,N,12217.8612,W,2,08,0.9,0.8,M,-25.1,M,,0000*66
$GPGSA,A,3,05,15,29,30,25,26,18,12,,,,,1.9,0.9,1.7*35
$GPRMC,190359.000,A,3748.8004,N,12217.8612,W,0.06,327.82,211211,,,D*7A
$GPVTG,327.82,T,,M,0.06,N,0.1,K,D*03
$GPGGA,190400.000,3748.8003,N,12217.8612,W,2,08,0.9,0.8,M,-25.1,M,1.8,0000*4D
$GPGSA,A,3,05,15,29,30,25,26,18,12,,,,,1.9,0.9,1.7*35
$GPRMC,190400.000,A,3748.8003,N,12217.8612,W,0.07,324.16,211211,,,D*79
$GPVTG,324.16,T,,M,0.07,N,0.1,K,D*0C
$GPGGA,190401.000,3748.8003,N,12217.8612,W,2,08,0.9,0.8,M,-25.1,M,1.8,0000*4C
$GPGSA,A,3,05,15,29,30,25,26,18,12,,,,,1.9,0.9,1.7*35
$GPRMC,190401.000,A,3748.8003,N,12217.8612,W,0.14,285.35,211211,,,D*71
$GPVTG,285.35,T,,M,0.14,N,0.3,K,D*07
$GPGGA,190402.000,3748.8003,N,12217.8613,W,2,08,0.9,1.0,M,-25.1,M,1.8,0000*47
$GPGSA,A,3,05,15,29,30,25,26,18,12,,,,,1.9,0.9,1.7*35
$GPGSV,3,1,12,29,79,043,30,21,47,277,25,05,35,048,29,25,31,190,40*71
$GPGSV,3,2,12,18,30,203,37,30,23,309,33,26,17,095,30,15,17,132,41*76
$GPGSV,3,3,12,12,08,170,30,16,05,326,23,02,02,072,,31,00,264,*77
$GPRMC,190402.000,A,3748.8003,N,12217.8613,W,0.13,280.53,211211,,,D*71
$GPVTG,280.53,T,,M,0.13,N,0.2,K,D*04
$GPGGA,190403.000,3748.8002,N,12217.8614,W,2,08,0.9,1.2,M,-25.1,M,1.8,0000*42
$GPGSA,A,3,05,15,29,30,25,26,18,12,,,,,1.9,0.9,1.7*35
$GPRMC,190403.000,A,3748.8002,N,12217.8614,W,0.12,270.90,211211,,,D*77
$GPVTG,270.90,T,,M,0.12,N,0.2,K,D*05
$GPGGA,190404.000,3748.8002,N,12217.8614,W,2,08,0.9,1.4,M,-25.1,M,2.8,0000*40
$GPGSA,A,3,05,15,29,30,25,26,18,12,,,,,1.9,0.9,1.7*35
$GPRMC,190404.000,A,3748.8002,N,12217.8614,W,0.11,263.96,211211,,,D*77
$GPVTG,263.96,T,,M,0.11,N,0.2,K,D*02
$GPGGA,190405.000,3748.8001,N,12217.8615,W,2,08,0.9,1.6,M,-25.1,M,3.8,0000*40
$GPGSA,A,3,05,15,29,30,25,26,18,12,,,,,1.9,0.9,1.7*35
$GPRMC,190405.000,A,3748.8001,N,12217.8615,W,0.11,268.01,211211,,,D*71
$GPVTG,268.01,T,,M,0.11,N,0.2,K,D*07
$GPGGA,190406.000,3748.8001,N,12217.8615,W,2,08,0.9,1.8,M,-25.1,M,4.8,0000*4A
$GPGSA,A,3,05,15,29,30,25,26,18,12,,,,,1.9,0.9,1.7*35
$GPRMC,190406.000,A,3748.8001,N,12217.8615,W,0.12,268.09,211211,,,D*79
$GPVTG,268.09,T,,M,0.12,N,0.2,K,D*0C
$GPGGA,190407.000,3748.8001,N,12217.8615,W,2,08,0.9,1.9,M,-25.1,M,1.8,0000*4F
$GPGSA,A,3,05,15,29,30,25,26,18,12,,,,,1.9,0.9,1.7*35
$GPGSV,3,1,12,29,79,043,30,21,47,277,25,05,35,048,30,25,31,190,40*79
$GPGSV,3,2,12,18,30,203,37,30,23,309,33,26,17,095,31,15,17,132,41*77
$GPGSV,3,3,12,12,08,170,29,16,05,326,26,02,02,072,,31,00,264,*7A
$GPRMC,190407.000,A,3748.8001,N,12217.8615,W,0.01,343.99,211211,,,D*7B
$GPVTG,343.99,T,,M,0.01,N,0.0,K,D*0D
$GPGGA,190408.000,3748.8001,N,12217.8616,W,2,08,0.9,2.0,M,-25.1,M,1.8,0000*49
$GPGSA,A,3,05,15,29,30,25,26,18,12,,,,,1.9,0.9,1.7*35
$GPRMC,190408.000,A,3748.8001,N,12217.8616,W,0.01,31.74,211211,,,D*42
$GPVTG,31.74,T,,M,0.01,N,0.0,K,D*38
$GPGGA,190409.000,3748.8000,N,12217.8616,W,2,08,0.9,2.1,M,-25.1,M,1.8,0000*48
$GPGSA,A,3,05,15,29,30,25,26,18,12,,,,,1.9,0.9,1.7*35
$GPRMC,190409.000,A,3748.8000,N,12217.8616,W,0.03,315.79,211211,,,D*78
$GPVTG,315.79,T,,M,0.03,N,0.0,K,D*02
$GPGGA,190410.000,3748.8000,N,12217.8616,W,2,08,0.9,2.2,M,-25.1,M,1.8,0000*43
$GPGSA,A,3,05,15,29,30,25,26,18,12,,,,,1.9,0.9,1.7*35
$GPRMC,190410.000,A,3748.8000,N,12217.8616,W,0.05,317.38,211211,,,D*71
$GPVTG,317.38,T,,M,0.05,N,0.1,K,D*02
$GPGGA,190411.000,3748.8000,N,12217.8616,W,2,08,0.9,2.2,M,-25.1,M,2.8,0000*41
$GPGSA,A,3,05,15,29,30,25,26,18,12,,,,,1.9,0.9,1.7*35
$GPRMC,190411.000,A,3748.8000,N,12217.8616,W,0.04,354.65,211211,,,D*7E
$GPVTG,354.65,T,,M,0.04,N,0.1,K,D*0C
$GPGGA,190412.000,3748.8000,N,12217.8616,W,2,08,0.9,2.3,M,-25.1,M,3.8,0000*42
$GPGSA,A,3,05,15,29,30,25,26,18,12,,,,,1.9,0.9,1.7*35
$GPGSV,3,1,12,29,79,044,30,21,47,277,25,05,34,048,30,25,31,190,40*7F
$GPGSV,3,2,12,18,30,203,36,30,23,308,33,26,17,095,30,15,17,132,35*75
$GPGSV,3,3,12,12,08,170,29,16,05,326,27,02,02,072,,31,00,264,*7B
$GPRMC,190412.000,A,3748.8000,N,12217.8616,W,0.05,350.03,211211,,,D*78
$GPGGA,190413.000,3748.8000,N,12217.8616,W,2,08,0.9,2.3,M,-25.1,M,1.8,0000*41
$GPGSA,A,3,05,15,29,30,25,26,18,12,,,,,1.9,0.9,1.7*35
$GPRMC,190413.000,A,3748.8000,N,12217.8616,W,0.05,264.84,211211,,,D*70
$GPVTG,264.84,T,,M,0.05,N,0.1,K,D*00
$GPGGA,190414.000,3748.8000,N,12217.8616,W,2,08,0.9,2.4,M,-25.1,M,1.8,0000*41
$GPGSA,A,3,05,15,29,30,25,26,18,12,,,,,1.9,0.9,1.7*35
$GPRMC,190414.000,A,3748.8000,N,12217.8616,W,0.09,227.76,211211,,,D*71
$GPVTG,227.76,T,,M,0.09,N,0.2,K,D*05
$GPGGA,190415.000,3748.7999,N,12217.8616,W,2,08,0.9,2.6,M,-25.1,M,1.8,0000*44
$GPGSA,A,3,05,15,29,30,25,26,18,12,,,,,1.9,0.9,1.7*35
$GPRMC,190415.000,A,3748.7999,N,12217.8616,W,0.10,223.29,211211,,,D*70
$GPVTG,223.29,T,,M,0.10,N,0.2,K,D*03
$GPGGA,190416.000,3748.7999,N,12217.8616,W,2,08,0.9,2.7,M,-25.1,M,2.8,0000*45
$GPGSA,A,3,05,15,29,30,25,26,18,12,,,,,1.9,0.9,1.7*35
$GPRMC,190416.000,A,3748.7999,N,12217.8616,W,0.09,228.48,211211,,,D*77
$GPVTG,228.48,T,,M,0.09,N,0.2,K,D*07
$GPGGA,190417.000,3748.7999,N,12217.8616,W,2,08,0.9,2.8,M,-25.1,M,3.8,0000*4A
$GPGSA,A,3,05,15,29,30,25,26,18,12,,,,,1.9,0.9,1.7*35
$GPGSV,3,1,12,29,79,044,29,21,47,277,26,05,34,048,30,25,30,190,41*74
$GPGSV,3,2,12,18,30,203,37,30,23,308,33,26,17,095,30,15,17,132,37*76
$GPGSV,3,3,12,12,08,170,29,16,05,326,27,02,02,072,,31,00,264,*7B
$GPRMC,190417.000,A,3748.7999,N,12217.8616,W,0.10,216.04,211211,,,D*7B
$GPVTG,216.04,T,,M,0.10,N,0.2,K,D*0A
$GPGGA,190418.000,3748.7998,N,12217.8617,W,2,08,0.9,2.9,M,-25.1,M,4.8,0000*43
$GPGSA,A,3,05,15,29,30,25,26,18,12,,,,,1.9,0.9,1.7*35
$GPRMC,190418.000,A,3748.7998,N,12217.8617,W,0.09,225.10,211211,,,D*79
$GPVTG,225.10,T,,M,0.09,N,0.2,K,D*07
$GPGGA,190419.000,3748.7998,N,12217.8617,W,2,08,0.9,3.0,M,-25.1,M,1.8,0000*4F
$GPGSA,A,3,05,15,29,30,25,26,18,12,,,,,1.9,0.9,1.7*35
$GPRMC,190419.000,A,3748.7998,N,12217.8617,W,0.03,127.70,211211,,,D*75
$GPVTG,127.70,T,,M,0.03,N,0.1,K,D*09
$GPGGA,190420.000,3748.7998,N,12217.8616,W,2,08,0.9,3.0,M,-25.1,M,1.8,0000*44
$GPGSA,A,3,05,15,29,30,25,26,18,12,,,,,1.9,0.9,1.7*35
$GPRMC,190420.000,A,3748.7998,N,12217.8616,W,0.01,145.40,211211,,,D*7B
$GPVTG,145.40,T,,M,0.01,N,0.0,K,D*0D
$GPGGA,190421.000,3748.7998,N,12217.8616,W,2,08,0.9,3.0,M,-25.1,M,1.8,0000*45
$GPGSA,A,3,05,15,29,30,25,26,18,12,,,,,1.9,0.9,1.7*35
$GPRMC,190421.000,A,3748.7998,N,12217.8616,W,0.01,358.50,211211,,,D*75
$GPVTG,358.50,T,,M,0.01,N,0.0,K,D*02
$GPGGA,190422.000,3748.7998,N,12217.8616,W,2,08,0.9,3.0,M,-25.1,M,2.8,0000*45
$GPGSA,A,3,05,15,29,30,25,26,18,12,,,,,1.9,0.9,1.7*35
$GPGSV,3,1,12,29,79,044,30,21,47,277,26,05,34,048,30,25,30,190,41*7C
$GPGSV,3,2,12,18,30,203,37,30,23,308,33,26,17,095,29,15,17,132,37*7E
$GPGSV,3,3,12,12,08,170,28,16,05,326,27,02,02,072,,31,00,264,*7A
$GPRMC,190422.000,A,3748.7998,N,12217.8616,W,0.03,323.32,211211,,,D*7C
$GPVTG,323.32,T,,M,0.03,N,0.0,K,D*08
$GPGGA,190423.000,3748.7998,N,12217.8616,W,2,08,0.9,3.0,M,-25.1,M,3.8,0000*45
$GPGSA,A,3,05,15,29,30,25,26,18,12,,,,,1.9,0.9,1.7*35
$GPRMC,190423.000,A,3748.7998,N,12217.8616,W,0.04,56.39,211211,,,D*40
$GPVTG,56.39,T,,M,0.04,N,0.1,K,D*34
$GPGGA,190424.000,3748.7998,N,12217.8616,W,2,08,0.9,3.0,M,-25.1,M,4.8,0000*45
$GPGSA,A,3,05,15,29,30,25,26,18,12,,,,,1.9,0.9,1.7*35
$GPRMC,190424.000,A,3748.7998,N,12217.8616,W,0.04,88.26,211211,,,D*4A
$GPVTG,88.26,T,,M,0.04,N,0.1,K,D*39
$GPGGA,190425.000,3748.7997,N,12217.8617,W,2,08,0.9,3.1,M,-25.1,M,5.8,0000*4A
$GPGSA,A,3,05,15,29,30,25,26,18,12,,,,,1.9,0.9,1.7*35
$GPRMC,190425.000,A,3748.7997,N,12217.8617,W,0.03,319.44,211211,,,D*7D
$GPVTG,319.44,T,,M,0.03,N,0.0,K,D*00
$GPGGA,190426.000,3748.7997,N,12217.8617,W,2,08,0.9,3.0,M,-25.1,M,6.8,0000*4B
$GPGSA,A,3,05,15,29,30,25,26,18,12,,,,,1.9,0.9,1.7*35
$GPRMC,190426.000,A,3748.7997,N,12217.8617,W,0.07,237.37,211211,,,D*73
$GPVTG,237.37,T,,M,0.07,N,0.1,K,D*0C
$GPGGA,190427.000,3748.7997,N,12217.8617,W,2,08,0.9,2.9,M,-25.1,M,7.8,0000*43
$GPGSA,A,3,05,15,29,30,25,26,18,12,,,,,1.9,0.9,1.7*35
$GPGSV,3,1,12,29,79,044,37,21,47,277,15,05,34,048,36,25,30,190,30*7B
$GPGSV,3,2,12,18,30,203,27,30,23,308,32,26,17,095,29,15,17,132,44*7A
$GPGSV,3,3,12,12,08,170,27,16,05,326,28,02,02,072,,31,00,264,*7A
$GPRMC,190427.000,A,3748.7997,N,12217.8617,W,0.16,27.17,211211,,,D*43
$GPVTG,27.17,T,,M,0.16,N,0.3,K,D*3F
$GPGGA,190428.000,3748.7999,N,12217.8616,W,2,08,0.9,2.9,M,-25.1,M,8.8,0000*4C
$GPGSA,A,3,05,15,29,30,25,26,18,12,,,,,1.9,0.9,1.7*35
$GPRMC,190428.000,A,3748.7999,N,12217.8616,W,0.12,11.79,211211,,,D*4A
$GPVTG,11.79,T,,M,0.12,N,0.2,K,D*37
$GPGGA,190429.000,3748.7999,N,12217.8616,W,2,08,0.9,2.8,M,-25.1,M,9.8,0000*4D
$GPGSA,A,3,05,15,29,30,25,26,18,12,,,,,1.9,0.9,1.7*35
$GPRMC,190429.000,A,3748.7999,N,12217.8616,W,0.08,349.34,211211,,,D*77
$GPVTG,349.34,T,,M,0.08,N,0.2,K,D*0B
$GPGGA,190430.000,3748.7999,N,12217.8616,W,2,08,0.9,2.7,M,-25.1,M,10.8,0000*72
$GPGSA,A,3,05,15,29,30,25,26,18,12,,,,,1.9,0.9,1.7*35
$GPRMC,190430.000,A,3748.7999,N,12217.8616,W,0.10,356.12,211211,,,D*7C
$GPVTG,356.12,T,,M,0.10,N,0.2,K,D*08
$GPGGA,190431.000,3748.8000,N,12217.8616,W,2,08,0.9,2.6,M,-25.1,M,11.8,0000*75
$GPGSA,A,3,05,15,29,30,25,26,18,12,,,,,1.9,0.9,1.7*35
$GPRMC,190431.000,A,3748.8000,N,12217.8616,W,0.07,309.56,211211,,,D*77
$GPVTG,309.56,T,,M,0.07,N,0.1,K,D*07
$GPGGA,190432.000,3748.8000,N,12217.8616,W,2,08,0.9,2.5,M,-25.1,M,12.8,0000*76
$GPGSA,A,3,05,15,29,30,25,26,18,12,,,,,1.9,0.9,1.7*35
$GPGSV,3,1,12,29,79,044,37,21,47,277,,05,34,048,35,25,30,190,32*7E
$GPGSV,3,2,12,18,30,203,33,30,23,308,34,26,17,095,31,15,17,132,43*77
$GPGSV,3,3,12,12,08,170,19,16,05,326,28,02,02,072,18,31,00,264,*7E
$GPVTG,305.28,T,,M,0.07,N,0.1,K,D*02
$GPGGA,190433.000,3748.8000,N,12217.8617,W,2,08,0.9,2.4,M,-25.1,M,13.8,0000*76
$GPGSA,A,3,05,15,29,30,25,26,18,12,,,,,1.9,0.9,1.7*35
$GPRMC,190433.000,A,3748.8000,N,12217.8617,W,0.09,308.74,211211,,,D*7B
$GPVTG,308.74,T,,M,0.09,N,0.2,K,D*0B
$GPGGA,190434.000,3748.8000,N,12217.8617,W,2,08,0.9,2.4,M,-25.1,M,14.8,0000*76
$GPGSA,A,3,05,15,29,30,25,26,18,12,,,,,1.9,0.9,1.7*35
$GPRMC,190434.000,A,3748.8000,N,12217.8617,W,0.12,0.35,211211,,,D*78
$GPVTG,0.35,T,,M,0.12,N,0.2,K,D*0F
$GPGGA,190435.000,3748.8000,N,12217.8617,W,2,08,0.9,2.3,M,-25.1,M,15.8,0000*71
$GPGSA,A,3,05,15,29,30,25,26,18,12,,,,,1.9,0.9,1.7*35
$GPRMC,190435.000,A,3748.8000,N,12217.8617,W,0.10,303.22,211211,,,D*7D
$GPVTG,303.22,T,,M,0.10,N,0.2,K,D*0B
$GPGGA,190436.000,3748.8001,N,12217.8617,W,2,08,0.9,2.3,M,-25.1,M,16.8,0000*70
$GPGSA,A,3,05,15,29,30,25,26,18,12,,,,,1.9,0.9,1.7*35
$GPRMC,190436.000,A,3748.8001,N,12217.8617,W,0.11,353.90,211211,,,D*72
$GPVTG,353.90,T,,M,0.11,N,0.2,K,D*06
$GPGGA,190437.000,3748.8001,N,12217.8616,W,2,08,0.9,2.3,M,-25.1,M,1.8,0000*46
$GPGSA,A,3,05,15,29,30,25,26,18,12,,,,,1.9,0.9,1.7*35
$GPGSV,3,1,12,29,79,044,24,21,47,277,28,05,34,048,35,25,30,190,32*76
$GPGSV,3,2,12,18,30,203,29,30,23,308,34,26,17,095,31,15,17,132,41*7E
$GPGSV,3,3,12,12,08,170,23,16,05,326,28,02,02,072,18,31,00,264,*77
$GPRMC,190437.000,A,3748.8001,N,12217.8616,W,0.06,19.93,211211,,,D*4A
$GPVTG,19.93,T,,M,0.06,N,0.1,K,D*3D
$GPGGA,190438.000,3748.8001,N,12217.8617,W,2,08,0.9,2.3,M,-25.1,M,2.8,0000*4B
$GPGSA,A,3,05,15,29,30,25,26,18,12,,,,,1.9,0.9,1.7*35
$GPRMC,190438.000,A,3748.8001,N,12217.8617,W,0.05,250.15,211211,,,D*76
$GPVTG,250.15,T,,M,0.05,N,0.1,K,D*0F
$GPGGA,190439.000,3748.8000,N,12217.8617,W,2,08,0.9,3.0,M,-25.1,M,3.8,0000*48
$GPGSA,A,3,05,15,29,30,25,26,18,12,,,,,1.9,0.9,1.7*35
$GPRMC,190439.000,A,3748.8000,N,12217.8617,W,0.17,336.29,211211,,,D*7B
$GPVTG,336.29,T,,M,0.17,N,0.3,K,D*00
$GPGGA,190440.000,3748.8000,N,12217.8617,W,2,08,0.9,3.2,M,-25.1,M,4.8,0000*43
$GPGSA,A,3,05,15,29,30,25,26,18,12,,,,,1.9,0.9,1.7*35
$GPRMC,190440.000,A,3748.8000,N,12217.8617,W,0.07,79.99,211211,,,D*47
$GPVTG,79.99,T,,M,0.07,N,0.1,K,D*30
$GPGGA,190441.000,3748.7999,N,12217.8617,W,2,08,0.9,3.3,M,-25.1,M,5.8,0000*44
$GPGSA,A,3,05,15,29,30,25,26,18,12,,,,,1.9,0.9,1.7*35
$GPRMC,190441.000,A,3748.7999,N,12217.8617,W,0.11,75.64,211211,,,D*49
$GPVTG,75.64,T,,M,0.11,N,0.2,K,D*3A
$GPGGA,190442.000,3748.7999,N,12217.8616,W,2,08,0.9,4.2,M,-25.1,M,6.8,0000*43
$GPGSA,A,3,05,15,29,30,25,26,18,12,,,,,1.9,0.9,1.7*35
$GPGSV,3,1,12,29,79,045,35,21,47,278,34,05,34,048,41,18,30,203,30*73
$GPGSV,3,2,12,25,30,190,26,30,24,308,34,26,17,095,25,15,17,132,30*72
$GPGSV,3,3,12,12,08,170,27,16,05,326,29,02,02,072,18,31,00,264,*72
$GPRMC,190442.000,A,3748.7999,N,12217.8616,W,0.13,37.19,211211,,,D*45
$GPVTG,37.19,T,,M,0.13,N,0.2,K,D*34
$GPGGA,190443.000,3748.7998,N,12217.8616,W,2,08,0.9,4.8,M,-25.1,M,7.8,0000*48
$GPGSA,A,3,05,15,29,30,25,26,18,12,,,,,1.9,0.9,1.7*35
$GPRMC,190443.000,A,3748.7998,N,12217.8616,W,0.07,14.18,211211,,,D*40
$GPVTG,14.18,T,,M,0.07,N,0.1,K,D*32
$GPGGA,190444.000,3748.7997,N,12217.8617,W,2,07,1.0,5.6,M,-25.1,M,8.8,0000*46
$GPGSA,A,3,05,29,30,25,26,18,12,,,,,,2.0,1.0,1.7*33
$GPRMC,190444.000,A,3748.7997,N,12217.8617,W,0.30,245.63,211211,,,D*77
$GPVTG,245.63,T,,M,0.30,N,0.6,K,D*0B
$GPGGA,190445.000,3748.7996,N,12217.8617,W,2,08,0.9,6.2,M,-25.1,M,9.8,0000*47
$GPGSA,A,3,05,15,29,30,25,26,18,12,,,,,1.9,0.9,1.7*35
$GPRMC,190445.000,A,3748.7996,N,12217.8617,W,0.07,98.26,211211,,,D*40
$GPVTG,98.26,T,,M,0.07,N,0.1,K,D*3B
$GPGGA,190446.000,3748.7997,N,12217.8613,W,2,08,0.9,6.6,M,-25.1,M,10.8,0000*7D
$GPGSA,A,3,05,15,29,30,25,26,18,12,,,,,1.9,0.9,1.7*35
$GPRMC,190446.000,A,3748.7997,N,12217.8613,W,0.79,63.38,211211,,,D*44
$GPVTG,63.38,T,,M,0.79,N,1.5,K,D*3C
$GPGGA,190447.000,3748.7997,N,12217.8612,W,2,08,0.9,6.7,M,-25.1,M,11.8,0000*7D
$GPGSA,A,3,05,15,29,30,25,26,18,12,,,,,1.9,0.9,1.7*35
$GPGSV,3,1,12,29,79,045,24,21,47,278,28,05,34,048,32,18,30,203,36*7C
$GPGSV,3,2,12,25,30,190,30,30,24,308,31,26,17,095,22,15,17,132,27*71
$GPGSV,3,3,12,12,08,170,25,16,05,326,32,02,02,072,19,31,00,264,*7B
$GPRMC,190447.000,A,3748.7997,N,12217.8612,W,0.20,188.10,211211,,,D*76
$GPVTG,188.10,T,,M,0.20,N,0.4,K,D*0E
$GPGGA,190448.000,3748.7996,N,12217.8616,W,2,08,0.9,6.7,M,-25.1,M,12.8,0000*74
$GPGSA,A,3,05,15,29,30,25,26,18,12,,,,,1.9,0.9,1.7*35
$GPRMC,190448.000,A,3748.7996,N,12217.8616,W,0.96,234.02,211211,,,D*76
$GPVTG,234.02,T,,M,0.96,N,1.8,K,D*09
$GPGGA,190449.000,3748.7997,N,12217.8618,W,2,08,0.9,6.4,M,-25.1,M,13.8,0000*78
$GPGSA,A,3,05,15,29,30,25,26,18,12,,,,,1.9,0.9,1.7*35
$GPRMC,190449.000,A,3748.7997,N,12217.8618,W,0.10,29.42,211211,,,D*4C
$GPVTG,29.42,T,,M,0.10,N,0.2,K,D*36
$GPGGA,190450.000,3748.7997,N,12217.8622,W,2,08,0.9,6.6,M,-25.1,M,14.8,0000*7C
$GPGSA,A,3,05,15,29,30,25,26,18,12,,,,,1.9,0.9,1.7*35
$GPRMC,190450.000,A,3748.7997,N,12217.8622,W,0.32,270.54,211211,,,D*74
$GPVTG,270.54,T,,M,0.32,N,0.6,K,D*0B
$GPGGA,190451.000,3748.7996,N,12217.8628,W,2,08,0.9,6.7,M,-25.1,M,15.8,0000*76
$GPGSA,A,3,05,15,29,30,25,26,18,12,,,,,1.9,0.9,1.7*35
$GPRMC,190451.000,A,3748.7996,N,12217.8628,W,0.12,197.54,211211,,,D*76
$GPVTG,197.54,T,,M,0.12,N,0.2,K,D*07
$GPGGA,190452.000,3748.7995,N,12217.8630,W,2,08,0.9,6.7,M,-25.1,M,16.8,0000*7C
$GPGSA,A,3,05,15,29,30,25,26,18,12,,,,,1.9,0.9,1.7*35
$GPGSV,3,1,12,29,79,045,24,21,47,278,30,05,34,048,29,18,30,203,33*7A
$GPGSV,3,2,12,25,30,190,35,30,24,308,31,26,17,095,22,15,17,132,27*74
$GPGSV,3,3,12,12,08,170,24,16,05,326,35,02,02,072,23,31,00,264,*74
$GPVTG,31.43,T,,M,0.41,N,0.8,K,D*30
$GPGGA,190453.000,3748.7993,N,12217.8628,W,2,08,0.9,6.3,M,-25.1,M,17.8,0000*77
$GPGSA,A,3,05,15,29,30,25,26,18,12,,,,,1.9,0.9,1.7*35
$GPRMC,190453.000,A,3748.7993,N,12217.8628,W,0.97,123.48,211211,,,D*7E
$GPVTG,123.48,T,,M,0.97,N,1.8,K,D*03
$GPGGA,190454.000,3748.7993,N,12217.8628,W,1,08,0.9,6.1,M,-25.1,M,,0000*61
$GPGSA,A,3,05,15,29,30,25,26,18,12,,,,,1.9,0.9,1.7*35
$GPRMC,190454.000,A,3748.7993,N,12217.8628,W,0.17,91.20,211211,,,A*42
$GPVTG,91.20,T,,M,0.17,N,0.3,K,A*32
$GPGGA,190455.000,3748.7994,N,12217.8625,W,1,08,0.9,6.5,M,-25.1,M,,0000*6E
$GPGSA,A,3,05,15,29,30,25,26,18,12,,,,,1.9,0.9,1.7*35
$GPRMC,190455.000,A,3748.7994,N,12217.8625,W,0.62,316.48,211211,,,A*79
$GPVTG,316.48,T,,M,0.62,N,1.1,K,A*01
$GPGGA,190456.000,3748.7994,N,12217.8624,W,1,08,0.9,6.5,M,-25.1,M,,0000*6C
$GPGSA,A,3,05,15,29,30,25,26,18,12,,,,,1.9,0.9,1.7*35
$GPRMC,190456.000,A,3748.7994,N,12217.8624,W,0.30,229.35,211211,,,A*7B
$GPVTG,229.35,T,,M,0.30,N,0.6,K,A*07
$GPGGA,190457.000,3748.7994,N,12217.8621,W,1,08,0.9,6.5,M,-25.1,M,,0000*68
$GPGSA,A,3,05,15,29,30,25,26,18,12,,,,,1.9,0.9,1.7*35
$GPGSV,3,1,12,29,79,045,34,21,47,278,28,05,34,048,22,18,30,203,37*7D
$GPGSV,3,2,12,25,30,190,34,30,24,308,23,26,17,095,27,15,17,132,39*7C
$GPGSV,3,3,12,12,08,170,28,16,05,326,25,02,02,072,23,31,00,264,*79
$GPRMC,190457.000,A,3748.7994,N,12217.8621,W,0.29,145.74,211211,,,A*7B
$GPVTG,145.74,T,,M,0.29,N,0.5,K,A*00
$GPGGA,190458.000,3748.7994,N,12217.8618,W,1,08,0.9,6.5,M,-25.1,M,,0000*6D
$GPGSA,A,3,05,15,29,30,25,26,18,12,,,,,1.9,0.9,1.7*35
$GPRMC,190458.000,A,3748.7994,N,12217.8618,W,0.46,135.76,211211,,,A*72
$GPVTG,135.76,T,,M,0.46,N,0.8,K,A*01
$GPGGA,190459.000,3748.7994,N,12217.8615,W,1,08,0.9,6.5,M,-25.1,M,,0000*61
$GPGSA,A,3,05,15,29,30,25,26,18,12,,,,,1.9,0.9,1.7*35
$GPRMC,190459.000,A,3748.7994,N,12217.8615,W,0.33,127.33,211211,,,A*7E
$GPVTG,127.33,T,,M,0.33,N,0.6,K,A*0F
$GPGGA,190500.000,3748.7994,N,12217.8613,W,1,08,0.9,6.4,M,-25.1,M,,0000*6B
$GPGSA,A,3,05,15,29,30,25,26,18,12,,,,,1.9,0.9,1.7*35
$GPRMC,190500.000,A,3748.7994,N,12217.8613,W,0.13,292.02,211211,,,A*78
$GPVTG,292.02,T,,M,0.13,N,0.2,K,A*06
$GPGGA,190501.000,3748.7995,N,12217.8613,W,1,08,0.9,6.5,M,-25.1,M,,0000*6A
$GPGSA,A,3,05,15,29,30,25,26,18,12,,,,,1.9,0.9,1.7*35
$GPRMC,190501.000,A,3748.7995,N,12217.8613,W,0.08,131.13,211211,,,A*78
$GPVTG,131.13,T,,M,0.08,N,0.1,K,A*05
$GPGGA,190502.000,3748.7995,N,12217.8611,W,1,08,0.9,6.7,M,-25.1,M,,0000*69
$GPGSA,A,3,05,15,29,30,25,26,18,12,,,,,1.9,0.9,1.7*35
$GPGSV,3,1,12,29,79,045,34,21,47,278,34,05,34,048,28,18,30,203,36*7B
$GPGSV,3,2,12,25,30,190,40,30,24,308,27,26,17,095,28,15,17,132,40*7A
$GPGSV,3,3,12,12,08,170,30,16,05,326,24,02,02,072,23,31,00,264,*71
$GPRMC,190502.000,A,3748.7995,N,12217.8611,W,0.20,102.26,211211,,,A*75
$GPVTG,102.26,T,,M,0.20,N,0.4,K,A*0C
$GPGGA,190503.000,3748.7996,N,12217.8611,W,2,08,0.9,6.6,M,-25.1,M,1.8,0000*4E
$GPGSA,A,3,05,15,29,30,25,26,18,12,,,,,1.9,0.9,1.7*35
$GPRMC,190503.000,A,3748.7996,N,12217.8611,W,0.19,218.81,211211,,,D*7D
$GPVTG,218.81,T,,M,0.19,N,0.3,K,D*01
$GPGGA,190504.000,3748.7996,N,12217.8611,W,2,08,0.9,6.7,M,-25.1,M,2.8,0000*4B
$GPGSA,A,3,05,15,29,30,25,26,18,12,,,,,1.9,0.9,1.7*35
$GPRMC,190504.000,A,3748.7996,N,12217.8611,W,0.15,191.33,211211,,,D*7D
$GPVTG,191.33,T,,M,0.15,N,0.3,K,D*06
$GPGGA,190505.000,3748.7996,N,12217.8611,W,2,08,0.9,6.7,M,-25.1,M,1.8,0000*49
$GPGSA,A,3,05,15,29,30,25,26,18,12,,,,,1.9,0.9,1.7*35
$GPRMC,190505.000,A,3748.7996,N,12217.8611,W,0.39,89.56,211211,,,D*49
$GPVTG,89.56,T,,M,0.39,N,0.7,K,D*37
$GPGGA,190506.000,3748.7995,N,12217.8609,W,2,08,0.9,6.7,M,-25.1,M,2.8,0000*43
$GPGSA,A,3,05,15,29,30,25,26,18,12,,,,,1.9,0.9,1.7*35
$GPRMC,190506.000,A,3748.7995,N,12217.8609,W,0.32,86.46,211211,,,D*45
$GPVTG,86.46,T,,M,0.32,N,0.6,K,D*33
$GPGGA,190507.000,3748.7996,N,12217.8608,W,2,08,0.9,6.4,M,-25.1,M,1.8,0000*40
$GPGSA,A,3,05,15,29,30,25,26,18,12,,,,,1.9,0.9,1.7*35
$GPGSV,3,1,12,29,79,045,42,21,47,278,35,05,34,048,39,18,30,203,40*7A
$GPGSV,3,2,12,25,30,190,42,30,24,308,29,26,17,095,36,15,17,132,42*7B
$GPGSV,3,3,12,12,08,170,29,16,05,326,29,02,02,072,24,31,00,264,*73
$GPRMC,190507.000,A,3748.7996,N,12217.8608,W,0.09,95.89,211211,,,D*4F
$GPVTG,95.89,T,,M,0.09,N,0.2,K,D*3E
$GPGGA,190508.000,3748.7995,N,12217.8608,W,2,08,0.9,6.6,M,-25.1,M,1.8,0000*4E
$GPGSA,A,3,05,15,29,30,25,26,18,12,,,,,1.9,0.9,1.7*35
$GPRMC,190508.000,A,3748.7995,N,12217.8608,W,0.46,230.27,211211,,,D*71
$GPVTG,230.27,T,,M,0.46,N,0.9,K,D*07
$GPGGA,190509.000,3748.7994,N,12217.8608,W,2,08,0.9,7.0,M,-25.1,M,1.8,0000*49
$GPGSA,A,3,05,15,29,30,25,26,18,12,,,,,1.9,0.9,1.7*35
$GPRMC,190509.000,A,3748.7994,N,12217.8608,W,0.12,63.55,211211,,,D*41
$GPVTG,63.55,T,,M,0.12,N,0.2,K,D*3C
$GPGGA,190510.000,3748.7994,N,12217.8609,W,2,08,0.9,6.9,M,-25.1,M,2.8,0000*4B
$GPGSA,A,3,05,15,29,30,25,26,18,12,,,,,1.9,0.9,1.7*35
$GPRMC,190510.000,A,3748.7994,N,12217.8609,W,0.05,234.87,211211,,,D*71
$GPVTG,234.87,T,,M,0.05,N,0.1,K,D*06
$GPGGA,190511.000,3748.7994,N,12217.8609,W,2,08,0.9,6.8,M,-25.1,M,3.8,0000*4A
$GPGSA,A,3,05,15,29,30,25,26,18,12,,,,,1.9,0.9,1.7*35
$GPRMC,190511.000,A,3748.7994,N,12217.8609,W,0.23,43.79,211211,,,D*47
$GPVTG,43.79,T,,M,0.23,N,0.4,K,D*34
$GPGGA,190512.000,3748.7995,N,12217.8609,W,2,08,0.9,6.7,M,-25.1,M,4.8,0000*40
$GPGSA,A,3,05,15,29,30,25,26,18,12,,,,,1.9,0.9,1.7*35
$GPGSV,3,1,12,29,79,045,38,21,47,278,34,05,34,048,39,18,30,203,31*70
$GPGSV,3,2,12,25,30,190,35,30,24,308,29,26,17,095,31,15,17,132,40*7E
$GPGSV,3,3,12,12,08,170,25,16,05,326,21,02,02,072,14,31,00,264,*74
$GPRMC,190512.000,A,3748.7995,N,12217.8609,W,0.24,268.09,211211,,,D*7E
$GPGGA,190513.000,3748.7995,N,12217.8609,W,2,08,0.9,6.5,M,-25.1,M,1.8,0000*46
$GPGSA,A,3,05,15,29,30,25,26,18,12,,,,,1.9,0.9,1.7*35
$GPRMC,190513.000,A,3748.7995,N,12217.8609,W,0.30,280.93,211211,,,D*7F
$GPVTG,280.93,T,,M,0.30,N,0.6,K,D*0D
$GPGGA,190514.000,3748.7995,N,12217.8612,W,2,08,0.9,6.5,M,-25.1,M,2.8,0000*48
$GPGSA,A,3,05,15,29,30,25,26,18,12,,,,,1.9,0.9,1.7*35
$GPRMC,190514.000,A,3748.7995,N,12217.8612,W,1.09,307.93,211211,,,D*77
$GPVTG,307.93,T,,M,1.09,N,2.0,K,D*0C
$GPGGA,190515.000,3748.7996,N,12217.8616,W,2,08,0.9,6.7,M,-25.1,M,3.8,0000*4D
$GPGSA,A,3,05,15,29,30,25,26,18,12,,,,,1.9,0.9,1.7*35
$GPRMC,190515.000,A,3748.7996,N,12217.8616,W,0.47,314.99,211211,,,D*72
$GPVTG,314.99,T,,M,0.47,N,0.9,K,D*04
$GPGGA,190516.000,3748.7996,N,12217.8616,W,2,08,0.9,6.9,M,-25.1,M,4.8,0000*47
$GPGSA,A,3,05,15,29,30,25,26,18,12,,,,,1.9,0.9,1.7*35
$GPRMC,190516.000,A,3748.7996,N,12217.8616,W,0.17,103.69,211211,,,D*7F
$GPVTG,103.69,T,,M,0.17,N,0.3,K,D*00
$GPGGA,190517.000,3748.7996,N,12217.8616,W,2,08,0.9,6.9,M,-25.1,M,5.8,0000*47
$GPGSA,A,3,05,15,29,30,25,26,18,12,,,,,1.9,0.9,1.7*35
$GPGSV,3,1,12,29,79,045,38,21,47,278,28,05,34,048,36,18,30,203,36*75
$GPGSV,3,2,12,25,30,190,37,30,24,308,17,26,17,095,30,15,17,132,31*76
$GPGSV,3,3,12,12,08,170,24,16,05,326,26,02,02,072,19,31,00,264,*7F
$GPRMC,190517.000,A,3748.7996,N,12217.8616,W,0.22,145.93,211211,,,D*7F
$GPVTG,145.93,T,,M,0.22,N,0.4,K,D*06
$GPGGA,190518.000,3748.7996,N,12217.8616,W,2,08,0.9,6.9,M,-25.1,M,6.8,0000*4B
$GPGSA,A,3,05,15,29,30,25,26,18,12,,,,,1.9,0.9,1.7*35
$GPRMC,190518.000,A,3748.7996,N,12217.8616,W,0.26,95.36,211211,,,D*47
$GPVTG,95.36,T,,M,0.26,N,0.5,K,D*30
$GPGGA,190519.000,3748.7997,N,12217.8615,W,2,08,0.9,6.6,M,-25.1,M,1.8,0000*40
$GPGSA,A,3,05,15,29,30,25,26,18,12,,,,,1.9,0.9,1.7*35
$GPRMC,190519.000,A,3748.7997,N,12217.8615,W,0.03,197.62,211211,,,D*71
$GPVTG,197.62,T,,M,0.03,N,0.1,K,D*01
$GPGGA,190520.000,3748.7997,N,12217.8615,W,2,07,2.3,6.3,M,-25.1,M,1.8,0000*48
$GPGSA,A,3,05,15,29,25,26,18,12,,,,,,3.8,2.3,3.0*38
$GPRMC,190520.000,A,3748.7997,N,12217.8615,W,0.39,313.78,211211,,,D*77
$GPVTG,313.78,T,,M,0.39,N,0.7,K,D*0B
$GPGGA,190521.000,3748.7999,N,12217.8615,W,2,07,2.3,5.9,M,-25.1,M,1.8,0000*4E
$GPGSA,A,3,05,15,29,25,26,18,12,,,,,,3.8,2.3,3.0*38
$GPRMC,190521.000,A,3748.7999,N,12217.8615,W,0.25,320.64,211211,,,D*78
$GPVTG,320.64,T,,M,0.25,N,0.5,K,D*09
$GPGGA,190522.000,3748.8000,N,12217.8615,W,2,08,0.9,5.6,M,-25.1,M,2.8,0000*40
$GPGSA,A,3,05,15,29,30,25,26,18,12,,,,,1.9,0.9,1.7*35
$GPGSV,3,1,12,29,79,045,35,21,47,278,30,05,34,048,38,18,30,203,37*7E
$GPGSV,3,2,12,25,30,190,41,30,24,308,24,26,17,095,36,15,17,132,42*75
$GPGSV,3,3,12,12,08,170,30,16,05,326,,02,02,072,18,31,00,264,*7F
$GPRMC,190522.000,A,3748.8000,N,12217.8615,W,0.24,302.43,211211,,,D*79
$GPVTG,302.43,T,,M,0.24,N,0.4,K,D*0C
$GPGGA,190523.000,3748.8000,N,12217.8616,W,2,08,0.9,5.4,M,-25.1,M,3.8,0000*41
$GPGSA,A,3,05,15,29,30,25,26,18,12,,,,,1.9,0.9,1.7*35
$GPRMC,190523.000,A,3748.8000,N,12217.8616,W,0.29,258.92,211211,,,D*74
$GPVTG,258.92,T,,M,0.29,N,0.5,K,D*02
$GPGGA,190524.000,3748.7996,N,12217.8609,W,2,08,0.9,6.6,M,-25.1,M,1.8,0000*42
$GPGSA,A,3,05,15,29,30,25,26,18,12,,,,,1.9,0.9,1.7*35
$GPRMC,190524.000,A,3748.7996,N,12217.8609,W,0.92,115.88,211211,,,D*75
$GPVTG,115.88,T,,M,0.92,N,1.7,K,D*00
$GPGGA,190525.000,3748.7996,N,12217.8609,W,2,08,0.9,6.3,M,-25.1,M,2.8,0000*45
$GPGSA,A,3,05,15,29,30,25,26,18,12,,,,,1.9,0.9,1.7*35
$GPRMC,190525.000,A,3748.7996,N,12217.8609,W,0.40,131.80,211211,,,D*75
$GPVTG,131.80,T,,M,0.40,N,0.7,K,D*00
$GPGGA,190526.000,3748.7995,N,12217.8607,W,2,08,0.9,6.7,M,-25.1,M,3.8,0000*4E
$GPGSA,A,3,05,15,29,30,25,26,18,12,,,,,1.9,0.9,1.7*35
$GPRMC,190526.000,A,3748.7995,N,12217.8607,W,0.30,296.44,211211,,,D*7A
$GPVTG,296.44,T,,M,0.30,N,0.6,K,D*00
$GPGGA,190527.000,3748.7999,N,12217.8608,W,2,08,0.9,6.5,M,-25.1,M,4.8,0000*49
$GPGSA,A,3,05,15,29,30,25,26,18,12,,,,,1.9,0.9,1.7*35
$GPGSV,3,1,12,29,79,045,22,21,47,278,21,05,34,048,35,18,30,203,26*75
$GPGSV,3,2,12,25,30,190,31,30,24,308,27,26,17,095,26,15,17,132,28*7C
$GPGSV,3,3,12,12,08,170,24,16,05,326,25,02,02,072,20,31,00,264,*76
$GPRMC,190527.000,A,3748.7999,N,12217.8608,W,0.82,323.57,211211,,,D*7C
$GPVTG,323.57,T,,M,0.82,N,1.5,K,D*06
$GPGGA,190528.000,3748.7999,N,12217.8609,W,2,08,0.9,7.6,M,-25.1,M,5.8,0000*44
$GPGSA,A,3,05,15,29,30,25,26,18,12,,,,,1.9,0.9,1.7*35
$GPRMC,190528.000,A,3748.7999,N,12217.8609,W,0.40,310.69,211211,,,D*71
$GPVTG,310.69,T,,M,0.40,N,0.7,K,D*06
$GPGGA,190529.000,3748.7999,N,12217.8613,W,2,08,0.9,7.0,M,-25.1,M,6.8,0000*4B
$GPGSA,A,3,05,15,29,30,25,26,18,12,,,,,1.9,0.9,1.7*35
$GPRMC,190529.000,A,3748.7999,N,12217.8613,W,0.43,239.32,211211,,,D*7C
$GPVTG,239.32,T,,M,0.43,N,0.8,K,D*0E
$GPGGA,190530.000,3748.8002,N,12217.8615,W,2,07,1.0,6.9,M,-25.1,M,7.8,0000*4F
$GPGSA,A,3,05,15,30,25,26,18,12,,,,,,3.2,1.0,3.0*3A
$GPRMC,190530.000,A,3748.8002,N,12217.8615,W,0.80,7.37,211211,,,D*73
$GPVTG,7.37,T,,M,0.80,N,1.5,K,D*07
$GPGGA,190531.000,3748.8001,N,12217.8615,W,2,08,0.9,7.1,M,-25.1,M,8.8,0000*4C
$GPGSA,A,3,05,15,29,30,25,26,18,12,,,,,1.9,0.9,1.7*35
$GPRMC,190531.000,A,3748.8001,N,12217.8615,W,0.52,217.42,211211,,,D*7F
$GPVTG,217.42,T,,M,0.52,N,1.0,K,D*0C
$GPGGA,190532.000,3748.7999,N,12217.8615,W,2,08,0.9,6.9,M,-25.1,M,9.8,0000*40
$GPGSA,A,3,05,15,29,30,25,26,18,12,,,,,1.9,0.9,1.7*35
$GPGSV,3,1,12,29,79,045,28,21,47,278,36,05,34,048,24,18,30,203,38*76
$GPGSV,3,2,12,25,30,190,38,30,24,308,35,26,17,095,25,15,17,132,35*79
$GPGSV,3,3,12,12,08,170,23,16,05,326,32,02,02,072,20,31,00,264,*77
$GPVTG,183.88,T,,M,0.41,N,0.8,K,D*0F
$GPGGA,190533.000,3748.7997,N,12217.8613,W,2,08,0.9,8.2,M,-25.1,M,10.8,0000*74
$GPGSA,A,3,05,15,29,30,25,26,18,12,,,,,1.9,0.9,1.7*35
$GPRMC,190533.000,A,3748.7997,N,12217.8613,W,0.52,63.63,211211,,,D*40
$GPVTG,63.63,T,,M,0.52,N,1.0,K,D*3E
$GPGGA,190534.000,3748.7997,N,12217.8611,W,2,08,0.9,7.6,M,-25.1,M,11.8,0000*7B
$GPGSA,A,3,05,15,29,30,25,26,18,12,,,,,1.9,0.9,1.7*35
$GPRMC,190534.000,A,3748.7997,N,12217.8611,W,0.29,129.85,211211,,,D*7E
$GPVTG,129.85,T,,M,0.29,N,0.5,K,D*01
$GPGGA,190535.000,3748.7996,N,12217.8610,W,2,08,0.9,7.7,M,-25.1,M,12.8,0000*78
$GPGSA,A,3,05,15,29,30,25,26,18,12,,,,,1.9,0.9,1.7*35
$GPRMC,190535.000,A,3748.7996,N,12217.8610,W,0.15,216.81,211211,,,D*7B
$GPVTG,216.81,T,,M,0.15,N,0.3,K,D*03
$GPGGA,190536.000,3748.7995,N,12217.8609,W,2,08,0.9,7.9,M,-25.1,M,13.8,0000*7F
$GPGSA,A,3,05,15,29,30,25,26,18,12,,,,,1.9,0.9,1.7*35
$GPRMC,190536.000,A,3748.7995,N,12217.8609,W,0.17,210.89,211211,,,D*7F
$GPVTG,210.89,T,,M,0.17,N,0.3,K,D*0F
$GPGGA,190537.000,3748.7994,N,12217.8607,W,2,08,0.9,8.5,M,-25.1,M,1.8,0000*41
$GPGSA,A,3,05,15,29,30,25,26,18,12,,,,,1.9,0.9,1.7*35
$GPGSV,3,1,12,29,79,045,23,21,47,278,32,05,34,048,28,18,30,203,38*75
$GPGSV,3,2,12,25,30,190,42,30,24,308,28,26,17,095,29,15,17,132,43*75
$GPGSV,3,3,12,12,08,170,30,16,05,326,21,02,02,072,16,31,00,264,*72
$GPRMC,190537.000,A,3748.7994,N,12217.8607,W,0.13,288.53,211211,,,D*73
$GPVTG,288.53,T,,M,0.13,N,0.2,K,D*0C
$GPGGA,190538.000,3748.7993,N,12217.8606,W,2,08,0.9,9.0,M,-25.1,M,1.8,0000*4C
$GPGSA,A,3,05,15,29,30,25,26,18,12,,,,,1.9,0.9,1.7*35
$GPRMC,190538.000,A,3748.7993,N,12217.8606,W,0.13,273.20,211211,,,D*7A
$GPVTG,273.20,T,,M,0.13,N,0.2,K,D*0C
$GPGGA,190539.000,3748.7991,N,12217.8604,W,2,08,0.9,9.7,M,-25.1,M,1.8,0000*4A
$GPGSA,A,3,05,15,29,30,25,26,18,12,,,,,1.9,0.9,1.7*35
$GPRMC,190539.000,A,3748.7991,N,12217.8604,W,0.09,53.56,211211,,,D*41
$GPVTG,53.56,T,,M,0.09,N,0.2,K,D*36
$GPGGA,190540.000,3748.7990,N,12217.8602,W,2,08,0.9,10.3,M,-25.1,M,1.8,0000*7F
$GPGSA,A,3,05,15,29,30,25,26,18,12,,,,,1.9,0.9,1.7*35
$GPRMC,190540.000,A,3748.7990,N,12217.8602,W,0.06,189.69,211211,,,D*7D
$GPVTG,189.69,T,,M,0.06,N,0.1,K,D*00
$GPGGA,190541.000,3748.7988,N,12217.8601,W,2,08,0.9,10.8,M,-25.1,M,2.8,0000*7C
$GPGSA,A,3,05,15,29,30,25,26,18,12,,,,,1.9,0.9,1.7*35
$GPRMC,190541.000,A,3748.7988,N,12217.8601,W,0.19,194.05,211211,,,D*7E
$GPVTG,194.05,T,,M,0.19,N,0.4,K,D*0D
$GPGGA,190542.000,3748.7986,N,12217.8601,W,2,08,0.9,11.0,M,-25.1,M,3.8,0000*79
$GPGSA,A,3,05,15,29,30,25,26,18,12,,,,,1.9,0.9,1.7*35
$GPGSV,3,1,12,29,79,045,25,21,47,278,35,05,34,048,31,18,30,203,40*73
$GPGSV,3,2,12,25,30,190,44,30,24,308,34,26,17,095,30,15,17,132,43*76
$GPGSV,3,3,12,12,08,170,30,16,05,326,26,02,02,072,16,31,00,264,*75
$GPRMC,190542.000,A,3748.7986,N,12217.8601,W,0.16,246.52,211211,,,D*72
$GPVTG,246.52,T,,M,0.16,N,0.3,K,D*0B
$GPGGA,190543.000,3748.7985,N,12217.8600,W,2,08,0.9,11.5,M,-25.1,M,1.8,0000*7D
$GPGSA,A,3,05,15,29,30,25,26,18,12,,,,,1.9,0.9,1.7*35
$GPRMC,190543.000,A,3748.7985,N,12217.8600,W,0.04,336.71,211211,,,D*75
$GPVTG,336.71,T,,M,0.04,N,0.1,K,D*0D
$GPGGA,190544.000,3748.7984,N,12217.8600,W,2,08,0.9,11.9,M,-25.1,M,1.8,0000*77
$GPGSA,A,3,05,15,29,30,25,26,18,12,,,,,1.9,0.9,1.7*35
$GPRMC,190544.000,A,3748.7984,N,12217.8600,W,0.11,269.58,211211,,,D*77
$GPVTG,269.58,T,,M,0.11,N,0.2,K,D*0A
$GPGGA,190545.000,3748.7983,N,12217.8599,W,2,08,0.9,12.3,M,-25.1,M,1.8,0000*7B
$GPGSA,A,3,05,15,29,30,25,26,18,12,,,,,1.9,0.9,1.7*35
$GPRMC,190545.000,A,3748.7983,N,12217.8599,W,0.05,99.59,211211,,,D*4B
$GPVTG,99.59,T,,M,0.05,N,0.1,K,D*30
$GPGGA,190546.000,3748.7983,N,12217.8597,W,2,08,0.9,12.7,M,-25.1,M,2.8,0000*71
$GPGSA,A,3,05,15,29,30,25,26,18,12,,,,,1.9,0.9,1.7*35
$GPRMC,190546.000,A,3748.7983,N,12217.8597,W,0.18,70.90,211211,,,D*48
$GPVTG,70.90,T,,M,0.18,N,0.3,K,D*3C
$GPGGA,190547.000,3748.7982,N,12217.8600,W,2,08,0.9,10.1,M,-25.1,M,3.8,0000*79
$GPGSA,A,3,05,15,29,30,25,26,18,12,,,,,1.9,0.9,1.7*35
$GPGSV,3,1,12,29,79,045,32,21,47,278,35,05,34,048,27,18,30,203,40*72
$GPGSV,3,2,12,25,30,190,45,30,24,308,33,26,17,095,29,15,17,132,43*78
$GPGSV,3,3,12,12,08,170,31,16,05,326,30,02,02,072,22,31,00,264,*74
$GPRMC,190547.000,A,3748.7982,N,12217.8600,W,0.03,31.64,211211,,,D*41
$GPVTG,31.64,T,,M,0.03,N,0.1,K,D*3A
$GPGGA,190548.000,3748.7981,N,12217.8598,W,2,08,0.9,10.4,M,-25.1,M,4.8,0000*75
$GPGSA,A,3,05,15,29,30,25,26,18,12,,,,,1.9,0.9,1.7*35
$GPRMC,190548.000,A,3748.7981,N,12217.8598,W,0.26,92.85,211211,,,D*4E
$GPVTG,92.85,T,,M,0.26,N,0.5,K,D*3F
$GPGGA,190549.000,3748.7980,N,12217.8598,W,2,08,0.9,9.3,M,-25.1,M,1.8,0000*4F
$GPGSA,A,3,05,15,29,30,25,26,18,12,,,,,1.9,0.9,1.7*35
$GPRMC,190549.000,A,3748.7980,N,12217.8598,W,0.72,146.50,211211,,,D*7F
$GPVTG,146.50,T,,M,0.72,N,1.3,K,D*09
$GPGGA,190550.000,3748.7977,N,12217.8595,W,2,08,0.9,8.9,M,-25.1,M,1.8,0000*49
$GPGSA,A,3,05,15,29,30,25,26,18,12,,,,,1.9,0.9,1.7*35
$GPRMC,190550.000,A,3748.7977,N,12217.8595,W,1.38,118.53,211211,,,D*75
$GPVTG,118.53,T,,M,1.38,N,2.6,K,D*08
$GPGGA,190551.000,3748.7975,N,12217.8590,W,2,08,0.9,8.3,M,-25.1,M,1.8,0000*45
$GPGSA,A,3,05,15,29,30,25,26,18,12,,,,,1.9,0.9,1.7*35
$GPRMC,190551.000,A,3748.7975,N,12217.8590,W,1.88,120.98,211211,,,D*74
$GPVTG,120.98,T,,M,1.88,N,3.5,K,D*0D
$GPGGA,190552.000,3748.7969,N,12217.8586,W,2,08,0.9,8.1,M,-25.1,M,2.8,0000*4D
$GPGSA,A,3,05,15,29,30,25,26,18,12,,,,,1.9,0.9,1.7*35
$GPGSV,3,1,12,29,79,045,29,21,47,278,28,05,34,048,27,18,30,203,40*74
$GPGSV,3,2,12,25,30,190,40,30,24,308,25,26,17,095,24,15,17,132,43*77
$GPGSV,3,3,12,12,08,170,37,16,05,326,23,02,02,072,13,31,00,264,*72
$GPVTG,125.33,T,,M,2.07,N,3.8,K,D*00
$GPGGA,190553.000,3748.7963,N,12217.8581,W,2,08,0.9,8.1,M,-25.1,M,3.8,0000*40
$GPGSA,A,3,05,15,29,30,25,26,18,12,,,,,1.9,0.9,1.7*35
$GPRMC,190553.000,A,3748.7963,N,12217.8581,W,2.18,125.47,211211,,,D*7C
$GPVTG,125.47,T,,M,2.18,N,4.0,K,D*02
$GPGGA,190554.000,3748.7959,N,12217.8575,W,2,08,0.9,8.2,M,-25.1,M,4.8,0000*41
$GPGSA,A,3,05,15,29,30,25,26,18,12,,,,,1.9,0.9,1.7*35
$GPRMC,190554.000,A,3748.7959,N,12217.8575,W,2.26,123.09,211211,,,D*78
$GPVTG,123.09,T,,M,2.26,N,4.2,K,D*01
$GPGGA,190555.000,3748.7956,N,12217.8568,W,2,08,0.9,8.0,M,-25.1,M,1.8,0000*44
$GPGSA,A,3,05,15,29,30,25,26,18,12,,,,,1.9,0.9,1.7*35
$GPRMC,190555.000,A,3748.7956,N,12217.8568,W,2.09,117.27,211211,,,D*7C
$GPVTG,117.27,T,,M,2.09,N,3.9,K,D*0B
$GPGGA,190556.000,3748.7953,N,12217.8561,W,2,08,0.9,7.9,M,-25.1,M,1.8,0000*4D
$GPGSA,A,3,05,15,29,30,25,26,18,12,,,,,1.9,0.9,1.7*35
$GPRMC,190556.000,A,3748.7953,N,12217.8561,W,2.44,122.70,211211,,,D*7E
$GPVTG,122.70,T,,M,2.44,N,4.5,K,D*0D
$GPGGA,190557.000,3748.7950,N,12217.8553,W,2,08,0.9,7.5,M,-25.1,M,1.8,0000*42
$GPGSA,A,3,05,15,29,30,25,26,18,12,,,,,1.9,0.9,1.7*35
$GPGSV,3,1,12,29,79,045,29,21,47,278,29,05,34,048,27,18,30,203,40*75
$GPGSV,3,2,12,25,30,190,41,30,24,308,25,26,17,095,34,15,17,132,42*76
$GPGSV,3,3,12,12,08,170,33,16,05,326,24,02,02,072,,31,00,264,*73
$GPRMC,190557.000,A,3748.7950,N,12217.8553,W,2.27,117.43,211211,,,D*7E
$GPVTG,117.43,T,,M,2.27,N,4.2,K,D*09
$GPGGA,190558.000,3748.7947,N,12217.8547,W,2,08,0.9,7.2,M,-25.1,M,1.8,0000*49
$GPGSA,A,3,05,15,29,30,25,26,18,12,,,,,1.9,0.9,1.7*35
$GPRMC,190558.000,A,3748.7947,N,12217.8547,W,2.10,116.40,211211,,,D*74
$GPVTG,116.40,T,,M,2.10,N,3.9,K,D*03
$GPGGA,190559.000,3748.7944,N,12217.8540,W,2,08,0.9,6.9,M,-25.1,M,2.8,0000*45
$GPGSA,A,3,05,15,29,30,25,26,18,12,,,,,1.9,0.9,1.7*35
$GPRMC,190559.000,A,3748.7944,N,12217.8540,W,2.02,117.97,211211,,,D*79
$GPVTG,117.97,T,,M,2.02,N,3.7,K,D*05
$GPGGA,190600.000,3748.7941,N,12217.8534,W,2,08,0.9,6.9,M,-25.1,M,3.8,0000*4D
$GPGSA,A,3,05,15,29,30,25,26,18,12,,,,,1.9,0.9,1.7*35
$GPRMC,190600.000,A,3748.7941,N,12217.8534,W,2.14,128.30,211211,,,D*76
$GPVTG,128.30,T,,M,2.14,N,4.0,K,D*03
$GPGGA,190601.000,3748.7937,N,12217.8528,W,2,08,0.9,6.8,M,-25.1,M,1.8,0000*43
$GPGSA,A,3,05,15,29,30,25,26,18,12,,,,,1.9,0.9,1.7*35
$GPRMC,190601.000,A,3748.7937,N,12217.8528,W,2.23,132.01,211211,,,D*76
$GPVTG,132.01,T,,M,2.23,N,4.1,K,D*0F
$GPGGA,190602.000,3748.7932,N,12217.8521,W,2,08,0.9,7.0,M,-25.1,M,1.8,0000*45
$GPGSA,A,3,05,15,29,30,25,26,18,12,,,,,1.9,0.9,1.7*35
$GPGSV,3,1,12,29,79,045,30,21,47,278,30,05,34,048,21,18,30,203,40*73
$GPGSV,3,2,12,25,30,190,42,30,24,308,25,26,17,095,33,15,17,132,35*72
$GPGSV,3,3,12,12,08,170,28,16,05,326,,02,02,072,,31,00,264,*7F
$GPRMC,190602.000,A,3748.7932,N,12217.8521,W,2.49,130.97,211211,,,D*78
$GPVTG,130.97,T,,M,2.49,N,4.6,K,D*09
$GPGGA,190603.000,3748.7929,N,12217.8514,W,2,08,0.9,7.0,M,-25.1,M,1.8,0000*48
$GPGSA,A,3,05,15,29,30,25,26,18,12,,,,,1.9,0.9,1.7*35
$GPRMC,190603.000,A,3748.7929,N,12217.8514,W,2.26,113.89,211211,,,D*72
$GPVTG,113.89,T,,M,2.26,N,4.2,K,D*0A
$GPGGA,190604.000,3748.7928,N,12217.8506,W,2,08,0.9,6.7,M,-25.1,M,1.8,0000*4B
$GPGSA,A,3,05,15,29,30,25,26,18,12,,,,,1.9,0.9,1.7*35
$GPRMC,190604.000,A,3748.7928,N,12217.8506,W,2.12,107.47,211211,,,D*77
$GPVTG,107.47,T,,M,2.12,N,3.9,K,D*06
$GPGGA,190605.000,3748.7924,N,12217.8498,W,2,08,0.9,6.9,M,-25.1,M,2.8,0000*4D
$GPGSA,A,3,05,15,29,30,25,26,18,12,,,,,1.9,0.9,1.7*35
$GPRMC,190605.000,A,3748.7924,N,12217.8498,W,2.51,115.55,211211,,,D*7B
$GPVTG,115.55,T,,M,2.51,N,4.6,K,D*09
$GPGGA,190606.000,3748.7917,N,12217.8489,W,2,08,0.9,7.5,M,-25.1,M,3.8,0000*42
$GPGSA,A,3,05,15,29,30,25,26,18,12,,,,,1.9,0.9,1.7*35
$GPRMC,190606.000,A,3748.7917,N,12217.8489,W,2.51,117.94,211211,,,D*77
$GPVTG,117.94,T,,M,2.51,N,4.6,K,D*06
$GPGGA,190607.000,3748.7914,N,12217.8481,W,2,08,0.9,7.4,M,-25.1,M,4.8,0000*4E
$GPGSA,A,3,05,15,29,30,25,26,18,12,,,,,1.9,0.9,1.7*35
$GPGSV,3,1,12,29,79,045,30,21,47,278,22,05,34,048,27,18,30,203,39*78
$GPGSV,3,2,12,25,30,190,42,30,24,308,24,26,17,095,37,15,17,132,36*74
$GPGSV,3,3,12,12,08,170,26,16,05,326,23,02,02,072,,31,00,264,*70
$GPRMC,190607.000,A,3748.7914,N,12217.8481,W,2.31,109.15,211211,,,D*7D
$GPVTG,109.15,T,,M,2.31,N,4.3,K,D*03
$GPGGA,190608.000,3748.7911,N,12217.8473,W,2,08,0.9,7.6,M,-25.1,M,1.8,0000*4E
$GPGSA,A,3,05,15,29,30,25,26,18,12,,,,,1.9,0.9,1.7*35
$GPRMC,190608.000,A,3748.7911,N,12217.8473,W,2.09,109.24,211211,,,D*73
$GPVTG,109.24,T,,M,2.09,N,3.9,K,D*07
$GPGGA,190609.000,3748.7908,N,12217.8466,W,2,08,0.9,7.6,M,-25.1,M,2.8,0000*40
$GPGSA,A,3,05,15,29,30,25,26,18,12,,,,,1.9,0.9,1.7*35
$GPRMC,190609.000,A,3748.7908,N,12217.8466,W,1.64,117.14,211211,,,D*7A
$GPVTG,117.14,T,,M,1.64,N,3.0,K,D*0A
$GPGGA,190610.000,3748.7909,N,12217.8461,W,2,08,0.9,7.0,M,-25.1,M,3.8,0000*49
$GPGSA,A,3,05,15,29,30,25,26,18,12,,,,,1.9,0.9,1.7*35
$GPRMC,190610.000,A,3748.7909,N,12217.8461,W,1.54,112.39,211211,,,D*7D
$GPVTG,112.39,T,,M,1.54,N,2.8,K,D*0A
$GPGGA,190611.000,3748.7908,N,12217.8456,W,2,08,0.9,5.8,M,-25.1,M,4.8,0000*40
$GPGSA,A,3,05,15,29,30,25,26,18,12,,,,,1.9,0.9,1.7*35
$GPRMC,190611.000,A,3748.7908,N,12217.8456,W,1.71,115.86,211211,,,D*7D
$GPVTG,115.86,T,,M,1.71,N,3.2,K,D*05
$GPGGA,190612.000,3748.7905,N,12217.8449,W,2,07,2.2,5.0,M,-25.1,M,1.8,0000*4B
$GPGSA,A,3,05,15,29,25,26,18,12,,,,,,3.7,2.2,2.9*3E
$GPGSV,3,1,12,29,79,049,28,21,48,278,29,05,34,048,27,18,31,204,37*71
$GPGSV,3,2,12,25,30,189,37,30,24,308,22,26,18,094,37,15,18,131,43*78
$GPGSV,3,3,12,12,07,170,34,16,05,326,23,02,01,072,,31,00,263,*78
$GPVTG,109.11,T,,M,2.16,N,4.0,K,D*01
$GPGGA,190613.000,3748.7903,N,12217.8441,W,2,07,2.2,4.4,M,-25.1,M,1.8,0000*41
$GPGSA,A,3,05,15,29,25,26,18,12,,,,,,3.7,2.2,2.9*3E
$GPRMC,190613.000,A,3748.7903,N,12217.8441,W,2.25,108.29,211211,,,D*79
$GPVTG,108.29,T,,M,2.25,N,4.2,K,D*09
$GPGGA,190614.000,3748.7900,N,12217.8432,W,2,08,0.9,4.4,M,-25.1,M,2.8,0000*44
$GPGSA,A,3,05,15,29,30,25,26,18,12,,,,,1.9,0.9,1.7*35
$GPRMC,190614.000,A,3748.7900,N,12217.8432,W,2.29,117.73,211211,,,D*74
$GPVTG,117.73,T,,M,2.29,N,4.2,K,D*04
$GPGGA,190615.000,3748.7898,N,12217.8425,W,2,08,0.9,3.9,M,-25.1,M,1.8,0000*4A
$GPGSA,A,3,05,15,29,30,25,26,18,12,,,,,1.9,0.9,1.7*35
$GPRMC,190615.000,A,3748.7898,N,12217.8425,W,2.02,124.76,211211,,,D*7F
$GPVTG,124.76,T,,M,2.02,N,3.7,K,D*0A
$GPGGA,190616.000,3748.7895,N,12217.8418,W,2,08,0.9,3.6,M,-25.1,M,2.8,0000*46
$GPGSA,A,3,05,15,29,30,25,26,18,12,,,,,1.9,0.9,1.7*35
$GPRMC,190616.000,A,3748.7895,N,12217.8418,W,1.98,118.41,211211,,,D*74
$GPVTG,118.41,T,,M,1.98,N,3.7,K,D*01
$GPGGA,190617.000,3748.7893,N,12217.8412,W,2,08,0.9,2.9,M,-25.1,M,3.8,0000*44
$GPGSA,A,3,05,15,29,30,25,26,18,12,,,,,1.9,0.9,1.7*35
$GPGSV,3,1,12,29,79,049,29,21,48,278,29,05,34,048,27,18,31,204,38*7F
$GPGSV,3,2,12,25,30,189,41,30,24,308,24,26,18,094,30,15,18,131,43*78
$GPGSV,3,3,12,12,07,170,28,16,05,326,23,02,01,072,,31,00,263,*75
$GPRMC,190617.000,A,3748.7893,N,12217.8412,W,1.90,113.73,211211,,,D*7B
$GPVTG,113.73,T,,M,1.90,N,3.5,K,D*01
$GPGGA,190618.000,3748.7891,N,12217.8406,W,2,08,0.9,2.3,M,-25.1,M,1.8,0000*44
$GPGSA,A,3,05,15,29,30,25,26,18,12,,,,,1.9,0.9,1.7*35
$GPRMC,190618.000,A,3748.7891,N,12217.8406,W,1.86,120.60,211211,,,D*76
$GPVTG,120.60,T,,M,1.86,N,3.4,K,D*05
$GPGGA,190619.000,3748.7889,N,12217.8400,W,2,08,0.9,1.8,M,-25.1,M,2.8,0000*41
$GPGSA,A,3,05,15,29,30,25,26,18,12,,,,,1.9,0.9,1.7*35
$GPRMC,190619.000,A,3748.7889,N,12217.8400,W,1.70,120.75,211211,,,D*75
$GPVTG,120.75,T,,M,1.70,N,3.1,K,D*0D
$GPGGA,190620.000,3748.7887,N,12217.8395,W,2,08,0.9,1.1,M,-25.1,M,3.8,0000*46
$GPGSA,A,3,05,15,29,30,25,26,18,12,,,,,1.9,0.9,1.7*35
$GPRMC,190620.000,A,3748.7887,N,12217.8395,W,1.73,115.05,211211,,,D*78
$GPVTG,115.05,T,,M,1.73,N,3.2,K,D*0C
$GPGGA,190621.000,3748.7885,N,12217.8388,W,2,08,0.9,0.9,M,-25.1,M,4.8,0000*47
$GPGSA,A,3,05,15,29,30,25,26,18,12,,,,,1.9,0.9,1.7*35
$GPRMC,190621.000,A,3748.7885,N,12217.8388,W,1.74,111.37,211211,,,D*75
$GPVTG,111.37,T,,M,1.74,N,3.2,K,D*0E
$GPGGA,190622.000,3748.7883,N,12217.8382,W,2,08,0.9,0.4,M,-25.1,M,5.8,0000*44
$GPGSA,A,3,05,15,29,30,25,26,18,12,,,,,1.9,0.9,1.7*35
$GPGSV,3,1,12,29,79,049,29,21,48,278,28,05,34,048,30,18,31,204,36*76
$GPGSV,3,2,12,25,30,189,41,30,24,308,23,26,18,094,31,15,18,131,42*7F
$GPGSV,3,3,12,12,07,170,33,16,05,326,22,02,01,072,,31,00,263,*7E
$GPRMC,190622.000,A,3748.7883,N,12217.8382,W,1.67,115.37,211211,,,D*7C
$GPVTG,115.37,T,,M,1.67,N,3.1,K,D*0B
$GPGGA,190623.000,3748.7881,N,12217.8376,W,2,08,0.9,0.1,M,-25.1,M,6.8,0000*4A
$GPGSA,A,3,05,15,29,30,25,26,18,12,,,,,1.9,0.9,1.7*35
$GPRMC,190623.000,A,3748.7881,N,12217.8376,W,1.44,107.90,211211,,,D*7B
$GPVTG,107.90,T,,M,1.44,N,2.7,K,D*03
$GPGGA,190624.000,3748.7879,N,12217.8371,W,2,08,0.9,-0.4,M,-25.1,M,7.8,0000*64
$GPGSA,A,3,05,15,29,30,25,26,18,12,,,,,1.9,0.9,1.7*35
$GPRMC,190624.000,A,3748.7879,N,12217.8371,W,1.25,118.06,211211,,,D*7A
$GPVTG,118.06,T,,M,1.25,N,2.3,K,D*01
$GPGGA,190625.000,3748.7877,N,12217.8367,W,2,08,0.9,-0.8,M,-25.1,M,8.8,0000*6F
$GPGSA,A,3,05,15,29,30,25,26,18,12,,,,,1.9,0.9,1.7*35
$GPRMC,190625.000,A,3748.7877,N,12217.8367,W,1.28,101.27,211211,,,D*74
$GPVTG,101.27,T,,M,1.28,N,2.4,K,D*00
$GPGGA,190626.000,3748.7875,N,12217.8361,W,2,08,0.9,-1.1,M,-25.1,M,9.8,0000*61
$GPGSA,A,3,05,15,29,30,25,26,18,12,,,,,1.9,0.9,1.7*35
$GPRMC,190626.000,A,3748.7875,N,12217.8361,W,1.51,115.93,211211,,,D*77
$GPVTG,115.93,T,,M,1.51,N,2.8,K,D*08
$GPGGA,190627.000,3748.7872,N,12217.8355,W,2,08,0.9,-1.4,M,-25.1,M,10.8,0000*5D
$GPGSA,A,3,05,15,29,30,25,26,18,12,,,,,1.9,0.9,1.7*35
$GPGSV,3,1,12,29,79,049,30,21,48,278,27,05,34,048,30,18,31,204,37*70
$GPGSV,3,2,12,25,30,189,41,30,24,308,23,26,18,094,32,15,18,131,37*7E
$GPGSV,3,3,12,12,07,170,31,16,05,326,21,02,01,072,,31,00,263,*7F
$GPRMC,190627.000,A,3748.7872,N,12217.8355,W,1.64,117.93,211211,,,D*72
$GPVTG,117.93,T,,M,1.64,N,3.0,K,D*05
$GPGGA,190628.000,3748.7869,N,12217.8349,W,2,08,0.9,-1.8,M,-25.1,M,11.8,0000*58
$GPGSA,A,3,05,15,29,30,25,26,18,12,,,,,1.9,0.9,1.7*35
$GPRMC,190628.000,A,3748.7869,N,12217.8349,W,1.51,116.57,211211,,,D*75
$GPVTG,116.57,T,,M,1.51,N,2.8,K,D*03
$GPGGA,190629.000,3748.7867,N,12217.8343,W,2,08,0.9,-2.2,M,-25.1,M,1.8,0000*65
$GPGSA,A,3,05,15,29,30,25,26,18,12,,,,,1.9,0.9,1.7*35
$GPRMC,190629.000,A,3748.7867,N,12217.8343,W,1.28,116.69,211211,,,D*73
$GPVTG,116.69,T,,M,1.28,N,2.4,K,D*0C
$GPGGA,190630.000,3748.7864,N,12217.8337,W,2,08,0.9,-2.3,M,-25.1,M,2.8,0000*6F
$GPGSA,A,3,05,15,29,30,25,26,18,12,,,,,1.9,0.9,1.7*35
$GPRMC,190630.000,A,3748.7864,N,12217.8337,W,1.49,100.65,211211,,,D*77
$GPVTG,100.65,T,,M,1.49,N,2.8,K,D*0C
$GPGGA,190631.000,3748.7863,N,12217.8329,W,2,08,0.9,-2.6,M,-25.1,M,3.8,0000*62
$GPGSA,A,3,05,15,29,30,25,26,18,12,,,,,1.9,0.9,1.7*35
$GPRMC,190631.000,A,3748.7863,N,12217.8329,W,2.41,110.64,211211,,,D*75
$GPVTG,110.64,T,,M,2.41,N,4.5,K,D*0C
$GPGGA,190632.000,3748.7858,N,12217.8320,W,2,08,0.9,-2.0,M,-25.1,M,4.8,0000*61
$GPGSA,A,3,05,15,29,30,25,26,18,12,,,,,1.9,0.9,1.7*35
$GPGSV,3,1,12,29,79,049,30,21,48,278,27,05,34,048,29,18,31,204,34*7B
$GPGSV,3,2,12,25,30,189,34,30,24,308,28,26,18,094,28,15,18,131,39*72
$GPGSV,3,3,12,12,07,170,39,16,05,326,21,02,01,072,,31,00,263,*77
$GPVTG,120.51,T,,M,1.80,N,3.3,K,D*06
$GPGGA,190633.000,3748.7848,N,12217.8305,W,2,08,0.9,-0.1,M,-25.1,M,5.8,0000*64
$GPGSA,A,3,05,15,29,30,25,26,18,12,,,,,1.9,0.9,1.7*35
$GPRMC,190633.000,A,3748.7848,N,12217.8305,W,2.73,127.76,211211,,,D*76
$GPVTG,127.76,T,,M,2.73,N,5.1,K,D*0F
$GPGGA,190634.000,3748.7838,N,12217.8291,W,2,08,0.9,1.5,M,-25.1,M,6.8,0000*43
$GPGSA,A,3,05,15,29,30,25,26,18,12,,,,,1.9,0.9,1.7*35
$GPRMC,190634.000,A,3748.7838,N,12217.8291,W,2.66,127.28,211211,,,D*75
$GPVTG,127.28,T,,M,2.66,N,4.9,K,D*09
$GPGGA,190635.000,3748.7834,N,12217.8283,W,2,08,0.9,1.4,M,-25.1,M,7.8,0000*4D
$GPGSA,A,3,05,15,29,30,25,26,18,12,,,,,1.9,0.9,1.7*35
$GPRMC,190635.000,A,3748.7834,N,12217.8283,W,2.19,122.26,211211,,,D*78
$GPVTG,122.26,T,,M,2.19,N,4.1,K,D*02
$GPGGA,190636.000,3748.7831,N,12217.8276,W,2,08,0.9,1.2,M,-25.1,M,8.8,0000*48
$GPGSA,A,3,05,15,29,30,25,26,18,12,,,,,1.9,0.9,1.7*35
$GPRMC,190636.000,A,3748.7831,N,12217.8276,W,2.03,118.77,211211,,,D*72
$GPVTG,118.77,T,,M,2.03,N,3.8,K,D*0A
$GPGGA,190637.000,3748.7829,N,12217.8269,W,2,08,0.9,0.9,M,-25.1,M,9.8,0000*45
$GPGSA,A,3,05,15,29,30,25,26,18,12,,,,,1.9,0.9,1.7*35
$GPGSV,3,1,12,29,79,049,30,21,48,278,27,05,34,048,27,18,31,204,39*78
$GPGSV,3,2,12,25,30,189,40,30,24,308,25,26,18,094,33,15,18,131,39*76
$GPGSV,3,3,12,12,07,170,38,16,05,326,,02,01,072,,31,00,263,*75
$GPRMC,190637.000,A,3748.7829,N,12217.8269,W,2.06,108.07,211211,,,D*77
$GPVTG,108.07,T,,M,2.06,N,3.8,K,D*09
$GPGGA,190638.000,3748.7827,N,12217.8261,W,2,08,0.9,0.5,M,-25.1,M,10.8,0000*78
$GPGSA,A,3,05,15,29,30,25,26,18,12,,,,,1.9,0.9,1.7*35
$GPRMC,190638.000,A,3748.7827,N,12217.8261,W,2.02,117.82,211211,,,D*79
$GPVTG,117.82,T,,M,2.02,N,3.7,K,D*01
$GPGGA,190639.000,3748.7824,N,12217.8254,W,2,08,0.9,0.4,M,-25.1,M,11.8,0000*7C
$GPGSA,A,3,05,15,29,30,25,26,18,12,,,,,1.9,0.9,1.7*35
$GPRMC,190639.000,A,3748.7824,N,12217.8254,W,2.14,122.79,211211,,,D*78
$GPVTG,122.79,T,,M,2.14,N,4.0,K,D*04
$GPGGA,190640.000,3748.7821,N,12217.8248,W,2,08,0.9,0.1,M,-25.1,M,12.8,0000*7C
$GPGSA,A,3,05,15,29,30,25,26,18,12,,,,,1.9,0.9,1.7*35
$GPRMC,190640.000,A,3748.7821,N,12217.8248,W,1.94,123.27,211211,,,D*7F
$GPVTG,123.27,T,,M,1.94,N,3.6,K,D*04
$GPGGA,190641.000,3748.7818,N,12217.8242,W,2,08,0.9,-0.4,M,-25.1,M,13.8,0000*54
$GPGSA,A,3,05,15,29,30,25,26,18,12,,,,,1.9,0.9,1.7*35
$GPRMC,190641.000,A,3748.7818,N,12217.8242,W,2.07,114.38,211211,,,D*7D
$GPVTG,114.38,T,,M,2.07,N,3.8,K,D*09
$GPGGA,190642.000,3748.7815,N,12217.8235,W,2,08,0.9,-0.5,M,-25.1,M,14.8,0000*5C
$GPGSA,A,3,05,15,29,30,25,26,18,12,,,,,1.9,0.9,1.7*35
$GPGSV,3,1,12,29,79,050,31,21,48,279,28,05,33,048,26,18,31,204,39*79
$GPGSV,3,2,12,25,29,189,41,30,24,308,26,15,18,131,39,26,18,094,32*7D
$GPGSV,3,3,12,12,07,169,38,16,06,326,,02,01,073,,31,00,263,*7F
$GPRMC,190642.000,A,3748.7815,N,12217.8235,W,2.16,123.00,211211,,,D*7C
