$ADVER,3080,2.3
$GPRMC,185734.207,A,3748.7948,N,12217.8597,W,0.28,124.21,040811,,,A*79
$GPRMC,185735.207,A,3748.7951,N,12217.8600,W,0.14,150.23,040811,,,A*73
$GPRMC,185736.000,A,3748.7959,N,12217.8606,W,0.23,328.95,040811,,,A*7F
$GPRMC,185737.000,A,3748.7976,N,12217.8618,W,0.04,77.67,040811,,,A*4D
$GPRMC,185738.000,A,3748.7976,N,12217.8617,W,0.19,145.70,040811,,,A*77
$GPRMC,185739.000,A,3748.7987,N,12217.8625,W,0.31,329.35,040811,,,A*7A
$GPRMC,185740.000,A,3748.7992,N,12217.8629,W,0.37,334.28,040811,,,A*7A
$GPRMC,185741.000,A,3748.7994,N,12217.8630,W,0.25,336.44,040811,,,A*7E
$GPRMC,185742.000,A,3748.7997,N,12217.8632,W,0.15,335.62,040811,,,A*78
$GPRMC,185743.000,A,3748.8000,N,12217.8634,W,0.12,7.58,040811,,,A*7B
$GPRMC,185744.000,A,3748.8002,N,12217.8636,W,0.29,337.53,040811,,,A*7F
$GPRMC,185745.000,A,3748.8005,N,12217.8638,W,0.08,102.03,040811,,,A*75
$GPRMC,185746.000,A,3748.8002,N,12217.8636,W,0.19,133.53,040811,,,A*78
$GPRMC,185747.000,A,3748.8001,N,12217.8635,W,0.30,137.54,040811,,,A*71
$GPRMC,185748.000,A,3748.7998,N,12217.8633,W,0.46,143.63,040811,,,A*78
$GPRMC,185749.000,A,3748.7993,N,12217.8630,W,0.51,143.40,040811,,,A*76
$GPRMC,185750.000,A,3748.7991,N,12217.8628,W,0.61,146.54,040811,,,A*76
$GPRMC,185751.000,A,3748.7990,N,12217.8627,W,0.43,145.46,040811,,,A*79
$GPRMC,185752.000,A,3748.7988,N,12217.8626,W,0.02,200.62,040811,,,A*73
$GPRMC,185753.000,A,3748.7987,N,12217.8627,W,0.13,324.00,040811,,,A*7F
$GPRMC,185754.000,A,3748.7986,N,12217.8627,W,0.15,324.93,040811,,,A*75
$GPRMC,185755.000,A,3748.7986,N,12217.8627,W,0.18,321.24,040811,,,A*70
$GPRMC,185756.000,A,3748.7986,N,12217.8628,W,0.15,321.95,040811,,,A*7B
$GPRMC,185757.000,A,3748.7986,N,12217.8628,W,0.11,168.41,040811,,,A*78
$GPRMC,185758.000,A,3748.7985,N,12217.8627,W,0.04,208.54,040811,,,A*7E
$GPRMC,185759.000,A,3748.7985,N,12217.8627,W,0.14,158.39,040811,,,A*73
$GPRMC,185800.000,A,3748.7984,N,12217.8627,W,0.16,151.45,040811,,,A*71
$GPRMC,185801.000,A,3748.7984,N,12217.8626,W,0.07,145.61,040811,,,A*72
$GPRMC,185802.000,A,3748.7984,N,12217.8626,W,0.08,141.62,040811,,,A*79
$GPRMC,185803.000,A,3748.7983,N,12217.8626,W,0.05,131.17,040811,,,A*77
$GPRMC,185804.000,A,3748.7985,N,12217.8623,W,0.08,18.02,040811,,,A*40
$GPRMC,185805.000,A,3748.7986,N,12217.8620,W,0.21,355.81,040811,,,A*7B
$GPRMC,185806.000,A,3748.7987,N,12217.8618,W,0.10,106.28,040811,,,A*77
$GPRMC,185807.000,A,3748.7987,N,12217.8616,W,0.08,30.10,040811,,,A*4E
$GPRMC,185808.000,A,3748.7987,N,12217.8615,W,0.08,71.72,040811,,,A*43
$GPRMC,185809.000,A,3748.7987,N,12217.8613,W,0.06,103.09,040811,,,A*72
$GPRMC,185810.000,A,3748.7987,N,12217.8612,W,0.08,97.25,040811,,,A*47
$GPRMC,185811.000,A,3748.7987,N,12217.8611,W,0.08,107.65,040811,,,A*79
$GPRMC,185812.000,A,3748.7987,N,12217.8610,W,0.06,68.77,040811,,,A*4E
$GPRMC,185813.000,A,3748.7987,N,12217.8609,W,0.07,96.46,040811,,,A*45
$GPRMC,185814.000,A,3748.7987,N,12217.8608,W,0.08,99.72,040811,,,A*44
$GPRMC,185815.000,A,3748.7986,N,12217.8607,W,0.05,104.77,040811,,,A*76
$GPRMC,185816.000,A,3748.7986,N,12217.8607,W,0.08,106.45,040811,,,A*7B
$GPRMC,185817.000,A,3748.7986,N,12217.8607,W,0.05,28.33,040811,,,A*4B
$GPRMC,185818.000,A,3748.7986,N,12217.8607,W,0.11,128.16,040811,,,A*77
$GPRMC,185819.000,A,3748.7985,N,12217.8607,W,0.08,128.41,040811,,,A*7F
$GPRMC,185820.000,A,3748.7985,N,12217.8607,W,0.05,95.01,040811,,,A*4B
$GPRMC,185821.000,A,3748.7985,N,12217.8607,W,0.13,338.31,040811,,,A*7A
$GPRMC,185822.000,A,3748.7985,N,12217.8608,W,0.16,138.64,040811,,,A*71
$GPRMC,185823.000,A,3748.7984,N,12217.8607,W,0.25,142.21,040811,,,A*72
$GPRMC,185824.000,A,3748.7984,N,12217.8607,W,0.10,343.57,040811,,,A*71
$GPRMC,185825.000,A,3748.7984,N,12217.8608,W,0.04,47.25,040811,,,A*48
$GPRMC,185826.000,A,3748.7984,N,12217.8608,W,0.15,139.52,040811,,,A*73
$GPRMC,185827.000,A,3748.7983,N,12217.8607,W,0.28,139.71,040811,,,A*75
$GPRMC,185828.000,A,3748.7983,N,12217.8607,W,0.10,133.89,040811,,,A*7C
$GPRMC,185829.000,A,3748.7983,N,12217.8607,W,0.04,27.05,040811,,,A*48
$GPRMC,185830.000,A,3748.7983,N,12217.8607,W,0.03,73.07,040811,,,A*44
$GPRMC,185831.000,A,3748.7982,N,12217.8607,W,0.06,108.23,040811,,,A*7A
$GPRMC,185832.000,A,3748.7982,N,12217.8608,W,0.05,100.89,040811,,,A*7D
$GPRMC,185833.000,A,3748.7982,N,12217.8608,W,0.05,101.74,040811,,,A*7F
$GPRMC,185834.000,A,3748.7982,N,12217.8607,W,0.06,130.04,040811,,,A*71
$GPRMC,185835.000,A,3748.7982,N,12217.8607,W,0.05,90.46,040811,,,A*4E
$GPRMC,185836.000,A,3748.7982,N,12217.8607,W,0.04,79.24,040811,,,A*4F
$GPRMC,185837.000,A,3748.7982,N,12217.8607,W,0.06,117.39,040811,,,A*79
$GPRMC,185838.000,A,3748.7982,N,12217.8607,W,0.07,112.56,040811,,,A*7B
$GPRMC,185839.000,A,3748.7981,N,12217.8607,W,0.06,104.75,040811,,,A*7E
$GPRMC,185840.000,A,3748.7981,N,12217.8607,W,0.05,59.50,040811,,,A*4D
$GPRMC,185841.000,A,3748.7981,N,12217.8607,W,0.03,81.38,040811,,,A*41
$GPRMC,185842.000,A,3748.7981,N,12217.8607,W,0.06,130.02,040811,,,A*75
$GPRMC,185843.000,A,3748.7981,N,12217.8608,W,0.19,340.20,040811,,,A*70
$GPRMC,185844.000,A,3748.7982,N,12217.8606,W,0.05,74.72,040811,,,A*44
$GPRMC,185845.000,A,3748.7982,N,12217.8605,W,0.06,93.67,040811,,,A*48
$GPRMC,185846.000,A,3748.7982,N,12217.8604,W,0.06,97.88,040811,,,A*4F
$GPRMC,185847.000,A,3748.7982,N,12217.8604,W,0.05,93.06,040811,,,A*4F
$GPRMC,185848.000,A,3748.7981,N,12217.8604,W,0.07,113.42,040811,,,A*78
$GPRMC,185849.000,A,3748.7981,N,12217.8604,W,0.06,117.85,040811,,,A*77
$GPRMC,185850.000,A,3748.7981,N,12217.8604,W,0.05,97.97,040811,,,A*46
$GPRMC,185851.000,A,3748.7981,N,12217.8604,W,0.07,126.83,040811,,,A*7B
$GPRMC,185852.000,A,3748.7981,N,12217.8604,W,0.06,100.70,040811,,,A*71
$GPRMC,185853.000,A,3748.7980,N,12217.8604,W,0.09,129.57,040811,,,A*70
$GPRMC,185854.000,A,3748.7980,N,12217.8604,W,0.18,349.17,040811,,,A*77
$GPRMC,185855.000,A,3748.7981,N,12217.8604,W,0.04,33.49,040811,,,A*4F
$GPRMC,185856.000,A,3748.7981,N,12217.8604,W,0.15,348.15,040811,,,A*7A
$GPRMC,185857.000,A,3748.7981,N,12217.8604,W,0.09,43.51,040811,,,A*4E
$GPRMC,185858.000,A,3748.7981,N,12217.8603,W,0.07,161.76,040811,,,A*7C
$GPRMC,185859.000,A,3748.7981,N,12217.8603,W,0.19,196.08,040811,,,A*73
$GPRMC,185900.000,A,3748.7980,N,12217.8603,W,0.09,84.64,040811,,,A*46
$GPRMC,185901.000,A,3748.7980,N,12217.8603,W,0.04,86.69,040811,,,A*45
$GPRMC,185902.000,A,3748.7980,N,12217.8603,W,0.06,83.27,040811,,,A*4B
$GPRMC,185903.000,A,3748.7980,N,12217.8603,W,0.05,97.34,040811,,,A*4E
$GPRMC,185904.000,A,3748.7979,N,12217.8603,W,0.07,116.91,040811,,,A*7A
$GPRMC,185905.000,A,3748.7979,N,12217.8603,W,0.04,82.21,040811,,,A*4F
$GPRMC,185906.000,A,3748.7979,N,12217.8603,W,0.06,112.05,040811,,,A*70
$GPRMC,185907.000,A,3748.7979,N,12217.8604,W,0.11,343.87,040811,,,A*7C
$GPRMC,185908.000,A,3748.7979,N,12217.8604,W,0.08,3.42,040811,,,A*75
$GPRMC,185909.000,A,3748.7979,N,12217.8604,W,0.16,334.58,040811,,,A*77
$GPRMC,185910.000,A,3748.7979,N,12217.8604,W,0.07,120.29,040811,,,A*7E
$GPRMC,185911.000,A,3748.7978,N,12217.8604,W,0.23,139.38,040811,,,A*70
$GPRMC,185912.000,A,3748.7978,N,12217.8604,W,0.18,138.72,040811,,,A*74
$GPRMC,185913.000,A,3748.7978,N,12217.8603,W,0.04,102.93,040811,,,A*79
$GPRMC,185914.000,A,3748.7977,N,12217.8603,W,0.14,128.08,040811,,,A*7A
$GPRMC,185915.000,A,3748.7977,N,12217.8603,W,0.12,132.06,040811,,,A*78
$GPRMC,185916.000,A,3748.7977,N,12217.8603,W,0.09,122.25,040811,,,A*71
$GPRMC,185917.000,A,3748.7976,N,12217.8603,W,0.20,140.69,040811,,,A*76
$GPRMC,185918.000,A,3748.7976,N,12217.8602,W,0.13,123.13,040811,,,A*70
$GPRMC,185919.000,A,3748.7976,N,12217.8602,W,0.03,101.02,040811,,,A*70
$GPRMC,185920.000,A,3748.7976,N,12217.8602,W,0.19,130.27,040811,,,A*74
$GPRMC,185921.000,A,3748.7975,N,12217.8602,W,0.18,130.24,040811,,,A*74
$GPRMC,185922.000,A,3748.7975,N,12217.8602,W,0.08,356.06,040811,,,A*74
$GPRMC,185923.000,A,3748.7975,N,12217.8602,W,0.19,137.14,040811,,,A*73
$GPRMC,185924.000,A,3748.7975,N,12217.8601,W,0.08,118.60,040811,,,A*79
$GPRMC,185925.000,A,3748.7975,N,12217.8601,W,0.07,90.66,040811,,,A*40
$GPRMC,185926.000,A,3748.7975,N,12217.8601,W,0.04,71.47,040811,,,A*4C
$GPRMC,185927.000,A,3748.7975,N,12217.8601,W,0.06,85.01,040811,,,A*46
$GPRMC,185928.000,A,3748.7975,N,12217.8601,W,0.05,93.80,040811,,,A*44
$GPRMC,185929.000,A,3748.7975,N,12217.8600,W,0.09,88.21,040811,,,A*49
$GPRMC,185930.000,A,3748.7975,N,12217.8600,W,0.16,77.73,040811,,,A*48
$GPRMC,185931.000,A,3748.7975,N,12217.8600,W,0.06,327.70,040811,,,A*7D
$GPRMC,185932.000,A,3748.7975,N,12217.8599,W,0.26,183.81,040811,,,A*7D
$GPRMC,185933.000,A,3748.7976,N,12217.8598,W,0.18,115.77,040811,,,A*75
$GPRMC,185934.000,A,3748.7977,N,12217.8598,W,0.18,146.35,040811,,,A*73
$GPRMC,185935.000,A,3748.7977,N,12217.8599,W,0.07,162.37,040811,,,A*79
$GPRMC,185936.000,A,3748.7978,N,12217.8598,W,0.34,44.83,040811,,,A*4E
$GPRMC,185937.000,A,3748.7980,N,12217.8598,W,0.23,38.06,040811,,,A*48
$GPRMC,185938.000,A,3748.7981,N,12217.8599,W,0.05,290.88,040811,,,A*75
$GPRMC,185939.000,A,3748.7983,N,12217.8600,W,0.29,292.42,040811,,,A*7F
$GPRMC,185940.000,A,3748.7986,N,12217.8605,W,0.85,300.49,040811,,,A*76
$GPRMC,185941.000,A,3748.7988,N,12217.8605,W,0.46,154.93,040811,,,A*72
$GPRMC,185942.000,A,3748.7990,N,12217.8603,W,0.75,140.27,040811,,,A*74
$GPRMC,185943.000,A,3748.7990,N,12217.8602,W,0.30,104.23,040811,,,A*71
$GPRMC,185944.000,A,3748.7991,N,12217.8599,W,0.13,99.80,040811,,,A*4B
$GPRMC,185945.000,A,3748.7991,N,12217.8599,W,0.03,158.35,040811,,,A*79
$GPRMC,185946.000,A,3748.7988,N,12217.8601,W,0.08,150.94,040811,,,A*78
$GPRMC,185947.000,A,3748.7988,N,12217.8600,W,0.77,54.46,040811,,,A*4A
$GPRMC,185948.000,A,3748.7988,N,12217.8599,W,0.34,133.53,040811,,,A*75
$GPRMC,185949.000,A,3748.7986,N,12217.8599,W,0.23,197.45,040811,,,A*75
$GPRMC,185950.000,A,3748.7984,N,12217.8600,W,0.21,281.18,040811,,,A*72
$GPRMC,185951.000,A,3748.7982,N,12217.8604,W,0.22,183.13,040811,,,A*78
$GPRMC,185952.000,A,3748.7979,N,12217.8607,W,1.26,202.41,040811,,,A*74
$GPRMC,185953.000,A,3748.7973,N,12217.8614,W,3.34,231.69,040811,,,A*76
$GPRMC,185954.000,A,3748.7967,N,12217.8629,W,4.59,238.68,040811,,,A*7E
$GPRMC,185955.000,A,3748.7960,N,12217.8638,W,4.07,236.99,040811,,,A*73
$GPRMC,185956.000,A,3748.7955,N,12217.8648,W,3.03,237.89,040811,,,A*72
$GPRMC,185957.000,A,3748.7962,N,12217.8646,W,0.69,293.74,040811,,,A*7A
$GPRMC,185958.000,A,3748.7973,N,12217.8651,W,1.98,330.45,040811,,,A*76
$GPRMC,185959.000,A,3748.7976,N,12217.8655,W,2.23,314.25,040811,,,A*75
$GPRMC,190000.000,A,3748.7980,N,12217.8646,W,0.73,246.03,040811,,,A*7A
$GPRMC,190001.000,A,3748.7983,N,12217.8637,W,0.28,146.72,040811,,,A*75
$GPRMC,190002.000,A,3748.7983,N,12217.8640,W,0.42,315.41,040811,,,A*7E
$GPRMC,190003.000,A,3748.7977,N,12217.8644,W,0.18,92.82,040811,,,A*4C
$GPRMC,190004.000,A,3748.7984,N,12217.8645,W,0.10,25.97,040811,,,A*46
$GPRMC,190005.000,A,3748.7977,N,12217.8654,W,0.66,229.58,040811,,,A*77
$GPRMC,190006.000,A,3748.7977,N,12217.8657,W,0.79,227.08,040811,,,A*72
$GPRMC,190007.000,A,3748.7976,N,12217.8655,W,0.65,173.48,040811,,,A*7B
$GPRMC,190008.000,A,3748.7974,N,12217.8654,W,0.21,206.59,040811,,,A*76
$GPRMC,190009.000,A,3748.7975,N,12217.8652,W,0.64,203.97,040811,,,A*76
$GPRMC,190010.000,A,3748.7977,N,12217.8645,W,0.24,212.47,040811,,,A*73
$GPRMC,190011.000,A,3748.7976,N,12217.8641,W,0.58,341.13,040811,,,A*7A
$GPRMC,190012.000,A,3748.7977,N,12217.8637,W,0.08,113.20,040811,,,A*79
$GPRMC,190013.000,A,3748.7978,N,12217.8633,W,0.15,17.16,040811,,,A*4F
$GPRMC,190014.000,A,3748.7978,N,12217.8635,W,0.20,303.83,040811,,,A*72
$GPRMC,190015.000,A,3748.7978,N,12217.8633,W,0.51,93.42,040811,,,A*44
$GPRMC,190016.000,A,3748.7976,N,12217.8634,W,1.06,189.25,040811,,,A*76
$GPRMC,190017.000,A,3748.7970,N,12217.8635,W,1.99,187.66,040811,,,A*7F
$GPRMC,190018.000,A,3748.7964,N,12217.8636,W,2.38,178.77,040811,,,A*7E
$GPRMC,190019.000,A,3748.7958,N,12217.8636,W,1.71,198.47,040811,,,A*73
$GPRMC,190020.000,A,3748.7956,N,12217.8638,W,1.65,224.75,040811,,,A*79
$GPRMC,190021.000,A,3748.7953,N,12217.8641,W,2.16,221.54,040811,,,A*72
$GPRMC,190022.000,A,3748.7949,N,12217.8644,W,1.90,209.25,040811,,,A*7E
$GPRMC,190023.000,A,3748.7945,N,12217.8644,W,1.70,195.44,040811,,,A*7C
$GPRMC,190024.000,A,3748.7942,N,12217.8645,W,1.41,198.93,040811,,,A*78
$GPRMC,190025.000,A,3748.7939,N,12217.8646,W,1.27,211.60,040811,,,A*78
$GPRMC,190026.000,A,3748.7936,N,12217.8648,W,1.13,198.41,040811,,,A*7C
$GPRMC,190027.000,A,3748.7933,N,12217.8650,W,1.61,209.36,040811,,,A*7F
$GPRMC,190028.000,A,3748.7929,N,12217.8652,W,1.46,197.73,040811,,,A*79
$GPRMC,190029.000,A,3748.7919,N,12217.8663,W,1.49,187.25,040811,,,A*74
$GPRMC,190030.000,A,3748.7914,N,12217.8669,W,0.81,189.38,040811,,,A*7C
$GPRMC,190031.000,A,3748.7907,N,12217.8672,W,1.83,203.91,040811,,,A*74
$GPRMC,190032.000,A,3748.7902,N,12217.8676,W,1.81,208.13,040811,,,A*75
$GPRMC,190033.000,A,3748.7899,N,12217.8677,W,0.85,150.23,040811,,,A*7E
$GPRMC,190034.000,A,3748.7902,N,12217.8679,W,1.02,118.63,040811,,,A*72
$GPRMC,190035.000,A,3748.7901,N,12217.8679,W,1.22,94.75,040811,,,A*40
$GPRMC,190036.000,A,3748.7902,N,12217.8675,W,1.12,108.63,040811,,,A*7C
$GPRMC,190037.000,A,3748.7900,N,12217.8671,W,1.60,155.34,040811,,,A*74
$GPRMC,190038.000,A,3748.7898,N,12217.8669,W,1.59,146.93,040811,,,A*77
$GPRMC,190039.000,A,3748.7891,N,12217.8668,W,1.72,167.90,040811,,,A*77
$GPRMC,190040.000,A,3748.7885,N,12217.8671,W,1.61,225.78,040811,,,A*75
$GPRMC,190041.000,A,3748.7889,N,12217.8677,W,1.96,278.15,040811,,,A*75
$GPRMC,190042.000,A,3748.7894,N,12217.8684,W,1.40,282.83,040811,,,A*77
$GPRMC,190043.000,A,3748.7898,N,12217.8686,W,0.91,278.52,040811,,,A*7C
$GPRMC,190044.000,A,3748.7902,N,12217.8692,W,0.68,270.19,040811,,,A*7D
$GPRMC,190045.000,A,3748.7901,N,12217.8697,W,0.56,196.36,040811,,,A*71
$GPRMC,190046.000,A,3748.7908,N,12217.8700,W,1.66,324.29,040811,,,A*73
$GPRMC,190047.000,A,3748.7908,N,12217.8696,W,1.40,359.51,040811,,,A*7D
$GPRMC,190048.000,A,3748.7914,N,12217.8697,W,2.01,353.20,040811,,,A*74
$GPRMC,190049.000,A,3748.7918,N,12217.8699,W,2.17,359.31,040811,,,A*7A
$GPRMC,190050.000,A,3748.7917,N,12217.8700,W,1.41,6.66,040811,,,A*77
$GPRMC,190051.000,A,3748.7910,N,12217.8699,W,0.52,125.54,040811,,,A*72
$GPRMC,190052.000,A,3748.7906,N,12217.8695,W,1.62,122.76,040811,,,A*7F
$GPRMC,190053.000,A,3748.7904,N,12217.8692,W,1.25,176.61,040811,,,A*7F
$GPRMC,190054.000,A,3748.7904,N,12217.8697,W,1.53,199.53,040811,,,A*7C
$GPRMC,190055.000,A,3748.7900,N,12217.8702,W,2.05,200.62,040811,,,A*75
$GPRMC,190056.000,A,3748.7892,N,12217.8705,W,2.19,207.19,040811,,,A*7D
$GPRMC,190057.000,A,3748.7888,N,12217.8701,W,1.26,182.22,040811,,,A*7A
$GPRMC,190058.000,A,3748.7885,N,12217.8702,W,0.61,163.33,040811,,,A*76
$GPRMC,190059.000,A,3748.7884,N,12217.8709,W,0.56,263.45,040811,,,A*7B
$GPRMC,190100.000,A,3748.7882,N,12217.8715,W,0.28,352.05,040811,,,A*73
$GPRMC,190101.000,A,3748.7877,N,12217.8716,W,0.39,75.49,040811,,,A*45
$GPRMC,190102.000,A,3748.7874,N,12217.8718,W,0.17,274.34,040811,,,A*7E
$GPRMC,190103.000,A,3748.7870,N,12217.8718,W,0.43,233.72,040811,,,A*7B
$GPRMC,190104.000,A,3748.7873,N,12217.8715,W,0.26,266.01,040811,,,A*75
$GPRMC,190105.000,A,3748.7879,N,12217.8710,W,0.41,59.61,040811,,,A*42
$GPRMC,190106.000,A,3748.7881,N,12217.8703,W,1.02,76.62,040811,,,A*4C
$GPRMC,190107.000,A,3748.7879,N,12217.8694,W,0.42,26.57,040811,,,A*43
$GPRMC,190108.000,A,3748.7885,N,12217.8693,W,0.50,323.00,040811,,,A*7F
$GPRMC,190109.000,A,3748.7891,N,12217.8690,W,0.24,352.05,040811,,,A*78
$GPRMC,190110.000,A,3748.7899,N,12217.8687,W,0.14,112.92,040811,,,A*75
$GPRMC,190111.000,A,3748.7900,N,12217.8685,W,0.22,72.07,040811,,,A*49
$GPRMC,190112.000,A,3748.7903,N,12217.8682,W,0.10,230.00,040811,,,A*7C
$GPRMC,190113.000,A,3748.7907,N,12217.8674,W,0.80,52.93,040811,,,A*45
$GPRMC,190114.000,A,3748.7906,N,12217.8669,W,1.46,94.22,040811,,,A*44
$GPRMC,190115.000,A,3748.7907,N,12217.8658,W,1.52,71.44,040811,,,A*48
$GPRMC,190116.000,A,3748.7916,N,12217.8657,W,0.85,50.68,040811,,,A*42
$GPRMC,190117.000,A,3748.7919,N,12217.8655,W,0.34,14.18,040811,,,A*43
$GPRMC,190118.000,A,3748.7919,N,12217.8657,W,1.51,299.55,040811,,,A*72
$GPRMC,190119.000,A,3748.7919,N,12217.8665,W,1.93,299.46,040811,,,A*7E
$GPRMC,190120.000,A,3748.7918,N,12217.8671,W,1.62,294.38,040811,,,A*7A
$GPRMC,190121.000,A,3748.7920,N,12217.8678,W,1.63,244.12,040811,,,A*7D
$GPRMC,190122.000,A,3748.7924,N,12217.8691,W,1.90,219.15,040811,,,A*7E
$GPRMC,190123.000,A,3748.7923,N,12217.8699,W,1.73,204.51,040811,,,A*71
$GPRMC,190124.000,A,3748.7916,N,12217.8707,W,1.71,203.94,040811,,,A*7A
$GPRMC,190125.000,A,3748.7910,N,12217.8713,W,2.24,211.60,040811,,,A*73
$GPRMC,190126.000,A,3748.7904,N,12217.8723,W,1.85,218.20,040811,,,A*73
$GPRMC,190127.000,A,3748.7899,N,12217.8729,W,1.16,214.27,040811,,,A*7C
$GPRMC,190128.000,A,3748.7895,N,12217.8732,W,1.35,218.25,040811,,,A*7A
$GPRMC,190129.000,A,3748.7894,N,12217.8742,W,1.59,209.30,040811,,,A*73
$GPRMC,190130.000,A,3748.7890,N,12217.8745,W,1.37,204.85,040811,,,A*73
$GPRMC,190131.000,A,3748.7890,N,12217.8756,W,1.23,201.07,040811,,,A*7A
$GPRMC,190132.000,A,3748.7888,N,12217.8766,W,0.92,176.69,040811,,,A*73
$GPRMC,190133.000,A,3748.7888,N,12217.8773,W,1.06,194.23,040811,,,A*78
$GPRMC,190134.000,A,3748.7886,N,12217.8783,W,1.67,204.16,040811,,,A*75
$GPRMC,190135.000,A,3748.7883,N,12217.8793,W,1.68,200.51,040811,,,A*78
$GPRMC,190136.000,A,3748.7880,N,12217.8805,W,2.04,219.55,040811,,,A*7D
$GPRMC,190137.000,A,3748.7875,N,12217.8813,W,2.05,209.31,040811,,,A*73
$GPRMC,190138.000,A,3748.7870,N,12217.8822,W,2.04,206.45,040811,,,A*76
$GPRMC,190139.000,A,3748.7865,N,12217.8834,W,2.33,218.57,040811,,,A*7C
$GPRMC,190140.000,A,3748.7860,N,12217.8844,W,2.32,217.18,040811,,,A*75
$GPRMC,190141.000,A,3748.7855,N,12217.8855,W,2.54,217.62,040811,,,A*7F
$GPRMC,190142.000,A,3748.7850,N,12217.8866,W,2.22,206.03,040811,,,A*7F
$GPRMC,190143.000,A,3748.7843,N,12217.8871,W,2.07,194.09,040811,,,A*7F
$GPRMC,190144.000,A,3748.7837,N,12217.8879,W,1.92,210.43,040811,,,A*7D
$GPRMC,190145.000,A,3748.7831,N,12217.8889,W,2.10,209.04,040811,,,A*77
$GPRMC,190146.000,A,3748.7826,N,12217.8897,W,2.22,220.57,040811,,,A*71
$GPRMC,190147.000,A,3748.7821,N,12217.8902,W,2.01,204.31,040811,,,A*7D
$GPRMC,190148.000,A,3748.7816,N,12217.8908,W,1.93,192.69,040811,,,A*75
$GPRMC,190149.000,A,3748.7811,N,12217.8915,W,1.80,192.79,040811,,,A*7C
$GPRMC,190150.000,A,3748.7807,N,12217.8917,W,1.63,188.54,040811,,,A*78
$GPRMC,190151.000,A,3748.7801,N,12217.8920,W,1.75,186.00,040811,,,A*73
$GPRMC,190152.000,A,3748.7797,N,12217.8921,W,1.32,181.58,040811,,,A*78
$GPRMC,190153.000,A,3748.7792,N,12217.8923,W,1.66,188.95,040811,,,A*77
$GPRMC,190154.000,A,3748.7788,N,12217.8927,W,2.02,208.31,040811,,,A*7B
$GPRMC,190155.000,A,3748.7782,N,12217.8933,W,1.73,204.84,040811,,,A*72
$GPRMC,190156.000,A,3748.7778,N,12217.8938,W,1.44,199.92,040811,,,A*7B
$GPRMC,190157.000,A,3748.7774,N,12217.8942,W,1.10,204.44,040811,,,A*76
$GPRMC,190158.000,A,3748.7769,N,12217.8944,W,1.30,181.77,040811,,,A*7F
$GPRMC,190159.000,A,3748.7764,N,12217.8950,W,1.33,181.09,040811,,,A*7C
$GPRMC,190200.000,A,3748.7759,N,12217.8955,W,1.75,198.69,040811,,,A*74
$GPRMC,190201.000,A,3748.7755,N,12217.8961,W,1.50,196.25,040811,,,A*7F
$GPRMC,190202.000,A,3748.7751,N,12217.8967,W,1.34,184.41,040811,,,A*7D
$GPRMC,190203.000,A,3748.7748,N,12217.8972,W,1.40,181.83,040811,,,A*78
$GPRMC,190204.000,A,3748.7744,N,12217.8977,W,1.39,200.73,040811,,,A*7D
$GPRMC,190205.000,A,3748.7742,N,12217.8980,W,1.65,202.51,040811,,,A*79
$GPRMC,190206.000,A,3748.7740,N,12217.8981,W,1.27,202.11,040811,,,A*7B
$GPRMC,190207.000,A,3748.7737,N,12217.8982,W,0.94,186.00,040811,,,A*7F
$GPRMC,190208.000,A,3748.7734,N,12217.8985,W,1.21,178.11,040811,,,A*7A
$GPRMC,190209.000,A,3748.7731,N,12217.8987,W,1.52,194.66,040811,,,A*7A
$GPRMC,190210.000,A,3748.7725,N,12217.8990,W,2.35,213.16,040811,,,A*78
$GPRMC,190211.000,A,3748.7718,N,12217.8998,W,2.39,212.40,040811,,,A*71
$GPRMC,190212.000,A,3748.7712,N,12217.9005,W,2.13,200.40,040811,,,A*7F
$GPRMC,190213.000,A,3748.7705,N,12217.9010,W,2.23,201.68,040811,,,A*74
$GPRMC,190214.000,A,3748.7698,N,12217.9015,W,2.13,199.74,040811,,,A*7F
$GPRMC,190215.000,A,3748.7691,N,12217.9023,W,1.96,194.50,040811,,,A*77
$GPRMC,190216.000,A,3748.7683,N,12217.9034,W,1.55,201.22,040811,,,A*74
$GPRMC,190217.000,A,3748.7677,N,12217.9043,W,2.54,219.20,040811,,,A*77
$GPRMC,190218.000,A,3748.7670,N,12217.9047,W,1.71,211.15,040811,,,A*71
$GPRMC,190219.000,A,3748.7666,N,12217.9053,W,2.22,224.64,040811,,,A*77
$GPRMC,190220.000,A,3748.7662,N,12217.9059,W,1.79,231.27,040811,,,A*7D
$GPRMC,190221.000,A,3748.7655,N,12217.9065,W,2.61,208.62,040811,,,A*76
$GPRMC,190222.000,A,3748.7645,N,12217.9065,W,2.29,193.52,040811,,,A*7A
$GPRMC,190223.000,A,3748.7631,N,12217.9078,W,2.79,197.46,040811,,,A*70
$GPRMC,190224.000,A,3748.7621,N,12217.9078,W,2.36,205.25,040811,,,A*70
$GPRMC,190225.000,A,3748.7612,N,12217.9081,W,2.40,212.91,040811,,,A*7F
$GPRMC,190226.000,A,3748.7603,N,12217.9087,W,2.40,213.07,040811,,,A*74
$GPRMC,190227.000,A,3748.7595,N,12217.9090,W,2.24,206.55,040811,,,A*7E
$GPRMC,190228.000,A,3748.7587,N,12217.9093,W,2.10,207.46,040811,,,A*75
$GPRMC,190229.000,A,3748.7581,N,12217.9098,W,2.02,210.25,040811,,,A*79
$GPRMC,190230.000,A,3748.7576,N,12217.9104,W,2.02,206.39,040811,,,A*77
$GPRMC,190231.000,A,3748.7570,N,12217.9111,W,1.84,203.52,040811,,,A*71
$GPRMC,190232.000,A,3748.7564,N,12217.9115,W,1.68,204.85,040811,,,A*7C
$GPRMC,190233.000,A,3748.7559,N,12217.9116,W,2.09,203.83,040811,,,A*75
$GPRMC,190234.000,A,3748.7553,N,12217.9121,W,2.03,196.57,040811,,,A*70
$GPRMC,190235.000,A,3748.7548,N,12217.9126,W,2.10,203.99,040811,,,A*73
$GPRMC,190236.000,A,3748.7542,N,12217.9126,W,1.92,189.65,040811,,,A*71
$GPRMC,190237.000,A,3748.7534,N,12217.9127,W,1.99,184.30,040811,,,A*76
$GPRMC,190238.000,A,3748.7530,N,12217.9124,W,1.78,185.23,040811,,,A*72
$GPRMC,190239.000,A,3748.7524,N,12217.9122,W,1.70,185.68,040811,,,A*77
$GPRMC,190240.000,A,3748.7517,N,12217.9122,W,1.99,189.17,040811,,,A*7A
$GPRMC,190241.000,A,3748.7511,N,12217.9124,W,2.07,193.19,040811,,,A*7A
$GPRMC,190242.000,A,3748.7505,N,12217.9129,W,2.31,206.78,040811,,,A*7C
$GPRMC,190243.000,A,3748.7499,N,12217.9135,W,2.17,203.42,040811,,,A*7C
$GPRMC,190244.000,A,3748.7495,N,12217.9139,W,1.88,202.36,040811,,,A*7C
$GPRMC,190245.000,A,3748.7491,N,12217.9146,W,2.31,205.39,040811,,,A*78
$GPRMC,190246.000,A,3748.7487,N,12217.9151,W,2.42,206.75,040811,,,A*75
$GPRMC,190247.000,A,3748.7481,N,12217.9158,W,2.12,205.52,040811,,,A*78
$GPRMC,190248.000,A,3748.7477,N,12217.9162,W,1.87,203.29,040811,,,A*72
$GPRMC,190249.000,A,3748.7473,N,12217.9168,W,2.07,205.14,040811,,,A*7E
$GPRMC,190250.000,A,3748.7467,N,12217.9170,W,2.14,203.88,040811,,,A*7B
$GPRMC,190251.000,A,3748.7462,N,12217.9173,W,2.28,201.32,040811,,,A*70
$GPRMC,190252.000,A,3748.7456,N,12217.9178,W,2.72,213.81,040811,,,A*7B
$GPRMC,190253.000,A,3748.7451,N,12217.9186,W,2.52,212.02,040811,,,A*74
$GPRMC,190254.000,A,3748.7447,N,12217.9194,W,2.43,211.67,040811,,,A*77
$GPRMC,190255.000,A,3748.7443,N,12217.9202,W,2.19,212.08,040811,,,A*7B
$GPRMC,190256.000,A,3748.7436,N,12217.9210,W,3.10,220.49,040811,,,A*75
$GPRMC,190257.000,A,3748.7429,N,12217.9217,W,2.57,211.40,040811,,,A*74
$GPRMC,190258.000,A,3748.7422,N,12217.9219,W,2.06,197.48,040811,,,A*7F
$GPRMC,190259.000,A,3748.7418,N,12217.9219,W,2.29,203.66,040811,,,A*78
$GPRMC,190300.000,A,3748.7410,N,12217.9228,W,2.30,210.08,040811,,,A*7D
$GPRMC,190301.000,A,3748.7402,N,12217.9236,W,2.21,208.21,040811,,,A*72
$GPRMC,190302.000,A,3748.7396,N,12217.9242,W,1.95,213.52,040811,,,A*7A
$GPRMC,190303.000,A,3748.7391,N,12217.9243,W,1.45,196.92,040811,,,A*72
$GPRMC,190304.000,A,3748.7384,N,12217.9247,W,1.84,204.82,040811,,,A*71
$GPRMC,190305.000,A,3748.7378,N,12217.9252,W,1.78,201.87,040811,,,A*74
$GPRMC,190306.000,A,3748.7372,N,12217.9257,W,1.94,206.49,040811,,,A*7F
$GPRMC,190307.000,A,3748.7366,N,12217.9262,W,2.24,204.21,040811,,,A*79
$GPRMC,190308.000,A,3748.7360,N,12217.9268,W,2.10,206.14,040811,,,A*79
$GPRMC,190309.000,A,3748.7352,N,12217.9274,W,2.47,204.74,040811,,,A*72
$GPRMC,190310.000,A,3748.7345,N,12217.9280,W,2.00,205.68,040811,,,A*78
$GPRMC,190311.000,A,3748.7338,N,12217.9282,W,1.90,192.39,040811,,,A*72
$GPRMC,190312.000,A,3748.7331,N,12217.9283,W,2.22,184.31,040811,,,A*7C
$GPRMC,190313.000,A,3748.7326,N,12217.9286,W,2.09,197.51,040811,,,A*73
$GPRMC,190314.000,A,3748.7320,N,12217.9292,W,2.03,206.48,040811,,,A*7E
$GPRMC,190315.000,A,3748.7314,N,12217.9297,W,1.79,201.82,040811,,,A*72
$GPRMC,190316.000,A,3748.7308,N,12217.9301,W,1.73,196.83,040811,,,A*74
$GPRMC,190317.000,A,3748.7302,N,12217.9299,W,1.94,193.52,040811,,,A*7F
$GPRMC,190318.000,A,3748.7296,N,12217.9303,W,2.00,195.44,040811,,,A*71
$GPRMC,190319.000,A,3748.7289,N,12217.9307,W,1.66,188.22,040811,,,A*75
$GPRMC,190320.000,A,3748.7283,N,12217.9314,W,1.82,201.87,040811,,,A*70
$GPRMC,190321.000,A,3748.7278,N,12217.9314,W,1.74,203.47,040811,,,A*72
$GPRMC,190322.000,A,3748.7272,N,12217.9317,W,1.89,181.58,040811,,,A*7D
$GPRMC,190323.000,A,3748.7266,N,12217.9318,W,1.60,195.93,040811,,,A*73
$GPRMC,190324.000,A,3748.7260,N,12217.9320,W,1.93,210.70,040811,,,A*76
$GPRMC,190325.000,A,3748.7253,N,12217.9324,W,1.98,207.18,040811,,,A*70
$GPRMC,190326.000,A,3748.7245,N,12217.9329,W,2.13,200.39,040811,,,A*7D
$GPRMC,190327.000,A,3748.7239,N,12217.9329,W,2.18,197.52,040811,,,A*7C
$GPRMC,190328.000,A,3748.7232,N,12217.9330,W,2.16,206.67,040811,,,A*73
$GPRMC,190329.000,A,3748.7225,N,12217.9333,W,2.25,213.66,040811,,,A*72
$GPRMC,190330.000,A,3748.7217,N,12217.9339,W,2.12,209.99,040811,,,A*7E
$GPRMC,190331.000,A,3748.7212,N,12217.9347,W,2.29,224.33,040811,,,A*74
$GPRMC,190332.000,A,3748.7207,N,12217.9354,W,2.23,222.14,040811,,,A*78
$GPRMC,190333.000,A,3748.7199,N,12217.9358,W,2.37,201.93,040811,,,A*7A
$GPRMC,190334.000,A,3748.7191,N,12217.9359,W,2.24,192.71,040811,,,A*73
$GPRMC,190335.000,A,3748.7184,N,12217.9362,W,2.21,191.81,040811,,,A*77
$GPRMC,190336.000,A,3748.7176,N,12217.9365,W,3.00,212.36,040811,,,A*78
$GPRMC,190337.000,A,3748.7168,N,12217.9368,W,2.70,215.28,040811,,,A*75
$GPRMC,190338.000,A,3748.7160,N,12217.9373,W,2.77,209.98,040811,,,A*79
$GPRMC,190339.000,A,3748.7152,N,12217.9374,W,2.73,202.72,040811,,,A*75
$GPRMC,190340.000,A,3748.7144,N,12217.9377,W,2.70,206.09,040811,,,A*74
$GPRMC,190341.000,A,3748.7137,N,12217.9380,W,2.67,207.93,040811,,,A*7D
$GPRMC,190342.000,A,3748.7128,N,12217.9387,W,2.65,208.33,040811,,,A*70
$GPRMC,190343.000,A,3748.7120,N,12217.9391,W,2.74,192.14,040811,,,A*7B
$GPRMC,190344.000,A,3748.7110,N,12217.9395,W,2.83,185.16,040811,,,A*77
$GPRMC,190345.000,A,3748.7102,N,12217.9399,W,2.40,194.60,040811,,,A*77
$GPRMC,190346.000,A,3748.7094,N,12217.9404,W,2.69,199.32,040811,,,A*78
$GPRMC,190347.000,A,3748.7085,N,12217.9410,W,2.80,192.54,040811,,,A*70
$GPRMC,190348.000,A,3748.7077,N,12217.9415,W,2.12,188.96,040811,,,A*79
$GPRMC,190349.000,A,3748.7069,N,12217.9420,W,2.61,196.09,040811,,,A*7C
$GPRMC,190350.000,A,3748.7061,N,12217.9425,W,2.65,197.12,040811,,,A*76
$GPRMC,190351.000,A,3748.7053,N,12217.9433,W,2.45,200.96,040811,,,A*72
$GPRMC,190352.000,A,3748.7047,N,12217.9438,W,2.12,206.91,040811,,,A*7C
$GPRMC,190353.000,A,3748.7042,N,12217.9438,W,1.26,197.51,040811,,,A*7B
$GPRMC,190354.000,A,3748.7043,N,12217.9432,W,1.13,117.01,040811,,,A*7C
$GPRMC,190355.000,A,3748.7041,N,12217.9430,W,1.19,130.45,040811,,,A*72
$GPRMC,190356.000,A,3748.7038,N,12217.9434,W,1.64,219.45,040811,,,A*79
$GPRMC,190357.000,A,3748.7033,N,12217.9437,W,2.57,221.26,040811,,,A*7D
$GPRMC,190358.000,A,3748.7027,N,12217.9446,W,2.43,210.93,040811,,,A*78
$GPRMC,190359.000,A,3748.7019,N,12217.9456,W,2.53,212.08,040811,,,A*74
$GPRMC,190400.000,A,3748.7012,N,12217.9461,W,2.21,213.24,040811,,,A*7A
$GPRMC,190401.000,A,3748.7004,N,12217.9463,W,2.36,199.40,040811,,,A*7B
$GPRMC,190402.000,A,3748.6996,N,12217.9466,W,2.53,185.98,040811,,,A*75
$GPRMC,190403.000,A,3748.6991,N,12217.9470,W,2.15,175.25,040811,,,A*7F
$GPRMC,190404.000,A,3748.6984,N,12217.9472,W,1.61,192.70,040811,,,A*77
$GPRMC,190405.000,A,3748.6978,N,12217.9473,W,1.54,212.66,040811,,,A*7E
$GPRMC,190406.000,A,3748.6973,N,12217.9474,W,2.19,225.50,040811,,,A*7A
$GPRMC,190407.000,A,3748.6966,N,12217.9478,W,2.46,213.95,040811,,,A*75
$GPRMC,190408.000,A,3748.6959,N,12217.9485,W,2.58,202.51,040811,,,A*73
$GPRMC,190409.000,A,3748.6951,N,12217.9493,W,2.65,197.77,040811,,,A*78
$GPRMC,190410.000,A,3748.6943,N,12217.9501,W,2.55,188.82,040811,,,A*7E
$GPRMC,190411.000,A,3748.6935,N,12217.9506,W,2.51,185.55,040811,,,A*7A
$GPRMC,190412.000,A,3748.6927,N,12217.9508,W,2.08,189.84,040811,,,A*78
$GPRMC,190413.000,A,3748.6921,N,12217.9514,W,1.89,196.53,040811,,,A*7C
$GPRMC,190414.000,A,3748.6917,N,12217.9518,W,1.79,199.00,040811,,,A*74
$GPRMC,190415.000,A,3748.6910,N,12217.9524,W,2.11,201.45,040811,,,A*73
$GPRMC,190416.000,A,3748.6905,N,12217.9529,W,2.27,199.51,040811,,,A*7B
$GPRMC,190417.000,A,3748.6899,N,12217.9535,W,1.91,205.65,040811,,,A*7C
$GPRMC,190418.000,A,3748.6893,N,12217.9538,W,1.78,205.68,040811,,,A*7E
$GPRMC,190419.000,A,3748.6887,N,12217.9545,W,2.24,208.56,040811,,,A*7A
$GPRMC,190420.000,A,3748.6881,N,12217.9552,W,2.10,208.53,040811,,,A*72
$GPRMC,190421.000,A,3748.6875,N,12217.9558,W,2.15,200.46,040811,,,A*7B
$GPRMC,190422.000,A,3748.6868,N,12217.9563,W,2.16,201.02,040811,,,A*7E
$GPRMC,190423.000,A,3748.6862,N,12217.9568,W,1.99,211.91,040811,,,A*71
$GPRMC,190424.000,A,3748.6855,N,12217.9577,W,2.39,225.21,040811,,,A*79
$GPRMC,190425.000,A,3748.6849,N,12217.9581,W,2.27,205.33,040811,,,A*72
$GPRMC,190426.000,A,3748.6844,N,12217.9589,W,2.26,204.76,040811,,,A*75
$GPRMC,190427.000,A,3748.6839,N,12217.9595,W,1.94,209.43,040811,,,A*72
$GPRMC,190428.000,A,3748.6834,N,12217.9604,W,2.03,226.85,040811,,,A*71
$GPRMC,190429.000,A,3748.6829,N,12217.9614,W,2.23,229.42,040811,,,A*7B
$GPRMC,190430.000,A,3748.6822,N,12217.9628,W,2.34,219.21,040811,,,A*77
$GPRMC,190431.000,A,3748.6816,N,12217.9637,W,2.65,205.47,040811,,,A*76
$GPRMC,190432.000,A,3748.6808,N,12217.9646,W,2.95,198.00,040811,,,A*77
$GPRMC,190433.000,A,3748.6800,N,12217.9653,W,2.15,199.64,040811,,,A*71
$GPRMC,190434.000,A,3748.6795,N,12217.9656,W,2.24,209.87,040811,,,A*75
$GPRMC,190435.000,A,3748.6788,N,12217.9658,W,2.53,209.44,040811,,,A*79
$GPRMC,190436.000,A,3748.6780,N,12217.9661,W,2.42,212.87,040811,,,A*7D
$GPRMC,190437.000,A,3748.6776,N,12217.9668,W,2.65,212.95,040811,,,A*7A
$GPRMC,190438.000,A,3748.6770,N,12217.9675,W,2.46,208.91,040811,,,A*71
$GPRMC,190439.000,A,3748.6762,N,12217.9683,W,2.40,196.44,040811,,,A*70
$GPRMC,190440.000,A,3748.6755,N,12217.9685,W,2.33,198.24,040811,,,A*70
$GPRMC,190441.000,A,3748.6745,N,12217.9684,W,2.81,195.76,040811,,,A*72
$GPRMC,190442.000,A,3748.6736,N,12217.9684,W,2.62,194.05,040811,,,A*7D
$GPRMC,190443.000,A,3748.6728,N,12217.9687,W,2.31,195.04,040811,,,A*76
$GPRMC,190444.000,A,3748.6721,N,12217.9688,W,2.38,191.32,040811,,,A*7F
$GPRMC,190445.000,A,3748.6713,N,12217.9693,W,2.46,201.63,040811,,,A*72
$GPRMC,190446.000,A,3748.6706,N,12217.9699,W,2.13,197.95,040811,,,A*7A
$GPRMC,190447.000,A,3748.6701,N,12217.9705,W,1.93,195.29,040811,,,A*76
$GPRMC,190448.000,A,3748.6697,N,12217.9708,W,1.73,195.90,040811,,,A*76
$GPRMC,190449.000,A,3748.6690,N,12217.9710,W,2.04,192.87,040811,,,A*7B
$GPRMC,190450.000,A,3748.6684,N,12217.9711,W,1.95,192.88,040811,,,A*73
$GPRMC,190451.000,A,3748.6678,N,12217.9715,W,2.37,203.18,040811,,,A*7C
$GPRMC,190452.000,A,3748.6670,N,12217.9718,W,2.58,205.83,040811,,,A*77
$GPRMC,190453.000,A,3748.6664,N,12217.9721,W,2.29,200.00,040811,,,A*71
$GPRMC,190454.000,A,3748.6656,N,12217.9726,W,3.00,211.11,040811,,,A*7A
$GPRMC,190455.000,A,3748.6650,N,12217.9733,W,2.19,214.00,040811,,,A*75
$GPRMC,190456.000,A,3748.6646,N,12217.9736,W,2.44,195.96,040811,,,A*79
$GPRMC,190457.000,A,3748.6638,N,12217.9745,W,2.55,200.20,040811,,,A*77
$GPRMC,190458.000,A,3748.6630,N,12217.9750,W,2.77,192.89,040811,,,A*7F
$GPRMC,190459.000,A,3748.6625,N,12217.9755,W,1.76,204.45,040811,,,A*71
$GPRMC,190500.000,A,3748.6620,N,12217.9765,W,2.21,184.62,040811,,,A*75
$GPRMC,190501.000,A,3748.6613,N,12217.9770,W,2.16,189.09,040811,,,A*74
$GPRMC,190502.000,A,3748.6604,N,12217.9772,W,2.29,176.19,040811,,,A*7E
$GPRMC,190503.000,A,3748.6597,N,12217.9774,W,2.19,191.49,040811,,,A*7F
$GPRMC,190504.000,A,3748.6591,N,12217.9780,W,1.73,203.08,040811,,,A*77
$GPRMC,190505.000,A,3748.6584,N,12217.9785,W,1.95,198.71,040811,,,A*70
$GPRMC,190506.000,A,3748.6578,N,12217.9789,W,2.09,186.12,040811,,,A*70
$GPRMC,190507.000,A,3748.6569,N,12217.9798,W,2.17,201.64,040811,,,A*73
$GPRMC,190508.000,A,3748.6562,N,12217.9805,W,1.95,199.63,040811,,,A*70
$GPRMC,190509.000,A,3748.6554,N,12217.9813,W,2.43,200.21,040811,,,A*7E
$GPRMC,190510.000,A,3748.6547,N,12217.9821,W,2.33,184.48,040811,,,A*72
$GPRMC,190511.000,A,3748.6539,N,12217.9824,W,2.23,178.97,040811,,,A*7F
$GPRMC,190512.000,A,3748.6533,N,12217.9827,W,2.07,178.21,040811,,,A*7E
$GPRMC,190513.000,A,3748.6526,N,12217.9829,W,2.28,186.43,040811,,,A*7D
$GPRMC,190514.000,A,3748.6519,N,12217.9834,W,2.44,194.43,040811,,,A*73
$GPRMC,190515.000,A,3748.6512,N,12217.9837,W,2.50,197.83,040811,,,A*70
$GPRMC,190516.000,A,3748.6505,N,12217.9842,W,2.27,201.46,040811,,,A*72
$GPRMC,190517.000,A,3748.6498,N,12217.9848,W,2.25,200.06,040811,,,A*7B
$GPRMC,190518.000,A,3748.6492,N,12217.9853,W,2.06,199.64,040811,,,A*72
$GPRMC,190519.000,A,3748.6485,N,12217.9859,W,2.24,196.00,040811,,,A*72
$GPRMC,190520.000,A,3748.6478,N,12217.9863,W,2.25,196.23,040811,,,A*73
$GPRMC,190521.000,A,3748.6471,N,12217.9869,W,2.65,208.49,040811,,,A*7D
$GPRMC,190522.000,A,3748.6464,N,12217.9877,W,2.84,209.11,040811,,,A*76
$GPRMC,190523.000,A,3748.6456,N,12217.9881,W,2.60,205.12,040811,,,A*7A
$GPRMC,190524.000,A,3748.6448,N,12217.9888,W,2.82,212.15,040811,,,A*76
$GPRMC,190525.000,A,3748.6441,N,12217.9893,W,2.21,207.20,040811,,,A*7F
$GPRMC,190526.000,A,3748.6435,N,12217.9899,W,2.49,202.59,040811,,,A*70
$GPRMC,190527.000,A,3748.6427,N,12217.9909,W,2.78,215.99,040811,,,A*72
$GPRMC,190528.000,A,3748.6420,N,12217.9919,W,2.82,216.15,040811,,,A*79
$GPRMC,190529.000,A,3748.6413,N,12217.9929,W,2.89,215.06,040811,,,A*71
$GPRMC,190530.000,A,3748.6405,N,12217.9935,W,2.60,208.33,040811,,,A*7E
$GPRMC,190531.000,A,3748.6398,N,12217.9940,W,2.86,208.53,040811,,,A*70
$GPRMC,190532.000,A,3748.6390,N,12217.9946,W,2.65,208.40,040811,,,A*72
$GPRMC,190533.000,A,3748.6384,N,12217.9951,W,2.55,198.19,040811,,,A*75
$GPRMC,190534.000,A,3748.6375,N,12217.9958,W,2.35,191.96,040811,,,A*7D
$GPRMC,190535.000,A,3748.6369,N,12217.9965,W,2.70,208.40,040811,,,A*76
$GPRMC,190536.000,A,3748.6362,N,12217.9974,W,2.65,211.36,040811,,,A*73
$GPRMC,190537.000,A,3748.6358,N,12217.9981,W,2.59,204.34,040811,,,A*78
$GPRMC,190538.000,A,3748.6354,N,12217.9987,W,2.59,211.69,040811,,,A*71
$GPRMC,190539.000,A,3748.6349,N,12217.9998,W,2.71,210.51,040811,,,A*72
$GPRMC,190540.000,A,3748.6345,N,12218.0008,W,2.79,209.01,040811,,,A*73
$GPRMC,190541.000,A,3748.6339,N,12218.0016,W,2.71,200.09,040811,,,A*7F
$GPRMC,190542.000,A,3748.6334,N,12218.0026,W,2.57,198.18,040811,,,A*74
$GPRMC,190543.000,A,3748.6328,N,12218.0033,W,2.67,212.16,040811,,,A*70
$GPRMC,190544.000,A,3748.6322,N,12218.0034,W,2.55,202.10,040811,,,A*7C
$GPRMC,190545.000,A,3748.6310,N,12218.0046,W,3.29,209.50,040811,,,A*7C
$GPRMC,190546.000,A,3748.6304,N,12218.0056,W,3.87,230.33,040811,,,A*70
$GPRMC,190547.000,A,3748.6299,N,12218.0067,W,3.18,226.54,040811,,,A*76
$GPRMC,190548.000,A,3748.6293,N,12218.0070,W,2.92,228.23,040811,,,A*78
$GPRMC,190549.000,A,3748.6289,N,12218.0069,W,2.51,209.49,040811,,,A*7A
$GPRMC,190550.000,A,3748.6283,N,12218.0066,W,2.54,202.90,040811,,,A*7D
$GPRMC,190551.000,A,3748.6277,N,12218.0071,W,2.44,202.69,040811,,,A*76
$GPRMC,190552.000,A,3748.6271,N,12218.0077,W,2.32,190.62,040811,,,A*77
$GPRMC,190553.000,A,3748.6264,N,12218.0082,W,2.16,193.90,040811,,,A*70
$GPRMC,190554.000,A,3748.6257,N,12218.0087,W,2.75,200.14,040811,,,A*72
$GPRMC,190555.000,A,3748.6245,N,12218.0090,W,2.57,178.91,040811,,,A*77
$GPRMC,190556.000,A,3748.6234,N,12218.0084,W,2.73,146.26,040811,,,A*70
$GPRMC,190557.000,A,3748.6220,N,12218.0084,W,2.71,131.47,040811,,,A*71
$GPRMC,190558.000,A,3748.6210,N,12218.0078,W,3.06,123.29,040811,,,A*74
$GPRMC,190559.000,A,3748.6201,N,12218.0068,W,2.88,132.88,040811,,,A*78
$GPRMC,190600.000,A,3748.6187,N,12218.0061,W,2.79,133.50,040811,,,A*79
$GPRMC,190601.000,A,3748.6179,N,12218.0055,W,2.40,121.04,040811,,,A*76
$GPRMC,190602.000,A,3748.6170,N,12218.0049,W,2.99,114.67,040811,,,A*76
$GPRMC,190603.000,A,3748.6164,N,12218.0040,W,3.03,114.30,040811,,,A*7B
$GPRMC,190604.000,A,3748.6156,N,12218.0033,W,2.65,128.34,040811,,,A*73
$GPRMC,190605.000,A,3748.6155,N,12218.0022,W,2.29,119.39,040811,,,A*76
$GPRMC,190606.000,A,3748.6151,N,12218.0010,W,2.80,95.37,040811,,,A*48
$GPRMC,190607.000,A,3748.6148,N,12218.0000,W,2.86,104.05,040811,,,A*7E
$GPRMC,190608.000,A,3748.6146,N,12217.9986,W,2.55,93.09,040811,,,A*43
$GPRMC,190609.000,A,3748.6142,N,12217.9976,W,2.67,118.60,040811,,,A*75
$GPRMC,190610.000,A,3748.6137,N,12217.9965,W,2.44,126.88,040811,,,A*77
$GPRMC,190611.000,A,3748.6131,N,12217.9955,W,2.46,117.57,040811,,,A*71
$GPRMC,190612.000,A,3748.6125,N,12217.9943,W,2.99,106.49,040811,,,A*7D
$GPRMC,190613.000,A,3748.6119,N,12217.9932,W,2.97,118.16,040811,,,A*7E
$GPRMC,190614.000,A,3748.6116,N,12217.9921,W,2.77,121.18,040811,,,A*7E
$GPRMC,190615.000,A,3748.6112,N,12217.9910,W,2.61,110.97,040811,,,A*7B
$GPRMC,190616.000,A,3748.6107,N,12217.9901,W,2.60,111.03,040811,,,A*71
$GPRMC,190617.000,A,3748.6102,N,12217.9893,W,2.55,116.16,040811,,,A*7A
$GPRMC,190618.000,A,3748.6098,N,12217.9882,W,2.63,115.51,040811,,,A*72
$GPRMC,190619.000,A,3748.6095,N,12217.9872,W,2.72,111.93,040811,,,A*7B
$GPRMC,190620.000,A,3748.6093,N,12217.9863,W,2.43,112.89,040811,,,A*7D
$GPRMC,190621.000,A,3748.6091,N,12217.9855,W,2.50,122.55,040811,,,A*7B
$GPRMC,190622.000,A,3748.6087,N,12217.9845,W,2.44,124.26,040811,,,A*79
$GPRMC,190623.000,A,3748.6084,N,12217.9835,W,2.83,128.08,040811,,,A*77
$GPRMC,190624.000,A,3748.6081,N,12217.9825,W,2.83,116.22,040811,,,A*71
$GPRMC,190625.000,A,3748.6076,N,12217.9815,W,2.85,112.21,040811,,,A*7A
$GPRMC,190626.000,A,3748.6072,N,12217.9807,W,2.48,115.39,040811,,,A*71
$GPRMC,190627.000,A,3748.6069,N,12217.9797,W,2.38,116.94,040811,,,A*7F
$GPRMC,190628.000,A,3748.6064,N,12217.9788,W,2.51,122.72,040811,,,A*73
$GPRMC,190629.000,A,3748.6061,N,12217.9780,W,2.68,117.60,040811,,,A*70
$GPRMC,190630.000,A,3748.6057,N,12217.9773,W,2.41,117.73,040811,,,A*78
$GPRMC,190631.000,A,3748.6053,N,12217.9766,W,2.66,122.48,040811,,,A*72
$GPRMC,190632.000,A,3748.6049,N,12217.9758,W,2.72,107.82,040811,,,A*73
$GPRMC,190633.000,A,3748.6046,N,12217.9748,W,3.03,123.16,040811,,,A*70
$GPRMC,190634.000,A,3748.6042,N,12217.9738,W,2.16,109.66,040811,,,A*7E
$GPRMC,190635.000,A,3748.6037,N,12217.9731,W,2.07,103.39,040811,,,A*74
$GPRMC,190636.000,A,3748.6032,N,12217.9720,W,1.93,111.51,040811,,,A*71
$GPRMC,190637.000,A,3748.6029,N,12217.9709,W,2.53,112.25,040811,,,A*7E
$GPRMC,190638.000,A,3748.6028,N,12217.9697,W,2.62,113.30,040811,,,A*71
$GPRMC,190639.000,A,3748.6025,N,12217.9683,W,2.62,105.34,040811,,,A*7B
$GPRMC,190640.000,A,3748.6019,N,12217.9674,W,2.71,114.64,040811,,,A*75
$GPRMC,190641.000,A,3748.6013,N,12217.9665,W,2.68,113.80,040811,,,A*7B
$GPRMC,190642.000,A,3748.6008,N,12217.9656,W,2.84,115.38,040811,,,A*75
$GPRMC,190643.000,A,3748.6002,N,12217.9648,W,2.68,121.12,040811,,,A*7C
$GPRMC,190644.000,A,3748.5999,N,12217.9639,W,2.67,116.05,040811,,,A*78
$GPRMC,190645.000,A,3748.5998,N,12217.9630,W,2.40,114.62,040811,,,A*77
$GPRMC,190646.000,A,3748.5995,N,12217.9623,W,2.39,120.26,040811,,,A*72
$GPRMC,190647.000,A,3748.5983,N,12217.9614,W,2.50,122.84,040811,,,A*75
$GPRMC,190648.000,A,3748.5969,N,12217.9606,W,2.12,119.42,040811,,,A*79
$GPRMC,190649.000,A,3748.5970,N,12217.9594,W,2.41,97.74,040811,,,A*4C
$GPRMC,190650.000,A,3748.5966,N,12217.9583,W,3.06,109.91,040811,,,A*7A
$GPRMC,190651.000,A,3748.5963,N,12217.9571,W,2.61,110.93,040811,,,A*79
$GPRMC,190652.000,A,3748.5958,N,12217.9559,W,2.51,108.32,040811,,,A*79
$GPRMC,190653.000,A,3748.5952,N,12217.9550,W,2.67,121.22,040811,,,A*74
$GPRMC,190654.000,A,3748.5948,N,12217.9542,W,2.85,110.61,040811,,,A*72
$GPRMC,190655.000,A,3748.5945,N,12217.9536,W,2.85,108.57,040811,,,A*71
$GPRMC,190656.000,A,3748.5940,N,12217.9532,W,2.63,105.35,040811,,,A*72
$GPRMC,190657.000,A,3748.5937,N,12217.9527,W,2.65,101.39,040811,,,A*79
$GPRMC,190658.000,A,3748.5935,N,12217.9519,W,2.52,99.42,040811,,,A*41
$GPRMC,190659.000,A,3748.5931,N,12217.9511,W,2.79,115.77,040811,,,A*76
$GPRMC,190700.000,A,3748.5930,N,12217.9501,W,3.22,114.33,040811,,,A*75
$GPRMC,190701.000,A,3748.5927,N,12217.9490,W,2.79,111.13,040811,,,A*73
$GPRMC,190702.000,A,3748.5925,N,12217.9483,W,2.53,114.43,040811,,,A*78
$GPRMC,190703.000,A,3748.5925,N,12217.9475,W,2.60,107.06,040811,,,A*73
$GPRMC,190704.000,A,3748.5924,N,12217.9466,W,2.65,103.30,040811,,,A*73
$GPRMC,190705.000,A,3748.5921,N,12217.9457,W,1.98,117.48,040811,,,A*7E
$GPRMC,190706.000,A,3748.5918,N,12217.9448,W,2.45,106.13,040811,,,A*74
$GPRMC,190707.000,A,3748.5913,N,12217.9438,W,2.40,111.12,040811,,,A*7B
$GPRMC,190708.000,A,3748.5909,N,12217.9429,W,2.13,108.85,040811,,,A*7F
$GPRMC,190709.000,A,3748.5901,N,12217.9419,W,2.85,86.49,040811,,,A*4D
$GPRMC,190710.000,A,3748.5899,N,12217.9411,W,2.73,90.48,040811,,,A*42
$GPRMC,190711.000,A,3748.5891,N,12217.9401,W,2.40,108.55,040811,,,A*76
$GPRMC,190712.000,A,3748.5886,N,12217.9393,W,2.10,106.46,040811,,,A*76
$GPRMC,190713.000,A,3748.5881,N,12217.9384,W,2.21,103.29,040811,,,A*78
$GPRMC,190714.000,A,3748.5875,N,12217.9378,W,2.09,103.67,040811,,,A*77
$GPRMC,190715.000,A,3748.5866,N,12217.9374,W,1.00,109.08,040811,,,A*71
$GPRMC,190716.000,A,3748.5860,N,12217.9377,W,1.03,177.30,040811,,,A*76
$GPRMC,190717.000,A,3748.5854,N,12217.9379,W,0.96,187.12,040811,,,A*7C
$GPRMC,190718.000,A,3748.5846,N,12217.9384,W,1.52,175.30,040811,,,A*76
$GPRMC,190719.000,A,3748.5840,N,12217.9390,W,1.95,201.74,040811,,,A*7F
$GPRMC,190720.000,A,3748.5834,N,12217.9399,W,2.21,207.85,040811,,,A*7B
$GPRMC,190721.000,A,3748.5826,N,12217.9408,W,2.76,210.65,040811,,,A*7C
$GPRMC,190722.000,A,3748.5820,N,12217.9415,W,2.69,197.64,040811,,,A*76
$GPRMC,190723.000,A,3748.5813,N,12217.9418,W,2.50,201.22,040811,,,A*7E
$GPRMC,190724.000,A,3748.5808,N,12217.9424,W,2.92,216.51,040811,,,A*70
$GPRMC,190725.000,A,3748.5801,N,12217.9429,W,2.56,201.49,040811,,,A*72
$GPRMC,190726.000,A,3748.5795,N,12217.9430,W,2.48,188.23,040811,,,A*7A
$GPRMC,190727.000,A,3748.5786,N,12217.9433,W,2.50,182.13,040811,,,A*7A
$GPRMC,190728.000,A,3748.5780,N,12217.9434,W,2.23,191.64,040811,,,A*72
$GPRMC,190729.000,A,3748.5773,N,12217.9439,W,2.31,188.47,040811,,,A*78
$GPRMC,190730.000,A,3748.5766,N,12217.9441,W,2.15,192.55,040811,,,A*75
$GPRMC,190731.000,A,3748.5759,N,12217.9450,W,2.05,212.04,040811,,,A*76
$GPRMC,190732.000,A,3748.5750,N,12217.9457,W,2.33,205.44,040811,,,A*7C
$GPRMC,190733.000,A,3748.5744,N,12217.9467,W,2.46,196.72,040811,,,A*75
$GPRMC,190734.000,A,3748.5737,N,12217.9475,W,2.59,194.44,040811,,,A*7C
$GPRMC,190735.000,A,3748.5727,N,12217.9478,W,2.59,210.64,040811,,,A*7C
$GPRMC,190736.000,A,3748.5720,N,12217.9484,W,2.93,215.65,040811,,,A*79
$GPRMC,190737.000,A,3748.5712,N,12217.9490,W,2.62,209.26,040811,,,A*78
$GPRMC,190738.000,A,3748.5707,N,12217.9499,W,2.68,211.62,040811,,,A*79
$GPRMC,190739.000,A,3748.5702,N,12217.9504,W,2.24,217.27,040811,,,A*77
$GPRMC,190740.000,A,3748.5697,N,12217.9515,W,2.13,211.71,040811,,,A*75
$GPRMC,190741.000,A,3748.5693,N,12217.9515,W,2.21,197.29,040811,,,A*71
$GPRMC,190742.000,A,3748.5687,N,12217.9518,W,2.28,195.98,040811,,,A*7B
$GPRMC,190743.000,A,3748.5681,N,12217.9521,W,2.46,207.62,040811,,,A*73
$GPRMC,190744.000,A,3748.5676,N,12217.9525,W,2.41,204.44,040811,,,A*78
$GPRMC,190745.000,A,3748.5670,N,12217.9529,W,2.50,210.19,040811,,,A*7E
$GPRMC,190746.000,A,3748.5664,N,12217.9534,W,2.47,208.40,040811,,,A*77
$GPRMC,190747.000,A,3748.5658,N,12217.9546,W,2.48,201.68,040811,,,A*70
$GPRMC,190748.000,A,3748.5651,N,12217.9556,W,2.31,197.67,040811,,,A*7A
$GPRMC,190749.000,A,3748.5645,N,12217.9559,W,2.31,195.82,040811,,,A*78
$GPRMC,190750.000,A,3748.5639,N,12217.9561,W,2.20,197.11,040811,,,A*78
$GPRMC,190751.000,A,3748.5633,N,12217.9563,W,2.14,195.11,040811,,,A*74
$GPRMC,190752.000,A,3748.5628,N,12217.9566,W,2.30,196.81,040811,,,A*74
$GPRMC,190753.000,A,3748.5622,N,12217.9569,W,1.92,202.38,040811,,,A*77
$GPRMC,190754.000,A,3748.5615,N,12217.9573,W,2.63,218.09,040811,,,A*7B
$GPRMC,190755.000,A,3748.5607,N,12217.9580,W,2.80,207.24,040811,,,A*79
$GPRMC,190756.000,A,3748.5598,N,12217.9584,W,2.38,192.69,040811,,,A*7E
$GPRMC,190757.000,A,3748.5589,N,12217.9588,W,2.48,196.20,040811,,,A*7D
$GPRMC,190758.000,A,3748.5582,N,12217.9593,W,2.59,208.40,040811,,,A*71
$GPRMC,190759.000,A,3748.5576,N,12217.9601,W,2.86,214.54,040811,,,A*79
$GPRMC,190800.000,A,3748.5567,N,12217.9610,W,2.88,200.19,040811,,,A*78
$GPRMC,190801.000,A,3748.5558,N,12217.9614,W,2.77,206.44,040811,,,A*7F
$GPRMC,190802.000,A,3748.5552,N,12217.9618,W,2.68,203.19,040811,,,A*79
$GPRMC,190803.000,A,3748.5545,N,12217.9624,W,2.84,208.20,040811,,,A*72
$GPRMC,190804.000,A,3748.5536,N,12217.9633,W,2.94,214.61,040811,,,A*7E
$GPRMC,190805.000,A,3748.5526,N,12217.9640,W,2.96,208.65,040811,,,A*71
$GPRMC,190806.000,A,3748.5517,N,12217.9646,W,3.00,203.57,040811,,,A*72
$GPRMC,190807.000,A,3748.5507,N,12217.9652,W,2.93,204.40,040811,,,A*7D
$GPRMC,190808.000,A,3748.5499,N,12217.9659,W,2.76,204.94,040811,,,A*7D
$GPRMC,190809.000,A,3748.5492,N,12217.9668,W,2.79,208.65,040811,,,A*78
$GPRMC,190810.000,A,3748.5485,N,12217.9675,W,2.86,206.46,040811,,,A*75
$GPRMC,190811.000,A,3748.5477,N,12217.9683,W,2.81,209.63,040811,,,A*7F
$GPRMC,190812.000,A,3748.5470,N,12217.9691,W,2.69,207.37,040811,,,A*71
$GPRMC,190813.000,A,3748.5461,N,12217.9698,W,2.99,209.36,040811,,,A*79
$GPRMC,190814.000,A,3748.5452,N,12217.9704,W,2.79,206.53,040811,,,A*78
$GPRMC,190815.000,A,3748.5444,N,12217.9711,W,2.62,205.22,040811,,,A*75
$GPRMC,190816.000,A,3748.5436,N,12217.9716,W,2.49,208.11,040811,,,A*70
$GPRMC,190817.000,A,3748.5430,N,12217.9722,W,2.49,211.21,040811,,,A*7B
$GPRMC,190818.000,A,3748.5422,N,12217.9729,W,2.64,213.01,040811,,,A*73
$GPRMC,190819.000,A,3748.5415,N,12217.9736,W,2.44,210.83,040811,,,A*73
$GPRMC,190820.000,A,3748.5408,N,12217.9743,W,2.71,211.83,040811,,,A*70
$GPRMC,190821.000,A,3748.5401,N,12217.9750,W,3.10,211.35,040811,,,A*71
$GPRMC,190822.000,A,3748.5393,N,12217.9755,W,3.06,204.85,040811,,,A*73
$GPRMC,190823.000,A,3748.5386,N,12217.9761,W,2.69,192.16,040811,,,A*7F
$GPRMC,190824.000,A,3748.5378,N,12217.9765,W,2.79,190.49,040811,,,A*74
$GPRMC,190825.000,A,3748.5372,N,12217.9766,W,2.67,170.11,040811,,,A*70
$GPRMC,190826.000,A,3748.5365,N,12217.9766,W,2.64,183.93,040811,,,A*70
$GPRMC,190827.000,A,3748.5360,N,12217.9769,W,2.44,193.71,040811,,,A*74
$GPRMC,190828.000,A,3748.5353,N,12217.9775,W,2.20,190.50,040811,,,A*74
$GPRMC,190829.000,A,3748.5346,N,12217.9778,W,2.17,191.13,040811,,,A*7E
$GPRMC,190830.000,A,3748.5341,N,12217.9781,W,2.29,195.46,040811,,,A*7E
$GPRMC,190831.000,A,3748.5335,N,12217.9791,W,2.41,219.29,040811,,,A*7D
$GPRMC,190832.000,A,3748.5327,N,12217.9800,W,2.55,204.01,040811,,,A*79
$GPRMC,190833.000,A,3748.5318,N,12217.9806,W,2.79,202.42,040811,,,A*7D
$GPRMC,190834.000,A,3748.5310,N,12217.9814,W,2.53,213.58,040811,,,A*72
$GPRMC,190835.000,A,3748.5303,N,12217.9818,W,2.11,202.89,040811,,,A*77
$GPRMC,190836.000,A,3748.5298,N,12217.9827,W,2.12,205.48,040811,,,A*72
$GPRMC,190837.000,A,3748.5293,N,12217.9832,W,2.28,202.51,040811,,,A*7A
$GPRMC,190838.000,A,3748.5286,N,12217.9836,W,2.31,192.92,040811,,,A*78
$GPRMC,190839.000,A,3748.5278,N,12217.9838,W,2.33,177.84,040811,,,A*78
$GPRMC,190840.000,A,3748.5271,N,12217.9840,W,2.48,198.69,040811,,,A*7E
$GPRMC,190841.000,A,3748.5264,N,12217.9843,W,2.22,201.40,040811,,,A*7C
$GPRMC,190842.000,A,3748.5259,N,12217.9847,W,2.24,197.90,040811,,,A*72
$GPRMC,190843.000,A,3748.5252,N,12217.9849,W,2.54,199.63,040811,,,A*73
$GPRMC,190844.000,A,3748.5248,N,12217.9855,W,2.40,202.87,040811,,,A*7C
$GPRMC,190845.000,A,3748.5243,N,12217.9858,W,2.15,201.86,040811,,,A*79
$GPRMC,190846.000,A,3748.5236,N,12217.9865,W,2.28,209.80,040811,,,A*76
$GPRMC,190847.000,A,3748.5229,N,12217.9869,W,2.37,209.16,040811,,,A*74
$GPRMC,190848.000,A,3748.5223,N,12217.9878,W,2.47,204.97,040811,,,A*72
$GPRMC,190849.000,A,3748.5216,N,12217.9888,W,2.63,213.72,040811,,,A*71
$GPRMC,190850.000,A,3748.5209,N,12217.9897,W,2.61,206.79,040811,,,A*74
$GPRMC,190851.000,A,3748.5200,N,12217.9904,W,2.94,209.11,040811,,,A*7C
$GPRMC,190852.000,A,3748.5192,N,12217.9912,W,2.83,205.87,040811,,,A*75
$GPRMC,190853.000,A,3748.5184,N,12217.9917,W,2.76,205.98,040811,,,A*72
$GPRMC,190854.000,A,3748.5176,N,12217.9923,W,2.77,203.09,040811,,,A*70
$GPRMC,190855.000,A,3748.5167,N,12217.9930,W,2.61,198.51,040811,,,A*78
$GPRMC,190856.000,A,3748.5159,N,12217.9937,W,2.59,199.48,040811,,,A*73
$GPRMC,190857.000,A,3748.5152,N,12217.9942,W,2.27,211.61,040811,,,A*7A
$GPRMC,190858.000,A,3748.5146,N,12217.9949,W,2.19,222.68,040811,,,A*7F
$GPRMC,190859.000,A,3748.5141,N,12217.9954,W,2.16,229.59,040811,,,A*73
$GPRMC,190900.000,A,3748.5135,N,12217.9957,W,1.93,202.64,040811,,,A*77
$GPRMC,190901.000,A,3748.5129,N,12217.9962,W,2.24,191.68,040811,,,A*77
$GPRMC,190902.000,A,3748.5123,N,12217.9967,W,2.55,203.32,040811,,,A*7A
$GPRMC,190903.000,A,3748.5114,N,12217.9972,W,2.35,200.03,040811,,,A*7C
$GPRMC,190904.000,A,3748.5105,N,12217.9977,W,2.16,205.01,040811,,,A*78
$GPRMC,190905.000,A,3748.5096,N,12217.9982,W,2.85,215.62,040811,,,A*76
$GPRMC,190906.000,A,3748.5088,N,12217.9989,W,2.33,213.68,040811,,,A*70
$GPRMC,190907.000,A,3748.5082,N,12217.9995,W,2.85,199.97,040811,,,A*7A
$GPRMC,190908.000,A,3748.5072,N,12218.0004,W,2.52,211.01,040811,,,A*7B
$GPRMC,190909.000,A,3748.5065,N,12218.0012,W,2.42,208.55,040811,,,A*73
$GPRMC,190910.000,A,3748.5058,N,12218.0017,W,2.41,203.20,040811,,,A*7A
$GPRMC,190911.000,A,3748.5050,N,12218.0022,W,2.43,210.34,040811,,,A*70
$GPRMC,190912.000,A,3748.5042,N,12218.0025,W,2.79,188.80,040811,,,A*73
$GPRMC,190913.000,A,3748.5035,N,12218.0031,W,2.60,213.43,040811,,,A*71
$GPRMC,190914.000,A,3748.5027,N,12218.0040,W,2.87,219.26,040811,,,A*73
$GPRMC,190915.000,A,3748.5021,N,12218.0048,W,2.88,216.58,040811,,,A*75
$GPRMC,190916.000,A,3748.5014,N,12218.0056,W,2.88,207.25,040811,,,A*75
$GPRMC,190917.000,A,3748.5008,N,12218.0063,W,2.85,202.98,040811,,,A*71
$GPRMC,190918.000,A,3748.5000,N,12218.0067,W,2.47,205.16,040811,,,A*7D
$GPRMC,190919.000,A,3748.4994,N,12218.0072,W,2.12,224.32,040811,,,A*78
$GPRMC,190920.000,A,3748.4986,N,12218.0078,W,2.68,205.75,040811,,,A*76
$GPRMC,190921.000,A,3748.4976,N,12218.0082,W,2.76,197.52,040811,,,A*7F
$GPRMC,190922.000,A,3748.4969,N,12218.0092,W,2.37,211.73,040811,,,A*78
$GPRMC,190923.000,A,3748.4961,N,12218.0102,W,2.69,221.16,040811,,,A*72
$GPRMC,190924.000,A,3748.4953,N,12218.0109,W,3.02,207.32,040811,,,A*71
$GPRMC,190925.000,A,3748.4947,N,12218.0113,W,2.44,205.23,040811,,,A*7F
$GPRMC,190926.000,A,3748.4940,N,12218.0117,W,2.73,213.84,040811,,,A*71
$GPRMC,190927.000,A,3748.4934,N,12218.0122,W,2.61,209.05,040811,,,A*74
$GPRMC,190928.000,A,3748.4925,N,12218.0130,W,2.86,200.22,040811,,,A*7D
$GPRMC,190929.000,A,3748.4916,N,12218.0136,W,2.90,190.36,040811,,,A*72
$GPRMC,190930.000,A,3748.4908,N,12218.0137,W,2.60,189.38,040811,,,A*7D
$GPRMC,190931.000,A,3748.4899,N,12218.0143,W,2.55,196.45,040811,,,A*74
$GPRMC,190932.000,A,3748.4891,N,12218.0149,W,2.90,204.82,040811,,,A*7F
$GPRMC,190933.000,A,3748.4883,N,12218.0154,W,2.79,201.08,040811,,,A*71
$GPRMC,190934.000,A,3748.4875,N,12218.0155,W,2.77,192.52,040811,,,A*76
$GPRMC,190935.000,A,3748.4868,N,12218.0162,W,2.83,207.79,040811,,,A*72
$GPRMC,190936.000,A,3748.4862,N,12218.0171,W,3.10,215.59,040811,,,A*73
$GPRMC,190937.000,A,3748.4853,N,12218.0180,W,2.99,217.09,040811,,,A*79
$GPRMC,190938.000,A,3748.4848,N,12218.0189,W,2.86,218.08,040811,,,A*75
$GPRMC,190939.000,A,3748.4843,N,12218.0198,W,2.88,217.90,040811,,,A*7F
$GPRMC,190940.000,A,3748.4839,N,12218.0208,W,3.22,211.57,040811,,,A*7A
$GPRMC,190941.000,A,3748.4834,N,12218.0218,W,3.01,212.96,040811,,,A*78
$GPRMC,190942.000,A,3748.4829,N,12218.0227,W,3.03,207.66,040811,,,A*72
$GPRMC,190943.000,A,3748.4823,N,12218.0233,W,2.90,211.04,040811,,,A*74
$GPRMC,190944.000,A,3748.4816,N,12218.0240,W,3.12,215.13,040811,,,A*78
$GPRMC,190945.000,A,3748.4808,N,12218.0248,W,2.71,210.77,040811,,,A*7D
$GPRMC,190946.000,A,3748.4801,N,12218.0254,W,2.74,210.27,040811,,,A*7A
$GPRMC,190947.000,A,3748.4793,N,12218.0260,W,3.16,215.18,040811,,,A*74
$GPRMC,190948.000,A,3748.4785,N,12218.0265,W,2.89,203.10,040811,,,A*71
$GPRMC,190949.000,A,3748.4777,N,12218.0268,W,2.78,198.27,040811,,,A*7B
$GPRMC,190950.000,A,3748.4768,N,12218.0273,W,3.10,209.31,040811,,,A*74
$GPRMC,190951.000,A,3748.4759,N,12218.0279,W,2.94,210.57,040811,,,A*78
$GPRMC,190952.000,A,3748.4751,N,12218.0286,W,2.67,209.91,040811,,,A*7D
$GPRMC,190953.000,A,3748.4743,N,12218.0291,W,2.81,206.40,040811,,,A*72
$GPRMC,190954.000,A,3748.4735,N,12218.0298,W,3.01,210.59,040811,,,A*7B
$GPRMC,190955.000,A,3748.4725,N,12218.0304,W,2.63,206.04,040811,,,A*75
$GPRMC,190956.000,A,3748.4716,N,12218.0310,W,3.29,209.65,040811,,,A*74
$GPRMC,190957.000,A,3748.4706,N,12218.0315,W,3.03,213.61,040811,,,A*76
$GPRMC,190958.000,A,3748.4698,N,12218.0321,W,2.84,206.58,040811,,,A*78
$GPRMC,190959.000,A,3748.4689,N,12218.0328,W,3.10,201.16,040811,,,A*71
$GPRMC,191000.000,A,3748.4681,N,12218.0332,W,2.76,198.62,040811,,,A*77
$GPRMC,191001.000,A,3748.4672,N,12218.0337,W,2.86,199.41,040811,,,A*70
$GPRMC,191002.000,A,3748.4664,N,12218.0342,W,2.70,189.61,040811,,,A*7C
$GPRMC,191003.000,A,3748.4657,N,12218.0346,W,2.73,186.75,040811,,,A*70
$GPRMC,191004.000,A,3748.4651,N,12218.0351,W,2.28,194.80,040811,,,A*70
$GPRMC,191005.000,A,3748.4645,N,12218.0353,W,2.21,193.88,040811,,,A*70
$GPRMC,191006.000,A,3748.4637,N,12218.0355,W,2.40,190.89,040811,,,A*75
$GPRMC,191007.000,A,3748.4629,N,12218.0359,W,2.84,193.58,040811,,,A*70
$GPRMC,191008.000,A,3748.4617,N,12218.0359,W,3.61,181.29,040811,,,A*7D
$GPRMC,191009.000,A,3748.4605,N,12218.0363,W,3.33,197.13,040811,,,A*7F
$GPRMC,191010.000,A,3748.4595,N,12218.0368,W,2.46,193.62,040811,,,A*77
$GPRMC,191011.000,A,3748.4586,N,12218.0372,W,2.10,173.45,040811,,,A*77
$GPRMC,191012.000,A,3748.4577,N,12218.0375,W,2.00,176.84,040811,,,A*74
$GPRMC,191013.000,A,3748.4570,N,12218.0376,W,2.14,171.68,040811,,,A*71
$GPRMC,191014.000,A,3748.4562,N,12218.0378,W,2.12,175.92,040811,,,A*7C
$GPRMC,191015.000,A,3748.4557,N,12218.0376,W,1.99,181.66,040811,,,A*75
$GPRMC,191016.000,A,3748.4549,N,12218.0380,W,1.76,177.99,040811,,,A*78
$GPRMC,191017.000,A,3748.4545,N,12218.0374,W,1.72,181.24,040811,,,A*75
$GPRMC,191018.000,A,3748.4536,N,12218.0379,W,2.18,206.07,040811,,,A*71
$GPRMC,191019.000,A,3748.4529,N,12218.0380,W,2.04,212.63,040811,,,A*72
$GPRMC,191020.000,A,3748.4516,N,12218.0389,W,2.54,221.66,040811,,,A*7D
$GPRMC,191021.000,A,3748.4507,N,12218.0393,W,2.69,198.22,040811,,,A*78
$GPRMC,191022.000,A,3748.4498,N,12218.0399,W,2.76,196.96,040811,,,A*79
$GPRMC,191023.000,A,3748.4486,N,12218.0405,W,2.52,184.04,040811,,,A*7B
$GPRMC,191024.000,A,3748.4477,N,12218.0403,W,2.38,182.25,040811,,,A*7D
$GPRMC,191025.000,A,3748.4468,N,12218.0403,W,3.05,179.43,040811,,,A*79
$GPRMC,191026.000,A,3748.4458,N,12218.0405,W,2.66,177.97,040811,,,A*7C
$GPRMC,191027.000,A,3748.4450,N,12218.0405,W,2.70,186.61,040811,,,A*75
$GPRMC,191028.000,A,3748.4441,N,12218.0408,W,2.76,184.65,040811,,,A*77
$GPRMC,191029.000,A,3748.4432,N,12218.0415,W,2.32,189.50,040811,,,A*75
$GPRMC,191030.000,A,3748.4423,N,12218.0419,W,2.72,191.15,040811,,,A*7D
$GPRMC,191031.000,A,3748.4414,N,12218.0423,W,2.69,194.88,040811,,,A*7A
$GPRMC,191032.000,A,3748.4406,N,12218.0426,W,2.90,191.81,040811,,,A*75
$GPRMC,191033.000,A,3748.4398,N,12218.0429,W,2.68,185.74,040811,,,A*73
$GPRMC,191034.000,A,3748.4390,N,12218.0434,W,2.25,182.40,040811,,,A*79
$GPRMC,191035.000,A,3748.4384,N,12218.0438,W,2.20,169.30,040811,,,A*76
$GPRMC,191036.000,A,3748.4376,N,12218.0440,W,2.28,155.18,040811,,,A*7A
$GPRMC,191037.000,A,3748.4368,N,12218.0444,W,2.59,168.76,040811,,,A*70
$GPRMC,191038.000,A,3748.4358,N,12218.0448,W,2.36,182.77,040811,,,A*7C
$GPRMC,191039.000,A,3748.4351,N,12218.0449,W,2.04,190.45,040811,,,A*76
$GPRMC,191040.000,A,3748.4342,N,12218.0452,W,1.84,194.17,040811,,,A*78
$GPRMC,191041.000,A,3748.4333,N,12218.0459,W,2.05,204.94,040811,,,A*7F
$GPRMC,191042.000,A,3748.4325,N,12218.0458,W,1.96,173.31,040811,,,A*7F
$GPRMC,191043.000,A,3748.4319,N,12218.0459,W,2.22,168.67,040811,,,A*75
$GPRMC,191044.000,A,3748.4312,N,12218.0463,W,2.23,189.11,040811,,,A*7F
$GPRMC,191045.000,A,3748.4305,N,12218.0465,W,2.26,198.05,040811,,,A*7E
$GPRMC,191046.000,A,3748.4299,N,12218.0473,W,1.87,191.26,040811,,,A*7E
$GPRMC,191047.000,A,3748.4289,N,12218.0475,W,2.01,179.95,040811,,,A*7B
$GPRMC,191048.000,A,3748.4280,N,12218.0478,W,2.44,168.91,040811,,,A*75
$GPRMC,191049.000,A,3748.4271,N,12218.0480,W,2.19,178.31,040811,,,A*7E
$GPRMC,191050.000,A,3748.4264,N,12218.0481,W,1.75,174.25,040811,,,A*73
$GPRMC,191051.000,A,3748.4255,N,12218.0483,W,1.94,162.05,040811,,,A*78
$GPRMC,191052.000,A,3748.4250,N,12218.0485,W,1.53,173.25,040811,,,A*71
$GPRMC,191053.000,A,3748.4242,N,12218.0487,W,1.92,175.06,040811,,,A*7B
$GPRMC,191054.000,A,3748.4235,N,12218.0484,W,2.27,170.48,040811,,,A*7D
$GPRMC,191055.000,A,3748.4227,N,12218.0484,W,1.81,185.41,040811,,,A*73
$GPRMC,191056.000,A,3748.4221,N,12218.0489,W,1.66,187.93,040811,,,A*7F
$GPRMC,191057.000,A,3748.4216,N,12218.0490,W,1.52,184.85,040811,,,A*71
$GPRMC,191058.000,A,3748.4210,N,12218.0492,W,1.82,174.11,040811,,,A*75
$GPRMC,191059.000,A,3748.4205,N,12218.0495,W,1.95,188.32,040811,,,A*73
$GPRMC,191100.000,A,3748.4197,N,12218.0499,W,2.32,194.31,040811,,,A*7A
$GPRMC,191101.000,A,3748.4187,N,12218.0503,W,2.96,192.70,040811,,,A*75
$GPRMC,191102.000,A,3748.4178,N,12218.0511,W,2.98,195.62,040811,,,A*7F
$GPRMC,191103.000,A,3748.4169,N,12218.0519,W,2.45,189.53,040811,,,A*79
$GPRMC,191104.000,A,3748.4160,N,12218.0523,W,2.57,189.10,040811,,,A*7A
$GPRMC,191105.000,A,3748.4151,N,12218.0534,W,2.30,198.06,040811,,,A*79
$GPRMC,191106.000,A,3748.4142,N,12218.0548,W,2.58,198.91,040811,,,A*73
$GPRMC,191107.000,A,3748.4134,N,12218.0553,W,2.70,185.80,040811,,,A*7F
$GPRMC,191108.000,A,3748.4124,N,12218.0559,W,3.02,179.84,040811,,,A*78
$GPRMC,191109.000,A,3748.4113,N,12218.0567,W,3.17,189.31,040811,,,A*75
$GPRMC,191110.000,A,3748.4104,N,12218.0568,W,2.91,190.76,040811,,,A*70
$GPRMC,191111.000,A,3748.4093,N,12218.0580,W,2.90,196.18,040811,,,A*77
$GPRMC,191112.000,A,3748.4086,N,12218.0587,W,2.31,200.52,040811,,,A*7E
$GPRMC,191113.000,A,3748.4083,N,12218.0590,W,2.33,242.87,040811,,,A*70
$GPRMC,191114.000,A,3748.4081,N,12218.0596,W,2.73,244.34,040811,,,A*79
$GPRMC,191115.000,A,3748.4082,N,12218.0604,W,2.81,254.83,040811,,,A*73
$GPRMC,191116.000,A,3748.4082,N,12218.0615,W,2.77,262.90,040811,,,A*7E
$GPRMC,191117.000,A,3748.4084,N,12218.0624,W,2.99,284.26,040811,,,A*7E
$GPRMC,191118.000,A,3748.4087,N,12218.0630,W,2.84,283.54,040811,,,A*79
$GPRMC,191119.000,A,3748.4090,N,12218.0639,W,2.62,280.08,040811,,,A*75
$GPRMC,191120.000,A,3748.4092,N,12218.0648,W,2.61,276.92,040811,,,A*72
$GPRMC,191121.000,A,3748.4093,N,12218.0656,W,2.36,271.12,040811,,,A*70
$GPRMC,191122.000,A,3748.4094,N,12218.0664,W,2.46,268.49,040811,,,A*74
$GPRMC,191123.000,A,3748.4097,N,12218.0675,W,2.65,273.31,040811,,,A*72
$GPRMC,191124.000,A,3748.4099,N,12218.0685,W,2.33,272.15,040811,,,A*70
$GPRMC,191125.000,A,3748.4101,N,12218.0693,W,2.17,273.17,040811,,,A*73
$GPRMC,191126.000,A,3748.4103,N,12218.0701,W,2.31,274.62,040811,,,A*79
$GPRMC,191127.000,A,3748.4105,N,12218.0710,W,2.64,280.46,040811,,,A*73
$GPRMC,191128.000,A,3748.4107,N,12218.0719,W,2.30,266.27,040811,,,A*79
$GPRMC,191129.000,A,3748.4106,N,12218.0725,W,2.12,251.93,040811,,,A*7D
$GPRMC,191130.000,A,3748.4102,N,12218.0730,W,1.77,250.39,040811,,,A*74
$GPRMC,191131.000,A,3748.4099,N,12218.0734,W,1.48,260.47,040811,,,A*74
$GPRMC,191132.000,A,3748.4100,N,12218.0741,W,1.90,261.65,040811,,,A*70
$GPRMC,191133.000,A,3748.4098,N,12218.0747,W,1.94,259.37,040811,,,A*7F
$GPRMC,191134.000,A,3748.4098,N,12218.0755,W,2.08,270.15,040811,,,A*76
$GPRMC,191135.000,A,3748.4099,N,12218.0763,W,2.32,281.53,040811,,,A*76
$GPRMC,191136.000,A,3748.4101,N,12218.0772,W,2.29,284.84,040811,,,A*70
$GPRMC,191137.000,A,3748.4105,N,12218.0782,W,2.21,283.67,040811,,,A*78
$GPRMC,191138.000,A,3748.4108,N,12218.0789,W,1.80,282.65,040811,,,A*7A
