$ADVER,3080,2.3
$GPWPL,3748.7975,N,12217.8626,W,00001*61
$ADPMB,5,0
$GPRMC,185658.141,A,3748.7975,N,12217.8626,W,0.07,109.38,040811,,,A*7E
$GPGGA,185659.141,3748.7976,N,12217.8627,W,1,04,2.2,5.5,M,-25.1,M,,0000*68
$GPGSA,A,3,28,08,05,13,,,,,,,,,3.5,2.2,2.6*35
$GPGSV,3,1,12,08,66,004,34,28,61,253,34,13,22,150,35,05,19,271,29*7F
$GPGSV,3,2,12,07,56,068,39,26,27,316,31,19,25,051,34,10,13,219,*79
$GPGSV,3,3,12,11,12,105,,17,09,188,,03,01,035,,48,00,000,34*7C
$GPRMC,185659.141,A,3748.7976,N,12217.8627,W,0.02,90.50,040811,,,A*47
$GPVTG,90.50,T,,M,0.02,N,0.0,K,A*33
$GPGGA,185700.141,3748.7977,N,12217.8628,W,1,04,2.2,4.9,M,-25.1,M,,0000*66
$GPGSA,A,3,28,08,05,13,,,,,,,,,3.5,2.2,2.6*35
$GPRMC,185700.141,A,3748.7977,N,12217.8628,W,0.02,211.90,040811,,,A*73
$GPVTG,211.90,T,,M,0.02,N,0.0,K,A*04
$GPGGA,185701.000,3748.7978,N,12217.8629,W,1,04,2.2,4.7,M,-25.1,M,,0000*63
$GPGSA,A,3,28,08,05,13,,,,,,,,,3.5,2.2,2.6*35
$GPRMC,185701.000,A,3748.7978,N,12217.8629,W,0.05,88.83,040811,,,A*4F
$GPVTG,88.83,T,,M,0.05,N,0.1,K,A*32
$GPGGA,185702.000,3748.7978,N,12217.8629,W,1,04,2.2,4.6,M,-25.1,M,,0000*61
$GPGSA,A,3,28,08,05,13,,,,,,,,,3.5,2.2,2.6*35
$GPRMC,185702.000,A,3748.7978,N,12217.8629,W,0.01,46.90,040811,,,A*48
$GPVTG,46.90,T,,M,0.01,N,0.0,K,A*37
$GPGGA,185703.000,3748.7978,N,12217.8628,W,1,04,2.2,4.4,M,-25.1,M,,0000*63
$GPGSA,A,3,28,08,05,13,,,,,,,,,3.5,2.2,2.6*35
$GPRMC,185703.000,A,3748.7978,N,12217.8628,W,0.03,226.82,040811,,,A*7D
$GPVTG,226.82,T,,M,0.03,N,0.1,K,A*03
$GPGGA,185704.000,3748.7979,N,12217.8628,W,1,05,1.8,4.3,M,-25.1,M,,0000*6A
$GPGSA,A,3,28,08,05,13,07,,,,,,,,3.2,1.8,2.6*3C
$GPGSV,3,1,12,08,66,004,33,28,61,253,34,13,22,150,34,05,19,271,29*79
$GPGSV,3,2,12,07,56,068,40,26,27,316,31,19,25,051,35,10,13,219,31*74
$GPGSV,3,3,12,11,12,105,18,17,09,188,,03,01,035,,48,00,000,32*73
$GPVTG,79.74,T,,M,0.02,N,0.0,K,A*32
$GPGGA,185705.000,3748.7973,N,12217.8631,W,1,06,1.4,6.2,M,-25.1,M,,0000*65
$GPGSA,A,3,28,08,05,13,07,26,,,,,,,2.5,1.4,2.0*34
$GPRMC,185705.000,A,3748.7973,N,12217.8631,W,0.23,349.15,040811,,,A*7C
$GPVTG,349.15,T,,M,0.23,N,0.4,K,A*02
$GPGGA,185706.000,3748.7975,N,12217.8631,W,1,06,1.4,6.3,M,-25.1,M,,0000*61
$GPGSA,A,3,28,08,05,13,07,26,,,,,,,2.5,1.4,2.0*34
$GPRMC,185706.000,A,3748.7975,N,12217.8631,W,0.82,25.89,040811,,,A*4E
$GPVTG,25.89,T,,M,0.82,N,1.5,K,A*35
$GPGGA,185707.000,3748.7981,N,12217.8623,W,1,06,1.4,5.0,M,-25.1,M,,0000*68
$GPGSA,A,3,28,08,05,13,07,26,,,,,,,2.5,1.4,2.0*34
$GPRMC,185707.000,A,3748.7981,N,12217.8623,W,0.50,10.16,040811,,,A*48
$GPVTG,10.16,T,,M,0.50,N,0.9,K,A*37
$GPGGA,185708.000,3748.7983,N,12217.8621,W,1,06,1.4,3.8,M,-25.1,M,,0000*69
$GPGSA,A,3,28,08,05,13,07,26,,,,,,,2.5,1.4,2.0*34
$GPRMC,185708.000,A,3748.7983,N,12217.8621,W,0.07,306.07,040811,,,A*71
$GPVTG,306.07,T,,M,0.07,N,0.1,K,A*09
$GPGGA,185709.000,3748.7984,N,12217.8619,W,1,06,1.4,2.8,M,-25.1,M,,0000*65
$GPGSA,A,3,28,08,05,13,07,26,,,,,,,2.5,1.4,2.0*34
$GPGSV,3,1,12,08,66,004,37,28,61,253,36,07,56,068,35,26,27,316,37*71
$GPGSV,3,2,12,19,25,051,32,13,22,150,32,05,19,271,30,10,13,219,26*71
$GPGSV,3,3,12,11,12,105,23,17,09,188,22,03,01,035,,48,44,197,31*77
$GPRMC,185709.000,A,3748.7984,N,12217.8619,W,0.28,188.58,040811,,,A*7F
$GPVTG,188.58,T,,M,0.28,N,0.5,K,A*0E
$GPGGA,185710.000,3748.7984,N,12217.8618,W,1,06,1.4,3.6,M,-25.1,M,,0000*63
$GPGSA,A,3,28,08,05,13,07,26,,,,,,,2.5,1.4,2.0*34
$GPRMC,185710.000,A,3748.7984,N,12217.8618,W,0.38,10.40,040811,,,A*4E
$GPVTG,10.40,T,,M,0.38,N,0.7,K,A*34
$GPGGA,185711.000,3748.7989,N,12217.8609,W,1,06,1.4,3.5,M,-25.1,M,,0000*6C
$GPGSA,A,3,28,08,05,13,07,26,,,,,,,2.5,1.4,2.0*34
$GPRMC,185711.000,A,3748.7989,N,12217.8609,W,0.79,68.20,040811,,,A*4E
$GPVTG,68.20,T,,M,0.79,N,1.5,K,A*3B
$GPGGA,185712.000,3748.7990,N,12217.8608,W,1,06,1.4,4.1,M,-25.1,M,,0000*65
$GPGSA,A,3,28,08,05,13,07,26,,,,,,,2.5,1.4,2.0*34
$GPRMC,185712.000,A,3748.7990,N,12217.8608,W,0.31,134.81,040811,,,A*7B
$GPVTG,134.81,T,,M,0.31,N,0.6,K,A*06
$GPGGA,185713.000,3748.7990,N,12217.8604,W,1,05,2.5,3.8,M,-25.1,M,,0000*67
$GPGSA,A,3,08,05,13,07,26,,,,,,,,4.8,2.5,4.1*30
$GPRMC,185713.000,A,3748.7990,N,12217.8604,W,0.36,15.57,040811,,,A*48
$GPVTG,15.57,T,,M,0.36,N,0.7,K,A*39
$GPGGA,185714.000,3748.7987,N,12217.8607,W,1,06,1.4,4.3,M,-25.1,M,,0000*68
$GPGSA,A,3,28,08,05,13,07,26,,,,,,,2.5,1.4,2.0*34
$GPGSV,3,1,11,08,66,004,22,28,61,253,18,07,56,068,29,26,27,316,24*75
$GPGSV,3,2,11,19,25,051,29,13,22,150,24,05,19,271,23,10,13,219,25*7E
$GPGSV,3,3,11,11,12,105,,17,09,188,22,03,01,035,*44
$GPRMC,185714.000,A,3748.7987,N,12217.8607,W,0.42,354.21,040811,,,A*7E
$GPVTG,354.21,T,,M,0.42,N,0.8,K,A*02
$GPGGA,185715.000,3748.7985,N,12217.8606,W,1,06,1.4,5.0,M,-25.1,M,,0000*68
$GPGSA,A,3,28,08,05,13,07,26,,,,,,,2.5,1.4,2.0*34
$GPRMC,185715.000,A,3748.7985,N,12217.8606,W,0.22,3.41,040811,,,A*7D
$GPVTG,3.41,T,,M,0.22,N,0.4,K,A*0F
$GPGGA,185716.000,3748.7983,N,12217.8606,W,1,05,2.5,4.8,M,-25.1,M,,0000*65
$GPGSA,A,3,08,05,13,07,26,,,,,,,,4.8,2.5,4.1*30
$GPRMC,185716.000,A,3748.7983,N,12217.8606,W,0.09,173.40,040811,,,A*76
$GPVTG,173.40,T,,M,0.09,N,0.2,K,A*07
$GPGGA,185717.000,3748.7980,N,12217.8608,W,1,06,1.4,5.1,M,-25.1,M,,0000*60
$GPGSA,A,3,28,08,05,13,07,26,,,,,,,2.5,1.4,2.0*34
$GPRMC,185717.000,A,3748.7980,N,12217.8608,W,0.13,225.10,040811,,,A*74
$GPVTG,225.10,T,,M,0.13,N,0.2,K,A*09
$GPGGA,185718.000,3748.7976,N,12217.8611,W,1,06,1.4,6.3,M,-25.1,M,,0000*6F
$GPGSA,A,3,28,08,05,13,07,26,,,,,,,2.5,1.4,2.0*34
$GPRMC,185718.000,A,3748.7976,N,12217.8611,W,0.15,213.36,040811,,,A*7D
$GPVTG,213.36,T,,M,0.15,N,0.3,K,A*0F
$GPGGA,185719.000,3748.7976,N,12217.8611,W,1,06,1.4,6.5,M,-25.1,M,,0000*68
$GPGSA,A,3,28,08,05,13,07,26,,,,,,,2.5,1.4,2.0*34
$GPGSV,3,1,11,08,66,004,28,28,61,253,19,07,56,068,32,26,27,316,32*73
$GPGSV,3,2,11,19,25,051,29,13,22,150,28,05,19,271,24,10,13,219,32*73
$GPGSV,3,3,11,11,12,105,22,17,09,188,26,03,01,035,*40
$GPVTG,220.77,T,,M,0.06,N,0.1,K,A*0A
$GPGGA,185720.000,3748.7973,N,12217.8617,W,1,06,1.4,7.6,M,-25.1,M,,0000*63
$GPGSA,A,3,28,08,05,13,07,26,,,,,,,2.5,1.4,2.0*34
$GPRMC,185720.000,A,3748.7973,N,12217.8617,W,0.67,234.56,040811,,,A*73
$GPVTG,234.56,T,,M,0.67,N,1.2,K,A*09
$GPGGA,185721.000,3748.7972,N,12217.8620,W,1,06,1.4,7.4,M,-25.1,M,,0000*65
$GPGSA,A,3,28,08,05,13,07,26,,,,,,,2.5,1.4,2.0*34
$GPRMC,185721.000,A,3748.7972,N,12217.8620,W,0.19,237.81,040811,,,A*77
$GPVTG,237.81,T,,M,0.19,N,0.4,K,A*0E
$GPGGA,185722.000,3748.7977,N,12217.8618,W,1,06,1.4,6.0,M,-25.1,M,,0000*6D
$GPGSA,A,3,28,08,05,13,07,26,,,,,,,2.5,1.4,2.0*34
$GPRMC,185722.000,A,3748.7977,N,12217.8618,W,0.50,41.81,040811,,,A*44
$GPVTG,41.81,T,,M,0.50,N,0.9,K,A*3D
$GPGGA,185723.000,3748.7978,N,12217.8616,W,1,06,1.4,5.4,M,-25.1,M,,0000*6A
$GPGSA,A,3,28,08,05,13,07,26,,,,,,,2.5,1.4,2.0*34
$GPRMC,185723.000,A,3748.7978,N,12217.8616,W,0.81,43.01,040811,,,A*42
$GPVTG,43.01,T,,M,0.81,N,1.5,K,A*36
$GPGGA,185724.000,3748.7981,N,12217.8613,W,1,06,1.4,4.2,M,-25.1,M,,0000*69
$GPGSA,A,3,28,08,05,13,07,26,,,,,,,2.5,1.4,2.0*34
$GPGSV,3,1,11,08,66,004,30,28,61,253,20,07,56,068,28,26,27,316,32*7B
$GPGSV,3,2,11,19,25,051,36,13,22,150,27,05,19,271,23,10,13,219,28*7E
$GPGSV,3,3,11,11,12,105,25,17,09,188,20,03,01,035,*41
$GPRMC,185724.000,A,3748.7981,N,12217.8613,W,0.44,47.37,040811,,,A*4E
$GPVTG,47.37,T,,M,0.44,N,0.8,K,A*32
$GPGGA,185725.000,3748.7983,N,12217.8610,W,1,06,1.4,3.7,M,-25.1,M,,0000*6B
$GPGSA,A,3,28,08,05,13,07,26,,,,,,,2.5,1.4,2.0*34
$GPRMC,185725.000,A,3748.7983,N,12217.8610,W,0.16,21.70,040811,,,A*4A
$GPVTG,21.70,T,,M,0.16,N,0.3,K,A*3D
$GPGGA,185726.000,3748.7984,N,12217.8610,W,1,06,1.4,3.9,M,-25.1,M,,0000*61
$GPGSA,A,3,28,08,05,13,07,26,,,,,,,2.5,1.4,2.0*34
$GPRMC,185726.000,A,3748.7984,N,12217.8610,W,0.16,215.68,040811,,,A*72
$GPVTG,215.68,T,,M,0.16,N,0.3,K,A*01
$GPGGA,185727.000,3748.7983,N,12217.8612,W,1,06,1.4,4.9,M,-25.1,M,,0000*62
$GPGSA,A,3,28,08,05,13,07,26,,,,,,,2.5,1.4,2.0*34
$GPRMC,185727.000,A,3748.7983,N,12217.8612,W,0.26,218.14,040811,,,A*73
$GPVTG,218.14,T,,M,0.26,N,0.5,K,A*02
$GPGGA,185728.000,3748.7985,N,12217.8610,W,1,06,1.4,5.5,M,-25.1,M,,0000*64
$GPGSA,A,3,28,08,05,13,07,26,,,,,,,2.5,1.4,2.0*34
$GPRMC,185728.000,A,3748.7985,N,12217.8610,W,0.35,74.45,040811,,,A*46
$GPVTG,74.45,T,,M,0.35,N,0.6,K,A*3F
$GPGGA,185729.000,3748.7987,N,12217.8607,W,1,06,1.4,5.7,M,-25.1,M,,0000*63
$GPGSA,A,3,28,08,05,13,07,26,,,,,,,2.5,1.4,2.0*34
$GPGSV,3,1,12,08,66,004,37,28,61,253,20,07,56,068,39,26,27,316,32*7F
$GPGSV,3,2,12,19,25,051,34,13,22,150,32,05,19,271,24,10,13,219,30*75
$GPGSV,3,3,12,11,12,105,32,17,09,188,23,03,01,035,,48,44,197,31*76
$GPRMC,185729.000,A,3748.7987,N,12217.8607,W,0.14,52.42,040811,,,A*43
$GPVTG,52.42,T,,M,0.14,N,0.3,K,A*3A
$GPGGA,185730.000,3748.7988,N,12217.8607,W,1,06,1.4,5.7,M,-25.1,M,,0000*64
$GPGSA,A,3,28,08,05,13,07,26,,,,,,,2.5,1.4,2.0*34
$GPRMC,185730.000,A,3748.7988,N,12217.8607,W,0.28,236.18,040811,,,A*74
$GPVTG,236.18,T,,M,0.28,N,0.5,K,A*0C
$GPGGA,185731.000,3748.7986,N,12217.8610,W,1,06,1.4,6.5,M,-25.1,M,,0000*6C
$GPGSA,A,3,28,08,05,13,07,26,,,,,,,2.5,1.4,2.0*34
$GPRMC,185731.000,A,3748.7986,N,12217.8610,W,0.28,204.85,040811,,,A*78
$GPVTG,204.85,T,,M,0.28,N,0.5,K,A*09
$GPGGA,185732.000,3748.7987,N,12217.8610,W,1,05,2.3,6.4,M,-25.1,M,,0000*68
$GPGSA,A,3,28,08,05,07,26,,,,,,,,4.0,2.3,3.2*32
$GPRMC,185732.000,A,3748.7987,N,12217.8610,W,0.19,200.16,040811,,,A*76
$GPVTG,200.16,T,,M,0.19,N,0.4,K,A*04
$GPGGA,185733.000,3748.7986,N,12217.8610,W,1,06,1.4,5.9,M,-25.1,M,,0000*61
$GPGSA,A,3,28,08,05,13,07,26,,,,,,,2.5,1.4,2.0*34
$GPRMC,185733.000,A,3748.7986,N,12217.8610,W,0.07,354.72,040811,,,A*7B
$GPVTG,354.72,T,,M,0.07,N,0.1,K,A*0C
$GPGGA,185734.000,3748.7990,N,12217.8609,W,1,06,1.4,3.8,M,-25.1,M,,0000*6E
$GPGSA,A,3,28,08,05,13,07,26,,,,,,,2.5,1.4,2.0*34
$GPGSV,3,1,12,08,66,004,30,28,61,253,21,07,56,068,37,26,27,316,29*7D
$GPGSV,3,2,12,19,25,051,34,13,22,150,25,05,19,271,22,10,13,219,29*7D
$GPGSV,3,3,12,11,12,105,26,17,09,188,27,03,01,035,,48,44,197,25*72
$GPRMC,185734.000,A,3748.7990,N,12217.8609,W,0.22,10.99,040811,,,A*42
$GPGGA,185735.000,3748.7994,N,12217.8609,W,1,06,1.4,2.3,M,-25.1,M,,0000*61
$GPGSA,A,3,28,08,05,13,07,26,,,,,,,2.5,1.4,2.0*34
$GPRMC,185735.000,A,3748.7994,N,12217.8609,W,0.41,46.79,040811,,,A*4F
$GPVTG,46.79,T,,M,0.41,N,0.8,K,A*3C
$GPGGA,185736.000,3748.7993,N,12217.8612,W,1,06,1.4,2.5,M,-25.1,M,,0000*69
$GPGSA,A,3,28,08,05,13,07,26,,,,,,,2.5,1.4,2.0*34
$GPRMC,185736.000,A,3748.7993,N,12217.8612,W,0.16,284.80,040811,,,A*79
$GPVTG,284.80,T,,M,0.16,N,0.3,K,A*0F
$GPGGA,185737.000,3748.7999,N,12217.8612,W,1,06,1.4,1.4,M,-25.1,M,,0000*60
$GPGSA,A,3,28,08,05,13,07,26,,,,,,,2.5,1.4,2.0*34
$GPRMC,185737.000,A,3748.7999,N,12217.8612,W,0.64,30.06,040811,,,A*44
$GPVTG,30.06,T,,M,0.64,N,1.2,K,A*39
$GPGGA,185738.000,3748.7996,N,12217.8611,W,1,06,1.4,1.6,M,-25.1,M,,0000*61
$GPGSA,A,3,28,08,05,13,07,26,,,,,,,2.5,1.4,2.0*34
$GPRMC,185738.000,A,3748.7996,N,12217.8611,W,0.82,185.43,040811,,,A*71
$GPVTG,185.43,T,,M,0.82,N,1.5,K,A*08
$GPGGA,185739.000,3748.7995,N,12217.8608,W,1,06,1.4,0.5,M,-25.1,M,,0000*69
$GPGSA,A,3,28,08,05,13,07,26,,,,,,,2.5,1.4,2.0*34
$GPGSV,3,1,12,08,66,004,27,28,61,253,29,07,56,068,37,26,27,316,26*7C
$GPGSV,3,2,12,19,25,051,34,13,22,150,34,05,19,271,25,10,13,219,32*70
$GPGSV,3,3,12,11,12,105,22,17,09,188,26,03,01,035,,48,44,197,32*71
$GPRMC,185739.000,A,3748.7995,N,12217.8608,W,0.03,141.24,040811,,,A*7B
$GPVTG,141.24,T,,M,0.03,N,0.1,K,A*0D
$GPGGA,185740.000,3748.7994,N,12217.8605,W,1,06,1.4,0.7,M,-25.1,M,,0000*69
$GPGSA,A,3,28,08,05,13,07,26,,,,,,,2.5,1.4,2.0*34
$GPRMC,185740.000,A,3748.7994,N,12217.8605,W,0.50,37.13,040811,,,A*4B
$GPVTG,37.13,T,,M,0.50,N,0.9,K,A*37
$GPGGA,185741.000,3748.7990,N,12217.8605,W,1,06,1.4,2.4,M,-25.1,M,,0000*6D
$GPGSA,A,3,28,08,05,13,07,26,,,,,,,2.5,1.4,2.0*34
$GPRMC,185741.000,A,3748.7990,N,12217.8605,W,0.57,73.07,040811,,,A*4C
$GPVTG,73.07,T,,M,0.57,N,1.0,K,A*3D
$GPGGA,185742.000,3748.7991,N,12217.8601,W,1,06,1.4,3.2,M,-25.1,M,,0000*6C
$GPGSA,A,3,28,08,05,13,07,26,,,,,,,2.5,1.4,2.0*34
$GPRMC,185742.000,A,3748.7991,N,12217.8601,W,0.35,356.25,040811,,,A*7A
$GPVTG,356.25,T,,M,0.35,N,0.7,K,A*0B
$GPGGA,185743.000,3748.7991,N,12217.8601,W,1,06,1.4,3.8,M,-25.1,M,,0000*67
$GPGSA,A,3,28,08,05,13,07,26,,,,,,,2.5,1.4,2.0*34
$GPRMC,185743.000,A,3748.7991,N,12217.8601,W,0.10,9.43,040811,,,A*75
$GPVTG,9.43,T,,M,0.10,N,0.2,K,A*00
$GPGGA,185744.000,3748.7988,N,12217.8603,W,1,06,1.4,4.9,M,-25.1,M,,0000*6C
$GPGSA,A,3,28,08,05,13,07,26,,,,,,,2.5,1.4,2.0*34
$GPGSV,3,1,12,08,66,004,37,28,61,253,27,07,56,068,37,26,27,316,34*70
$GPGSV,3,2,12,19,25,051,39,13,22,150,31,05,19,271,23,10,13,219,26*7B
$GPGSV,3,3,12,11,12,105,25,17,09,188,26,03,01,035,,48,44,197,30*74
$GPRMC,185744.000,A,3748.7988,N,12217.8603,W,0.20,168.66,040811,,,A*7A
$GPVTG,168.66,T,,M,0.20,N,0.4,K,A*04
$GPGGA,185745.000,3748.7985,N,12217.8604,W,1,06,1.4,5.9,M,-25.1,M,,0000*66
$GPGSA,A,3,28,08,05,13,07,26,,,,,,,2.5,1.4,2.0*34
$GPRMC,185745.000,A,3748.7985,N,12217.8604,W,0.58,154.08,040811,,,A*79
$GPVTG,154.08,T,,M,0.58,N,1.1,K,A*08
$GPGGA,185746.000,3748.7980,N,12217.8606,W,1,06,1.4,7.2,M,-25.1,M,,0000*6B
$GPGSA,A,3,28,08,05,13,07,26,,,,,,,2.5,1.4,2.0*34
$GPRMC,185746.000,A,3748.7980,N,12217.8606,W,0.31,143.58,040811,,,A*71
$GPVTG,143.58,T,,M,0.31,N,0.6,K,A*02
$GPGGA,185747.000,3748.7984,N,12217.8601,W,1,06,1.4,6.0,M,-25.1,M,,0000*6A
$GPGSA,A,3,28,08,05,13,07,26,,,,,,,2.5,1.4,2.0*34
$GPRMC,185747.000,A,3748.7984,N,12217.8601,W,0.36,126.35,040811,,,A*7C
$GPVTG,126.35,T,,M,0.36,N,0.7,K,A*0C
$GPGGA,185748.000,3748.7988,N,12217.8596,W,1,06,1.4,5.3,M,-25.1,M,,0000*64
$GPGSA,A,3,28,08,05,13,07,26,,,,,,,2.5,1.4,2.0*34
$GPRMC,185748.000,A,3748.7988,N,12217.8596,W,0.43,79.15,040811,,,A*49
$GPVTG,79.15,T,,M,0.43,N,0.8,K,A*38
$GPGGA,185749.000,3748.7988,N,12217.8592,W,1,06,1.4,5.9,M,-25.1,M,,0000*6B
$GPGSA,A,3,28,08,05,13,07,26,,,,,,,2.5,1.4,2.0*34
$GPGSV,3,1,12,08,66,005,30,28,61,253,24,07,56,069,28,26,28,316,24*74
$GPGSV,3,2,12,19,25,051,39,13,21,150,42,05,19,270,23,10,13,219,27*7C
$GPGSV,3,3,12,11,12,104,29,17,10,188,20,03,00,035,,48,44,197,30*76
$GPVTG,138.34,T,,M,0.08,N,0.1,K,A*09
$GPGGA,185750.000,3748.7991,N,12217.8587,W,1,06,1.4,5.2,M,-25.1,M,,0000*64
$GPGSA,A,3,28,08,05,13,07,26,,,,,,,2.5,1.4,2.0*34
$GPRMC,185750.000,A,3748.7991,N,12217.8587,W,0.13,163.36,040811,,,A*76
$GPVTG,163.36,T,,M,0.13,N,0.2,K,A*0C
$GPGGA,185751.000,3748.7990,N,12217.8585,W,1,06,1.4,5.7,M,-25.1,M,,0000*63
$GPGSA,A,3,28,08,05,13,07,26,,,,,,,2.5,1.4,2.0*34
$GPRMC,185751.000,A,3748.7990,N,12217.8585,W,0.24,141.93,040811,,,A*7F
$GPVTG,141.93,T,,M,0.24,N,0.4,K,A*01
$GPGGA,185752.000,3748.7990,N,12217.8583,W,1,06,1.4,5.8,M,-25.1,M,,0000*69
$GPGSA,A,3,28,08,05,13,07,26,,,,,,,2.5,1.4,2.0*34
$GPRMC,185752.000,A,3748.7990,N,12217.8583,W,0.26,185.53,040811,,,A*7C
$GPVTG,185.53,T,,M,0.26,N,0.5,K,A*06
$GPGGA,185753.000,3748.7990,N,12217.8580,W,1,06,1.4,6.3,M,-25.1,M,,0000*63
$GPGSA,A,3,28,08,05,13,07,26,,,,,,,2.5,1.4,2.0*34
$GPRMC,185753.000,A,3748.7990,N,12217.8580,W,0.48,196.64,040811,,,A*70
$GPVTG,196.64,T,,M,0.48,N,0.9,K,A*04
$GPGGA,185754.000,3748.7989,N,12217.8580,W,1,06,1.4,7.2,M,-25.1,M,,0000*6C
$GPGSA,A,3,28,08,05,13,07,26,,,,,,,2.5,1.4,2.0*34
$GPGSV,3,1,12,08,66,005,29,28,61,253,26,07,56,069,28,26,28,316,20*7A
$GPGSV,3,2,12,19,25,051,26,13,21,150,42,05,19,270,23,10,13,219,27*72
$GPGSV,3,3,12,11,12,104,16,17,10,188,24,03,00,035,,48,44,197,31*7F
$GPRMC,185754.000,A,3748.7989,N,12217.8580,W,0.15,220.39,040811,,,A*71
$GPVTG,220.39,T,,M,0.15,N,0.3,K,A*00
$GPGGA,185755.000,3748.7985,N,12217.8584,W,1,06,1.4,8.5,M,-25.1,M,,0000*6D
$GPGSA,A,3,28,08,05,13,07,26,,,,,,,2.5,1.4,2.0*34
$GPRMC,185755.000,A,3748.7985,N,12217.8584,W,0.46,98.08,040811,,,A*4D
$GPVTG,98.08,T,,M,0.46,N,0.8,K,A*3E
$GPGGA,185756.000,3748.7982,N,12217.8586,W,1,06,1.4,9.4,M,-25.1,M,,0000*6B
$GPGSA,A,3,28,08,05,13,07,26,,,,,,,2.5,1.4,2.0*34
$GPRMC,185756.000,A,3748.7982,N,12217.8586,W,0.43,183.29,040811,,,A*76
$GPVTG,183.29,T,,M,0.43,N,0.8,K,A*03
$GPGGA,185757.000,3748.7979,N,12217.8590,W,1,06,1.4,10.3,M,-25.1,M,,0000*56
$GPGSA,A,3,28,08,05,13,07,26,,,,,,,2.5,1.4,2.0*34
$GPRMC,185757.000,A,3748.7979,N,12217.8590,W,0.55,201.02,040811,,,A*73
$GPVTG,201.02,T,,M,0.55,N,1.0,K,A*0D
$GPGGA,185758.000,3748.7978,N,12217.8587,W,1,06,1.4,10.8,M,-25.1,M,,0000*55
$GPGSA,A,3,28,08,05,13,07,26,,,,,,,2.5,1.4,2.0*34
$GPRMC,185758.000,A,3748.7978,N,12217.8587,W,0.26,170.32,040811,,,A*79
$GPVTG,170.32,T,,M,0.26,N,0.5,K,A*0B
$GPGGA,185759.000,3748.7977,N,12217.8591,W,1,06,1.4,10.3,M,-25.1,M,,0000*57
$GPGSA,A,3,28,08,05,13,07,26,,,,,,,2.5,1.4,2.0*34
$GPGSV,3,1,12,08,66,005,28,28,61,253,22,07,56,069,28,26,28,316,21*7E
$GPGSV,3,2,12,19,25,051,35,13,21,150,42,05,19,270,22,10,13,219,27*71
$GPGSV,3,3,12,11,12,104,27,17,10,188,24,03,00,035,,48,44,197,28*75
$GPRMC,185759.000,A,3748.7977,N,12217.8591,W,0.44,232.17,040811,,,A*76
$GPVTG,232.17,T,,M,0.44,N,0.8,K,A*00
$GPGGA,185800.000,3748.7976,N,12217.8596,W,1,06,1.4,10.3,M,-25.1,M,,0000*52
$GPGSA,A,3,28,08,05,13,07,26,,,,,,,2.5,1.4,2.0*34
$GPRMC,185800.000,A,3748.7976,N,12217.8596,W,0.43,246.47,040811,,,A*72
$GPVTG,246.47,T,,M,0.43,N,0.8,K,A*01
$GPGGA,185801.000,3748.7974,N,12217.8596,W,1,06,1.4,11.6,M,-25.1,M,,0000*55
$GPGSA,A,3,28,08,05,13,07,26,,,,,,,2.5,1.4,2.0*34
$GPRMC,185801.000,A,3748.7974,N,12217.8596,W,0.17,116.92,040811,,,A*7E
$GPVTG,116.92,T,,M,0.17,N,0.3,K,A*05
$GPGGA,185802.000,3748.7969,N,12217.8596,W,1,06,1.4,13.5,M,-25.1,M,,0000*5B
$GPGSA,A,3,28,08,05,13,07,26,,,,,,,2.5,1.4,2.0*34
$GPRMC,185802.000,A,3748.7969,N,12217.8596,W,0.39,129.90,040811,,,A*73
$GPVTG,129.90,T,,M,0.39,N,0.7,K,A*03
$GPGGA,185803.000,3748.7974,N,12217.8593,W,1,06,1.4,12.8,M,-25.1,M,,0000*5F
$GPGSA,A,3,28,08,05,13,07,26,,,,,,,2.5,1.4,2.0*34
$GPRMC,185803.000,A,3748.7974,N,12217.8593,W,0.46,299.46,040811,,,A*70
$GPVTG,299.46,T,,M,0.46,N,0.8,K,A*07
$GPGGA,185804.000,3748.7983,N,12217.8584,W,1,06,1.4,10.2,M,-25.1,M,,0000*5E
$GPGSA,A,3,28,08,05,13,07,26,,,,,,,2.5,1.4,2.0*34
$GPGSV,3,1,12,08,66,005,25,28,61,253,23,07,56,069,32,26,28,316,25*7D
$GPGSV,3,2,12,19,25,051,36,13,21,150,31,05,19,270,21,10,13,219,27*75
$GPGSV,3,3,12,11,12,104,26,17,10,188,23,03,00,035,,48,44,197,32*78
$GPVTG,122.12,T,,M,0.11,N,0.2,K,A*0D
$GPGGA,185805.000,3748.7987,N,12217.8584,W,1,06,1.4,8.1,M,-25.1,M,,0000*61
$GPGSA,A,3,28,08,05,13,07,26,,,,,,,2.5,1.4,2.0*34
$GPRMC,185805.000,A,3748.7987,N,12217.8584,W,1.06,211.96,040811,,,A*74
$GPVTG,211.96,T,,M,1.06,N,2.0,K,A*05
$GPGGA,185806.000,3748.7990,N,12217.8583,W,1,06,1.4,6.4,M,-25.1,M,,0000*68
$GPGSA,A,3,28,08,05,13,07,26,,,,,,,2.5,1.4,2.0*34
$GPRMC,185806.000,A,3748.7990,N,12217.8583,W,0.55,189.45,040811,,,A*7D
$GPVTG,189.45,T,,M,0.55,N,1.0,K,A*0D
$GPGGA,185807.000,3748.7986,N,12217.8591,W,1,06,1.4,6.0,M,-25.1,M,,0000*69
$GPGSA,A,3,28,08,05,13,07,26,,,,,,,2.5,1.4,2.0*34
$GPRMC,185807.000,A,3748.7986,N,12217.8591,W,0.72,202.79,040811,,,A*72
$GPVTG,202.79,T,,M,0.72,N,1.3,K,A*04
$GPGGA,185808.000,3748.7989,N,12217.8589,W,1,06,1.4,3.7,M,-25.1,M,,0000*62
$GPGSA,A,3,28,08,05,13,07,26,,,,,,,2.5,1.4,2.0*34
$GPRMC,185808.000,A,3748.7989,N,12217.8589,W,0.32,314.25,040811,,,A*70
$GPVTG,314.25,T,,M,0.32,N,0.6,K,A*0B
$GPGGA,185809.000,3748.7985,N,12217.8596,W,1,06,1.4,3.4,M,-25.1,M,,0000*62
$GPGSA,A,3,28,08,05,13,07,26,,,,,,,2.5,1.4,2.0*34
$GPGSV,3,1,11,08,66,005,24,28,61,253,24,07,56,069,25,26,28,316,27*7C
$GPGSV,3,2,11,19,25,051,26,13,21,150,33,05,19,270,26,10,13,219,34*70
$GPGSV,3,3,11,11,12,104,20,17,10,188,24,03,00,035,*48
$GPRMC,185809.000,A,3748.7985,N,12217.8596,W,0.06,219.09,040811,,,A*76
$GPVTG,219.09,T,,M,0.06,N,0.1,K,A*09
$GPGGA,185810.000,3748.7976,N,12217.8606,W,1,06,1.4,5.1,M,-25.1,M,,0000*6F
$GPGSA,A,3,28,08,05,13,07,26,,,,,,,2.5,1.4,2.0*34
$GPRMC,185810.000,A,3748.7976,N,12217.8606,W,0.65,154.45,040811,,,A*7F
$GPVTG,154.45,T,,M,0.65,N,1.2,K,A*0C
$GPGGA,185811.000,3748.7974,N,12217.8609,W,1,06,1.4,6.7,M,-25.1,M,,0000*66
$GPGSA,A,3,28,08,05,13,07,26,,,,,,,2.5,1.4,2.0*34
$GPRMC,185811.000,A,3748.7974,N,12217.8609,W,0.34,175.20,040811,,,A*77
$GPVTG,175.20,T,,M,0.34,N,0.6,K,A*0D
$GPGGA,185812.000,3748.7974,N,12217.8611,W,1,06,1.4,7.0,M,-25.1,M,,0000*6A
$GPGSA,A,3,28,08,05,13,07,26,,,,,,,2.5,1.4,2.0*34
$GPRMC,185812.000,A,3748.7974,N,12217.8611,W,0.78,233.11,040811,,,A*76
$GPVTG,233.11,T,,M,0.78,N,1.4,K,A*05
$GPGGA,185813.000,3748.7971,N,12217.8617,W,1,06,1.4,7.2,M,-25.1,M,,0000*6A
$GPGSA,A,3,28,08,05,13,07,26,,,,,,,2.5,1.4,2.0*34
$GPRMC,185813.000,A,3748.7971,N,12217.8617,W,0.61,218.04,040811,,,A*71
$GPVTG,218.04,T,,M,0.61,N,1.1,K,A*05
$GPGGA,185814.000,3748.7971,N,12217.8619,W,1,06,1.4,7.4,M,-25.1,M,,0000*65
$GPGSA,A,3,28,08,05,13,07,26,,,,,,,2.5,1.4,2.0*34
$GPGSV,3,1,12,08,66,005,29,28,61,253,32,07,56,069,28,26,28,316,21*7E
$GPGSV,3,2,12,19,25,051,25,13,21,150,37,05,19,270,30,10,13,219,37*70
$GPGSV,3,3,12,11,12,104,20,17,10,188,28,03,00,035,,51,43,156,33*76
$GPRMC,185814.000,A,3748.7971,N,12217.8619,W,0.24,273.24,040811,,,A*76
$GPVTG,273.24,T,,M,0.24,N,0.4,K,A*0F
$GPGGA,185815.000,3748.7971,N,12217.8624,W,1,06,1.4,7.8,M,-25.1,M,,0000*66
$GPGSA,A,3,28,08,05,13,07,26,,,,,,,2.5,1.4,2.0*34
$GPRMC,185815.000,A,3748.7971,N,12217.8624,W,0.69,316.06,040811,,,A*72
$GPVTG,316.06,T,,M,0.69,N,1.3,K,A*02
$GPGGA,185816.000,3748.7971,N,12217.8628,W,1,06,1.4,7.3,M,-25.1,M,,0000*62
$GPGSA,A,3,28,08,05,13,07,26,,,,,,,2.5,1.4,2.0*34
$GPRMC,185816.000,A,3748.7971,N,12217.8628,W,0.28,152.49,040811,,,A*71
$GPVTG,152.49,T,,M,0.28,N,0.5,K,A*09
$GPGGA,185817.000,3748.7976,N,12217.8624,W,1,05,1.9,5.7,M,-25.1,M,,0000*60
$GPGSA,A,3,28,08,05,13,07,,,,,,,,3.2,1.9,2.6*3D
$GPRMC,185817.000,A,3748.7976,N,12217.8624,W,0.93,30.72,040811,,,A*46
$GPVTG,30.72,T,,M,0.93,N,1.7,K,A*37
$GPGGA,185818.000,3748.7981,N,12217.8621,W,1,05,1.9,4.7,M,-25.1,M,,0000*63
$GPGSA,A,3,28,08,05,13,07,,,,,,,,3.2,1.9,2.6*3D
$GPRMC,185818.000,A,3748.7981,N,12217.8621,W,0.26,320.10,040811,,,A*7C
$GPVTG,320.10,T,,M,0.26,N,0.5,K,A*0C
$GPGGA,185819.000,3748.7978,N,12217.8625,W,1,06,1.4,5.0,M,-25.1,M,,0000*68
$GPGSA,A,3,28,08,05,13,07,26,,,,,,,2.5,1.4,2.0*34
$GPGSV,3,1,12,08,66,005,26,28,61,253,27,07,56,069,33,26,28,316,27*79
$GPGSV,3,2,12,19,25,051,29,13,21,150,36,05,19,270,24,10,13,219,30*7F
$GPGSV,3,3,12,11,12,104,25,17,10,188,28,03,00,035,,51,43,156,34*74
$GPVTG,258.56,T,,M,0.18,N,0.3,K,A*0B
$GPGGA,185820.000,3748.7982,N,12217.8620,W,1,06,1.4,5.7,M,-25.1,M,,0000*65
$GPGSA,A,3,28,08,05,13,07,26,,,,,,,2.5,1.4,2.0*34
$GPRMC,185820.000,A,3748.7982,N,12217.8620,W,0.42,31.96,040811,,,A*4A
$GPVTG,31.96,T,,M,0.42,N,0.8,K,A*3E
$GPGGA,185821.000,3748.7982,N,12217.8618,W,1,06,1.4,6.1,M,-25.1,M,,0000*6A
$GPGSA,A,3,28,08,05,13,07,26,,,,,,,2.5,1.4,2.0*34
$GPRMC,185821.000,A,3748.7982,N,12217.8618,W,0.46,207.08,040811,,,A*74
$GPVTG,207.08,T,,M,0.46,N,0.8,K,A*0A
$GPGGA,185822.000,3748.7987,N,12217.8616,W,1,06,1.4,5.0,M,-25.1,M,,0000*60
$GPGSA,A,3,28,08,05,13,07,26,,,,,,,2.5,1.4,2.0*34
$GPRMC,185822.000,A,3748.7987,N,12217.8616,W,0.14,249.63,040811,,,A*7C
$GPVTG,249.63,T,,M,0.14,N,0.3,K,A*01
$GPGGA,185823.000,3748.7987,N,12217.8616,W,1,06,1.4,5.1,M,-25.1,M,,0000*60
$GPGSA,A,3,28,08,05,13,07,26,,,,,,,2.5,1.4,2.0*34
$GPRMC,185823.000,A,3748.7987,N,12217.8616,W,0.18,229.11,040811,,,A*72
$GPVTG,229.11,T,,M,0.18,N,0.3,K,A*0E
$GPGGA,185824.000,3748.7986,N,12217.8616,W,1,05,1.9,4.9,M,-25.1,M,,0000*61
$GPGSA,A,3,28,08,05,13,07,,,,,,,,3.2,1.9,2.6*3D
$GPGSV,3,1,12,08,66,005,26,28,61,253,24,07,56,069,38,26,28,316,19*7C
$GPGSV,3,2,12,19,25,051,35,13,21,150,37,05,19,270,20,10,13,219,30*77
$GPGSV,3,3,12,11,12,104,27,17,10,188,22,03,00,035,,51,43,156,39*71
$GPRMC,185824.000,A,3748.7986,N,12217.8616,W,0.23,266.53,040811,,,A*71
$GPVTG,266.53,T,,M,0.23,N,0.4,K,A*0C
$GPGGA,185825.000,3748.7983,N,12217.8619,W,1,05,1.6,4.7,M,-25.1,M,,0000*6B
$GPGSA,A,3,28,08,13,07,26,,,,,,,,2.7,1.6,2.2*33
$GPRMC,185825.000,A,3748.7983,N,12217.8619,W,0.37,282.66,040811,,,A*73
$GPVTG,282.66,T,,M,0.37,N,0.7,K,A*06
$GPGGA,185826.000,3748.7985,N,12217.8617,W,1,06,1.4,2.8,M,-25.1,M,,0000*68
$GPGSA,A,3,28,08,05,13,07,26,,,,,,,2.5,1.4,2.0*34
$GPRMC,185826.000,A,3748.7985,N,12217.8617,W,0.37,294.99,040811,,,A*7F
$GPVTG,294.99,T,,M,0.37,N,0.7,K,A*01
$GPGGA,185827.000,3748.7982,N,12217.8620,W,1,06,1.4,2.4,M,-25.1,M,,0000*66
$GPGSA,A,3,28,08,05,13,07,26,,,,,,,2.5,1.4,2.0*34
$GPRMC,185827.000,A,3748.7982,N,12217.8620,W,0.49,257.91,040811,,,A*73
$GPVTG,257.91,T,,M,0.49,N,0.9,K,A*01
$GPGGA,185828.000,3748.7982,N,12217.8620,W,1,06,1.4,1.6,M,-25.1,M,,0000*68
$GPGSA,A,3,28,08,05,13,07,26,,,,,,,2.5,1.4,2.0*34
$GPRMC,185828.000,A,3748.7982,N,12217.8620,W,0.43,276.68,040811,,,A*73
$GPVTG,276.68,T,,M,0.43,N,0.8,K,A*0F
$GPGGA,185829.000,3748.7978,N,12217.8623,W,1,06,1.4,1.9,M,-25.1,M,,0000*60
$GPGSA,A,3,28,08,05,13,07,26,,,,,,,2.5,1.4,2.0*34
$GPGSV,3,1,12,08,66,005,26,28,61,253,24,07,56,069,33,26,28,316,20*7D
$GPGSV,3,2,12,19,25,051,36,13,21,150,36,05,19,270,22,10,13,219,30*77
$GPGSV,3,3,12,11,12,104,26,17,10,188,24,03,00,035,,51,43,156,35*7A
$GPRMC,185829.000,A,3748.7978,N,12217.8623,W,0.10,319.44,040811,,,A*74
$GPVTG,319.44,T,,M,0.10,N,0.2,K,A*05
$GPGGA,185830.000,3748.7977,N,12217.8622,W,1,06,1.4,1.9,M,-25.1,M,,0000*66
$GPGSA,A,3,28,08,05,13,07,26,,,,,,,2.5,1.4,2.0*34
$GPRMC,185830.000,A,3748.7977,N,12217.8622,W,0.08,208.28,040811,,,A*70
$GPVTG,208.28,T,,M,0.08,N,0.1,K,A*04
$GPGGA,185831.000,3748.7977,N,12217.8618,W,1,06,1.4,1.7,M,-25.1,M,,0000*60
$GPGSA,A,3,28,08,05,13,07,26,,,,,,,2.5,1.4,2.0*34
$GPRMC,185831.000,A,3748.7977,N,12217.8618,W,0.15,121.72,040811,,,A*73
$GPVTG,121.72,T,,M,0.15,N,0.3,K,A*0D
$GPGGA,185832.000,3748.7977,N,12217.8615,W,1,06,1.4,1.7,M,-25.1,M,,0000*6E
$GPGSA,A,3,28,08,05,13,07,26,,,,,,,2.5,1.4,2.0*34
$GPRMC,185832.000,A,3748.7977,N,12217.8615,W,0.22,125.35,040811,,,A*7E
$GPVTG,125.35,T,,M,0.22,N,0.4,K,A*09
$GPGGA,185833.000,3748.7973,N,12217.8611,W,1,06,1.4,2.7,M,-25.1,M,,0000*6C
$GPGSA,A,3,28,08,05,13,07,26,,,,,,,2.5,1.4,2.0*34
$GPRMC,185833.000,A,3748.7973,N,12217.8611,W,0.37,106.55,040811,,,A*7C
$GPVTG,106.55,T,,M,0.37,N,0.7,K,A*09
$GPGGA,185834.000,3748.7970,N,12217.8607,W,1,06,1.4,4.2,M,-25.1,M,,0000*6C
$GPGSA,A,3,28,08,05,13,07,26,,,,,,,2.5,1.4,2.0*34
$GPGSV,3,1,12,08,66,005,26,28,61,253,27,07,56,069,33,26,28,316,14*79
$GPGSV,3,2,12,19,25,051,36,13,21,150,33,05,19,270,22,10,13,219,30*72
$GPGSV,3,3,12,11,12,104,27,17,10,188,24,03,00,035,,51,43,156,24*7B
$GPVTG,113.97,T,,M,0.55,N,1.0,K,A*01
$GPGGA,185835.000,3748.7965,N,12217.8605,W,1,06,1.4,6.0,M,-25.1,M,,0000*6B
$GPGSA,A,3,28,08,05,13,07,26,,,,,,,2.5,1.4,2.0*34
$GPRMC,185835.000,A,3748.7965,N,12217.8605,W,0.49,183.03,040811,,,A*7F
$GPVTG,183.03,T,,M,0.49,N,0.9,K,A*00
$GPGGA,185836.000,3748.7963,N,12217.8600,W,1,05,1.5,7.5,M,-25.1,M,,0000*6D
$GPGSA,A,3,28,05,13,07,26,,,,,,,,2.6,1.5,2.2*3C
$GPRMC,185836.000,A,3748.7963,N,12217.8600,W,0.65,168.29,040811,,,A*7C
$GPVTG,168.29,T,,M,0.65,N,1.2,K,A*09
$GPGGA,185837.000,3748.7963,N,12217.8596,W,1,05,1.5,8.1,M,-25.1,M,,0000*6B
$GPGSA,A,3,28,05,13,07,26,,,,,,,,2.6,1.5,2.2*3C
$GPRMC,185837.000,A,3748.7963,N,12217.8596,W,0.66,167.25,040811,,,A*71
$GPVTG,167.25,T,,M,0.66,N,1.2,K,A*09
$GPGGA,185838.000,3748.7961,N,12217.8594,W,1,06,1.4,8.8,M,-25.1,M,,0000*6F
$GPGSA,A,3,28,08,05,13,07,26,,,,,,,2.5,1.4,2.0*34
$GPRMC,185838.000,A,3748.7961,N,12217.8594,W,0.61,171.15,040811,,,A*7D
$GPVTG,171.15,T,,M,0.61,N,1.1,K,A*09
$GPGGA,185839.000,3748.7960,N,12217.8588,W,1,06,1.4,10.5,M,-25.1,M,,0000*56
$GPGSA,A,3,28,08,05,13,07,26,,,,,,,2.5,1.4,2.0*34
$GPGSV,3,1,12,08,66,005,23,28,61,253,26,07,56,069,33,26,28,316,14*7D
$GPGSV,3,2,12,19,25,051,35,13,21,150,35,05,19,270,24,10,13,219,26*76
$GPGSV,3,3,12,11,12,104,26,17,10,188,25,03,00,035,,51,43,156,38*76
$GPRMC,185839.000,A,3748.7960,N,12217.8588,W,0.51,167.48,040811,,,A*7C
$GPVTG,167.48,T,,M,0.51,N,0.9,K,A*0C
$GPGGA,185840.000,3748.7945,N,12217.8591,W,1,06,1.4,15.6,M,-25.1,M,,0000*51
$GPGSA,A,3,28,08,05,13,07,26,,,,,,,2.5,1.4,2.0*34
$GPRMC,185840.000,A,3748.7945,N,12217.8591,W,1.18,195.14,040811,,,A*75
$GPVTG,195.14,T,,M,1.18,N,2.2,K,A*0D
$GPGGA,185841.000,3748.7935,N,12217.8594,W,1,06,1.4,18.8,M,-25.1,M,,0000*51
$GPGSA,A,3,28,08,05,13,07,26,,,,,,,2.5,1.4,2.0*34
$GPRMC,185841.000,A,3748.7935,N,12217.8594,W,1.16,189.53,040811,,,A*76
$GPVTG,189.53,T,,M,1.16,N,2.1,K,A*0E
$GPGGA,185842.000,3748.7930,N,12217.8594,W,1,06,1.4,20.7,M,-25.1,M,,0000*53
$GPGSA,A,3,28,08,05,13,07,26,,,,,,,2.5,1.4,2.0*34
$GPRMC,185842.000,A,3748.7930,N,12217.8594,W,1.39,203.58,040811,,,A*77
$GPVTG,203.58,T,,M,1.39,N,2.6,K,A*0E
$GPGGA,185843.000,3748.7927,N,12217.8589,W,1,06,1.4,20.2,M,-25.1,M,,0000*5D
$GPGSA,A,3,28,08,05,13,07,26,,,,,,,2.5,1.4,2.0*34
$GPRMC,185843.000,A,3748.7927,N,12217.8589,W,1.61,207.10,040811,,,A*79
$GPVTG,207.10,T,,M,1.61,N,3.0,K,A*0C
$GPGGA,185844.000,3748.7918,N,12217.8592,W,1,06,1.4,22.5,M,-25.1,M,,0000*59
$GPGSA,A,3,28,08,05,13,07,26,,,,,,,2.5,1.4,2.0*34
$GPGSV,3,1,12,08,66,005,29,28,61,253,23,07,56,069,33,26,28,316,15*73
$GPGSV,3,2,12,19,25,051,35,13,21,150,25,05,19,270,24,10,13,219,31*71
$GPGSV,3,3,12,11,12,104,18,17,10,188,16,03,00,035,,51,43,156,32*71
$GPRMC,185844.000,A,3748.7918,N,12217.8592,W,1.55,191.58,040811,,,A*7F
$GPVTG,191.58,T,,M,1.55,N,2.9,K,A*03
$GPGGA,185845.000,3748.7915,N,12217.8590,W,1,06,1.4,23.4,M,-25.1,M,,0000*57
$GPGSA,A,3,28,08,05,13,07,26,,,,,,,2.5,1.4,2.0*34
$GPRMC,185845.000,A,3748.7915,N,12217.8590,W,1.43,199.94,040811,,,A*7E
$GPVTG,199.94,T,,M,1.43,N,2.6,K,A*03
$GPGGA,185846.000,3748.7912,N,12217.8591,W,1,06,1.4,24.3,M,-25.1,M,,0000*52
$GPGSA,A,3,28,08,05,13,07,26,,,,,,,2.5,1.4,2.0*34
$GPRMC,185846.000,A,3748.7912,N,12217.8591,W,1.34,176.48,040811,,,A*7B
$GPVTG,176.48,T,,M,1.34,N,2.5,K,A*00
$GPGGA,185847.000,3748.7909,N,12217.8590,W,1,06,1.4,24.8,M,-25.1,M,,0000*53
$GPGSA,A,3,28,08,05,13,07,26,,,,,,,2.5,1.4,2.0*34
$GPRMC,185847.000,A,3748.7909,N,12217.8590,W,1.17,187.79,040811,,,A*7C
$GPVTG,187.79,T,,M,1.17,N,2.2,K,A*0A
$GPGGA,185848.000,3748.7907,N,12217.8586,W,1,06,1.4,24.1,M,-25.1,M,,0000*5C
$GPGSA,A,3,28,08,05,13,07,26,,,,,,,2.5,1.4,2.0*34
$GPRMC,185848.000,A,3748.7907,N,12217.8586,W,1.47,186.04,040811,,,A*74
$GPVTG,186.04,T,,M,1.47,N,2.7,K,A*01
$GPGGA,185849.000,3748.7908,N,12217.8585,W,1,06,1.4,23.5,M,-25.1,M,,0000*52
$GPGSA,A,3,28,08,05,13,07,26,,,,,,,2.5,1.4,2.0*34
$GPGSV,3,1,12,08,66,006,28,28,61,254,24,07,56,069,34,26,28,316,25*75
$GPGSV,3,2,12,19,25,050,35,13,21,150,26,05,19,270,25,10,13,218,25*76
$GPGSV,3,3,12,11,12,104,26,17,10,188,15,03,00,035,,51,43,156,32*7F
$GPVTG,208.93,T,,M,0.97,N,1.8,K,A*0A
$GPGGA,185850.000,3748.7910,N,12217.8583,W,1,06,1.4,23.5,M,-25.1,M,,0000*55
$GPGSA,A,3,28,08,05,13,07,26,,,,,,,2.5,1.4,2.0*34
$GPRMC,185850.000,A,3748.7910,N,12217.8583,W,0.63,193.64,040811,,,A*7B
$GPVTG,193.64,T,,M,0.63,N,1.2,K,A*02
$GPGGA,185851.000,3748.7910,N,12217.8584,W,1,06,1.4,22.4,M,-25.1,M,,0000*53
$GPGSA,A,3,28,08,05,13,07,26,,,,,,,2.5,1.4,2.0*34
$GPRMC,185851.000,A,3748.7910,N,12217.8584,W,0.64,201.24,040811,,,A*76
$GPVTG,201.24,T,,M,0.64,N,1.2,K,A*09
$GPGGA,185852.000,3748.7912,N,12217.8587,W,1,06,1.4,22.0,M,-25.1,M,,0000*55
$GPGSA,A,3,28,08,05,13,07,26,,,,,,,2.5,1.4,2.0*34
$GPRMC,185852.000,A,3748.7912,N,12217.8587,W,1.22,199.45,040811,,,A*72
$GPVTG,199.45,T,,M,1.22,N,2.3,K,A*0D
$GPGGA,185853.000,3748.7912,N,12217.8589,W,1,06,1.4,22.0,M,-25.1,M,,0000*5A
$GPGSA,A,3,28,08,05,13,07,26,,,,,,,2.5,1.4,2.0*34
$GPRMC,185853.000,A,3748.7912,N,12217.8589,W,1.99,186.24,040811,,,A*74
$GPVTG,186.24,T,,M,1.99,N,3.7,K,A*01
$GPGGA,185854.000,3748.7913,N,12217.8586,W,1,06,1.4,22.0,M,-25.1,M,,0000*53
$GPGSA,A,3,28,08,05,13,07,26,,,,,,,2.5,1.4,2.0*34
$GPGSV,3,1,12,08,66,006,27,28,61,254,23,07,56,069,34,26,28,316,20*78
$GPGSV,3,2,12,19,25,050,35,13,21,150,35,05,19,270,19,10,13,218,28*76
$GPGSV,3,3,12,11,12,104,18,17,10,188,21,03,00,035,,51,43,156,25*73
$GPRMC,185854.000,A,3748.7913,N,12217.8586,W,0.66,138.26,040811,,,A*7B
$GPVTG,138.26,T,,M,0.66,N,1.2,K,A*00
$GPGGA,185855.000,3748.7915,N,12217.8577,W,1,06,1.4,21.7,M,-25.1,M,,0000*5E
$GPGSA,A,3,28,08,05,13,07,26,,,,,,,2.5,1.4,2.0*34
$GPRMC,185855.000,A,3748.7915,N,12217.8577,W,1.43,101.45,040811,,,A*7B
$GPVTG,101.45,T,,M,1.43,N,2.7,K,A*0F
$GPGGA,185856.000,3748.7916,N,12217.8572,W,1,06,1.4,20.5,M,-25.1,M,,0000*58
$GPGSA,A,3,28,08,05,13,07,26,,,,,,,2.5,1.4,2.0*34
$GPRMC,185856.000,A,3748.7916,N,12217.8572,W,1.28,151.56,040811,,,A*74
$GPVTG,151.56,T,,M,1.28,N,2.4,K,A*06
$GPGGA,185857.000,3748.7913,N,12217.8570,W,1,06,1.4,20.5,M,-25.1,M,,0000*5E
$GPGSA,A,3,28,08,05,13,07,26,,,,,,,2.5,1.4,2.0*34
$GPRMC,185857.000,A,3748.7913,N,12217.8570,W,0.54,178.99,040811,,,A*70
$GPVTG,178.99,T,,M,0.54,N,1.0,K,A*03
$GPGGA,185858.000,3748.7913,N,12217.8565,W,1,06,1.4,22.2,M,-25.1,M,,0000*50
$GPGSA,A,3,28,08,05,13,07,26,,,,,,,2.5,1.4,2.0*34
$GPRMC,185858.000,A,3748.7913,N,12217.8565,W,0.37,144.71,040811,,,A*77
$GPVTG,144.71,T,,M,0.37,N,0.7,K,A*09
$GPGGA,185859.000,3748.7914,N,12217.8566,W,1,06,1.4,24.1,M,-25.1,M,,0000*50
$GPGSA,A,3,28,08,05,13,07,26,,,,,,,2.5,1.4,2.0*34
$GPGSV,3,1,12,08,66,006,24,28,61,254,23,07,56,069,35,26,28,316,24*7E
$GPGSV,3,2,12,19,25,050,36,13,21,150,35,05,19,270,24,10,13,218,26*75
$GPGSV,3,3,12,11,12,104,32,17,10,188,22,03,00,035,,51,43,156,37*7B
$GPRMC,185859.000,A,3748.7914,N,12217.8566,W,0.27,217.48,040811,,,A*7C
$GPVTG,217.48,T,,M,0.27,N,0.5,K,A*05
$GPGGA,185900.000,3748.7915,N,12217.8562,W,1,06,1.4,23.8,M,-25.1,M,,0000*56
$GPGSA,A,3,28,08,05,13,07,26,,,,,,,2.5,1.4,2.0*34
$GPRMC,185900.000,A,3748.7915,N,12217.8562,W,0.04,23.38,040811,,,A*47
$GPVTG,23.38,T,,M,0.04,N,0.1,K,A*32
$GPGGA,185901.000,3748.7917,N,12217.8560,W,1,06,1.4,24.3,M,-25.1,M,,0000*5B
$GPGSA,A,3,28,08,05,13,07,26,,,,,,,2.5,1.4,2.0*34
$GPRMC,185901.000,A,3748.7917,N,12217.8560,W,0.12,20.83,040811,,,A*42
$GPVTG,20.83,T,,M,0.12,N,0.2,K,A*35
$GPGGA,185902.000,3748.7913,N,12217.8566,W,1,06,1.4,25.6,M,-25.1,M,,0000*5E
$GPGSA,A,3,28,08,05,13,07,26,,,,,,,2.5,1.4,2.0*34
$GPRMC,185902.000,A,3748.7913,N,12217.8566,W,0.26,218.21,040811,,,A*75
$GPVTG,218.21,T,,M,0.26,N,0.5,K,A*04
$GPGGA,185903.000,3748.7907,N,12217.8576,W,1,06,1.4,26.9,M,-25.1,M,,0000*57
$GPGSA,A,3,28,08,05,13,07,26,,,,,,,2.5,1.4,2.0*34
$GPRMC,185903.000,A,3748.7907,N,12217.8576,W,0.62,214.50,040811,,,A*7A
$GPVTG,214.50,T,,M,0.62,N,1.2,K,A*08
$GPGGA,185904.000,3748.7902,N,12217.8581,W,1,06,1.4,26.9,M,-25.1,M,,0000*5D
$GPGSA,A,3,28,08,05,13,07,26,,,,,,,2.5,1.4,2.0*34
$GPGSV,3,1,12,08,66,006,29,28,61,254,24,07,56,069,35,26,28,316,21*71
$GPGSV,3,2,12,19,25,050,36,13,21,150,37,05,19,270,25,10,13,218,26*76
$GPRMC,185904.000,A,3748.7902,N,12217.8581,W,0.67,216.16,040811,,,A*75
$GPVTG,216.16,T,,M,0.67,N,1.2,K,A*0D
$GPGGA,185905.000,3748.7905,N,12217.8586,W,1,06,1.4,23.5,M,-25.1,M,,0000*55
$GPGSA,A,3,28,08,05,13,07,26,,,,,,,2.5,1.4,2.0*34
$GPRMC,185905.000,A,3748.7905,N,12217.8586,W,0.22,227.52,040811,,,A*77
$GPVTG,227.52,T,,M,0.22,N,0.4,K,A*09
$GPGGA,185906.000,3748.7911,N,12217.8587,W,1,06,1.4,21.0,M,-25.1,M,,0000*55
$GPGSA,A,3,28,08,05,13,07,26,,,,,,,2.5,1.4,2.0*34
$GPRMC,185906.000,A,3748.7911,N,12217.8587,W,0.15,104.55,040811,,,A*71
$GPVTG,104.55,T,,M,0.15,N,0.3,K,A*0F
$GPGGA,185907.000,3748.7915,N,12217.8587,W,1,06,1.4,19.0,M,-25.1,M,,0000*5B
$GPGSA,A,3,28,08,05,13,07,26,,,,,,,2.5,1.4,2.0*34
$GPRMC,185907.000,A,3748.7915,N,12217.8587,W,0.24,38.49,040811,,,A*45
$GPVTG,38.49,T,,M,0.24,N,0.4,K,A*39
$GPGGA,185908.000,3748.7919,N,12217.8585,W,1,06,1.4,17.5,M,-25.1,M,,0000*51
$GPGSA,A,3,28,08,05,13,07,26,,,,,,,2.5,1.4,2.0*34
$GPRMC,185908.000,A,3748.7919,N,12217.8585,W,0.39,302.25,040811,,,A*78
$GPVTG,302.25,T,,M,0.39,N,0.7,K,A*06
$GPGGA,185909.000,3748.7921,N,12217.8584,W,1,06,1.4,17.3,M,-25.1,M,,0000*5C
$GPGSA,A,3,28,08,05,13,07,26,,,,,,,2.5,1.4,2.0*34
$GPGSV,3,1,12,08,66,006,30,28,61,254,24,07,56,069,39,26,28,316,17*70
$GPGSV,3,2,12,19,25,050,32,13,21,150,36,05,19,270,24,10,13,218,29*7D
$GPGSV,3,3,12,11,12,104,24,17,10,188,23,03,00,035,,51,43,156,35*7F
$GPRMC,185909.000,A,3748.7921,N,12217.8584,W,0.28,293.67,040811,,,A*7C
$GPVTG,293.67,T,,M,0.28,N,0.5,K,A*0B
$GPGGA,185910.000,3748.7919,N,12217.8586,W,1,06,1.5,18.6,M,-25.1,M,,0000*56
$GPGSA,A,3,28,08,05,13,07,26,,,,,,,2.5,1.5,2.0*35
$GPRMC,185910.000,A,3748.7919,N,12217.8586,W,0.21,90.47,040811,,,A*47
$GPVTG,90.47,T,,M,0.21,N,0.4,K,A*30
$GPGGA,185911.000,3748.7919,N,12217.8587,W,1,06,1.5,19.3,M,-25.1,M,,0000*52
$GPGSA,A,3,28,08,05,13,07,26,,,,,,,2.5,1.5,2.0*35
$GPRMC,185911.000,A,3748.7919,N,12217.8587,W,0.22,121.05,040811,,,A*79
$GPVTG,121.05,T,,M,0.22,N,0.4,K,A*0E
$GPGGA,185912.000,3748.7918,N,12217.8587,W,1,06,1.5,20.2,M,-25.1,M,,0000*5B
$GPGSA,A,3,28,08,05,13,07,26,,,,,,,2.5,1.5,2.0*35
$GPRMC,185912.000,A,3748.7918,N,12217.8587,W,0.34,116.59,040811,,,A*71
$GPVTG,116.59,T,,M,0.34,N,0.6,K,A*06
$GPGGA,185913.000,3748.7918,N,12217.8589,W,1,06,1.5,20.5,M,-25.1,M,,0000*53
$GPGSA,A,3,28,08,05,13,07,26,,,,,,,2.5,1.5,2.0*35
$GPRMC,185913.000,A,3748.7918,N,12217.8589,W,0.16,150.61,040811,,,A*77
$GPVTG,150.61,T,,M,0.16,N,0.3,K,A*0A
$GPGGA,185914.000,3748.7919,N,12217.8590,W,1,05,1.5,20.4,M,-25.1,M,,0000*5F
$GPGSA,A,3,28,05,13,07,26,,,,,,,,2.6,1.5,2.2*3C
$GPGSV,3,1,12,08,66,006,,28,61,254,30,07,56,069,33,26,28,316,24*7C
$GPGSV,3,2,12,19,25,050,31,13,21,150,31,05,19,270,28,10,13,218,31*7C
$GPGSV,3,3,12,11,12,104,25,17,10,188,18,03,00,035,,51,43,156,32*71
$GPRMC,185914.000,A,3748.7919,N,12217.8590,W,0.13,247.06,040811,,,A*78
$GPVTG,247.06,T,,M,0.13,N,0.2,K,A*0A
$GPGGA,185915.000,3748.7927,N,12217.8591,W,1,06,1.5,18.6,M,-25.1,M,,0000*58
$GPGSA,A,3,28,08,05,13,07,26,,,,,,,2.5,1.5,2.0*35
$GPRMC,185915.000,A,3748.7927,N,12217.8591,W,0.13,169.35,040811,,,A*7A
$GPVTG,169.35,T,,M,0.13,N,0.2,K,A*05
$GPGGA,185916.000,3748.7929,N,12217.8592,W,1,06,1.5,18.4,M,-25.1,M,,0000*54
$GPGSA,A,3,28,08,05,13,07,26,,,,,,,2.5,1.5,2.0*35
$GPRMC,185916.000,A,3748.7929,N,12217.8592,W,0.44,155.35,040811,,,A*79
$GPVTG,155.35,T,,M,0.44,N,0.8,K,A*02
$GPGGA,185917.000,3748.7936,N,12217.8595,W,1,05,2.6,16.5,M,-25.1,M,,0000*50
$GPGSA,A,3,08,05,13,07,26,,,,,,,,5.0,2.6,4.2*39
$GPRMC,185917.000,A,3748.7936,N,12217.8595,W,0.28,53.20,040811,,,A*48
$GPVTG,53.20,T,,M,0.28,N,0.5,K,A*36
$GPGGA,185918.000,3748.7939,N,12217.8596,W,1,06,1.5,16.1,M,-25.1,M,,0000*54
$GPGSA,A,3,28,08,05,13,07,26,,,,,,,2.5,1.5,2.0*35
$GPRMC,185918.000,A,3748.7939,N,12217.8596,W,0.36,329.19,040811,,,A*70
$GPVTG,329.19,T,,M,0.36,N,0.7,K,A*0F
$GPGGA,185919.000,3748.7941,N,12217.8596,W,1,06,1.5,15.4,M,-25.1,M,,0000*5C
$GPGSA,A,3,28,08,05,13,07,26,,,,,,,2.5,1.5,2.0*35
$GPGSV,3,1,12,08,66,007,24,28,62,254,29,07,56,070,29,26,28,316,23*74
$GPGSV,3,2,12,19,25,050,30,13,21,150,39,05,19,270,22,10,12,218,31*7E
$GPGSV,3,3,12,11,12,104,21,17,10,188,26,03,00,035,,51,43,156,42*7F
$GPRMC,185919.000,A,3748.7941,N,12217.8596,W,0.41,43.33,040811,,,A*49
$GPVTG,43.33,T,,M,0.41,N,0.8,K,A*37
$GPGGA,185920.000,3748.7941,N,12217.8596,W,1,06,1.5,15.5,M,-25.1,M,,0000*57
$GPGSA,A,3,28,08,05,13,07,26,,,,,,,2.5,1.5,2.0*35
$GPRMC,185920.000,A,3748.7941,N,12217.8596,W,0.33,85.85,040811,,,A*41
$GPVTG,85.85,T,,M,0.33,N,0.6,K,A*3B
$GPGGA,185921.000,3748.7940,N,12217.8595,W,1,06,1.5,16.0,M,-25.1,M,,0000*52
$GPGSA,A,3,28,08,05,13,07,26,,,,,,,2.5,1.5,2.0*35
$GPRMC,185921.000,A,3748.7940,N,12217.8595,W,0.05,270.51,040811,,,A*76
$GPVTG,270.51,T,,M,0.05,N,0.1,K,A*08
$GPGGA,185922.000,3748.7941,N,12217.8595,W,1,06,1.5,16.0,M,-25.1,M,,0000*50
$GPGSA,A,3,28,08,05,13,07,26,,,,,,,2.5,1.5,2.0*35
$GPRMC,185922.000,A,3748.7941,N,12217.8595,W,0.15,261.82,040811,,,A*7B
$GPVTG,261.82,T,,M,0.15,N,0.3,K,A*05
$GPGGA,185923.000,3748.7947,N,12217.8594,W,1,05,1.6,15.1,M,-25.1,M,,0000*54
$GPGSA,A,3,28,08,13,07,26,,,,,,,,2.7,1.6,2.2*33
$GPRMC,185923.000,A,3748.7947,N,12217.8594,W,0.17,40.49,040811,,,A*49
$GPVTG,40.49,T,,M,0.17,N,0.3,K,A*31
$GPGGA,185924.000,3748.7954,N,12217.8594,W,1,06,1.5,12.9,M,-25.1,M,,0000*5E
$GPGSA,A,3,28,08,05,13,07,26,,,,,,,2.5,1.5,2.0*35
$GPGSV,3,1,12,08,66,007,25,28,62,254,28,07,56,070,36,26,28,316,25*7C
$GPGSV,3,2,12,19,25,050,27,13,21,150,40,05,19,270,19,10,12,218,32*7D
$GPGSV,3,3,12,11,12,104,28,17,10,188,26,03,00,035,,51,43,156,40*74
$GPRMC,185924.000,A,3748.7954,N,12217.8594,W,0.35,52.36,040811,,,A*47
$GPGGA,185925.000,3748.7960,N,12217.8595,W,1,06,1.5,11.0,M,-25.1,M,,0000*53
$GPGSA,A,3,28,08,05,13,07,26,,,,,,,2.5,1.5,2.0*35
$GPRMC,185925.000,A,3748.7960,N,12217.8595,W,0.22,324.43,040811,,,A*76
$GPVTG,324.43,T,,M,0.22,N,0.4,K,A*0B
$GPGGA,185926.000,3748.7961,N,12217.8595,W,1,06,1.5,10.7,M,-25.1,M,,0000*57
$GPGSA,A,3,28,08,05,13,07,26,,,,,,,2.5,1.5,2.0*35
$GPRMC,185926.000,A,3748.7961,N,12217.8595,W,0.34,355.57,040811,,,A*70
$GPVTG,355.57,T,,M,0.34,N,0.6,K,A*0D
$GPGGA,185927.000,3748.7967,N,12217.8589,W,1,06,1.5,9.6,M,-25.1,M,,0000*64
$GPGSA,A,3,28,08,05,13,07,26,,,,,,,2.5,1.5,2.0*35
$GPRMC,185927.000,A,3748.7967,N,12217.8589,W,0.53,7.60,040811,,,A*7B
$GPVTG,7.60,T,,M,0.53,N,1.0,K,A*0B
$GPGGA,185928.000,3748.7974,N,12217.8588,W,1,06,1.5,7.5,M,-25.1,M,,0000*65
$GPGSA,A,3,28,08,05,13,07,26,,,,,,,2.5,1.5,2.0*35
$GPRMC,185928.000,A,3748.7974,N,12217.8588,W,0.44,8.29,040811,,,A*73
$GPVTG,8.29,T,,M,0.44,N,0.8,K,A*06
$GPGGA,185929.000,3748.7981,N,12217.8588,W,1,06,1.5,5.3,M,-25.1,M,,0000*6A
$GPGSA,A,3,28,08,05,13,07,26,,,,,,,2.5,1.5,2.0*35
$GPGSV,3,1,12,08,66,007,29,28,62,254,22,07,56,070,39,26,28,316,23*73
$GPGSV,3,2,12,19,25,050,37,13,21,150,37,05,19,270,22,10,12,218,27*70
$GPGSV,3,3,12,11,12,104,28,17,10,188,22,03,00,035,,51,43,156,39*7E
$GPRMC,185929.000,A,3748.7981,N,12217.8588,W,0.36,3.45,040811,,,A*7C
$GPVTG,3.45,T,,M,0.36,N,0.7,K,A*0D
$GPGGA,185930.000,3748.7981,N,12217.8588,W,1,06,1.5,5.9,M,-25.1,M,,0000*68
$GPGSA,A,3,28,08,05,13,07,26,,,,,,,2.5,1.5,2.0*35
$GPRMC,185930.000,A,3748.7981,N,12217.8588,W,0.43,51.82,040811,,,A*4A
$GPVTG,51.82,T,,M,0.43,N,0.8,K,A*3C
$GPGGA,185931.000,3748.7980,N,12217.8589,W,1,06,1.5,6.2,M,-25.1,M,,0000*61
$GPGSA,A,3,28,08,05,13,07,26,,,,,,,2.5,1.5,2.0*35
$GPRMC,185931.000,A,3748.7980,N,12217.8589,W,0.40,31.88,040811,,,A*44
$GPVTG,31.88,T,,M,0.40,N,0.7,K,A*3C
$GPGGA,185932.000,3748.7979,N,12217.8590,W,1,06,1.5,6.6,M,-25.1,M,,0000*68
$GPGSA,A,3,28,08,05,13,07,26,,,,,,,2.5,1.5,2.0*35
$GPRMC,185932.000,A,3748.7979,N,12217.8590,W,0.28,15.38,040811,,,A*4A
$GPVTG,15.38,T,,M,0.28,N,0.5,K,A*3D
$GPGGA,185933.000,3748.7982,N,12217.8590,W,1,06,1.5,5.7,M,-25.1,M,,0000*6F
$GPGSA,A,3,28,08,05,13,07,26,,,,,,,2.5,1.5,2.0*35
$GPRMC,185933.000,A,3748.7982,N,12217.8590,W,0.44,47.14,040811,,,A*4C
$GPVTG,47.14,T,,M,0.44,N,0.8,K,A*33
$GPGGA,185934.000,3748.7983,N,12217.8590,W,1,06,1.5,5.2,M,-25.1,M,,0000*6C
$GPGSA,A,3,28,08,05,13,07,26,,,,,,,2.5,1.5,2.0*35
$GPGSV,3,1,12,08,66,007,30,28,62,254,26,07,56,070,39,26,28,316,25*79
$GPGSV,3,2,12,19,25,050,37,13,21,150,37,05,19,270,22,10,12,218,26*71
$GPGSV,3,3,12,11,12,104,28,17,10,188,28,03,00,035,,51,43,156,37*7A
$GPRMC,185934.000,A,3748.7983,N,12217.8590,W,0.28,18.88,040811,,,A*4F
$GPVTG,18.88,T,,M,0.28,N,0.5,K,A*3B
$GPGGA,185935.000,3748.7983,N,12217.8592,W,1,06,1.5,4.8,M,-25.1,M,,0000*64
$GPGSA,A,3,28,08,05,13,07,26,,,,,,,2.5,1.5,2.0*35
$GPRMC,185935.000,A,3748.7983,N,12217.8592,W,0.32,27.32,040811,,,A*4A
$GPVTG,27.32,T,,M,0.32,N,0.6,K,A*3E
$GPGGA,185936.000,3748.7981,N,12217.8592,W,1,06,1.5,5.2,M,-25.1,M,,0000*6E
$GPGSA,A,3,28,08,05,13,07,26,,,,,,,2.5,1.5,2.0*35
$GPRMC,185936.000,A,3748.7981,N,12217.8592,W,0.28,23.50,040811,,,A*40
$GPVTG,23.50,T,,M,0.28,N,0.5,K,A*36
$GPGGA,185937.000,3748.7983,N,12217.8589,W,2,05,2.6,4.1,M,-25.1,M,1.8,0000*42
$GPGSA,A,3,08,05,13,07,26,,,,,,,,5.0,2.6,4.3*38
$GPRMC,185937.000,A,3748.7983,N,12217.8589,W,0.33,350.03,040811,,,D*77
$GPVTG,350.03,T,,M,0.33,N,0.6,K,D*0B
$GPGGA,185938.000,3748.7984,N,12217.8585,W,2,05,2.6,3.5,M,-25.1,M,1.8,0000*45
$GPGSA,A,3,08,05,13,07,26,,,,,,,,5.0,2.6,4.3*38
$GPRMC,185938.000,A,3748.7984,N,12217.8585,W,0.18,347.70,040811,,,D*78
$GPVTG,347.70,T,,M,0.18,N,0.3,K,D*05
$GPGGA,185939.000,3748.7983,N,12217.8585,W,2,06,1.5,4.2,M,-25.1,M,1.8,0000*40
$GPGSA,A,3,28,08,05,13,07,26,,,,,,,2.5,1.5,2.0*35
$GPGSV,3,1,12,08,66,007,31,28,62,254,23,07,56,070,39,26,28,316,23*7B
$GPGSV,3,2,12,19,25,050,36,13,21,150,38,05,19,270,22,10,12,218,31*79
$GPGSV,3,3,12,11,12,104,23,17,10,188,21,03,00,035,,51,43,156,39*76
$GPRMC,185939.000,A,3748.7983,N,12217.8585,W,0.11,343.64,040811,,,D*76
$GPGGA,185940.000,3748.7982,N,12217.8585,W,2,06,1.5,4.7,M,-25.1,M,1.8,0000*4A
$GPGSA,A,3,28,08,05,13,07,26,,,,,,,2.5,1.5,2.0*35
$GPRMC,185940.000,A,3748.7982,N,12217.8585,W,0.16,77.70,040811,,,D*4F
$GPVTG,77.70,T,,M,0.16,N,0.3,K,D*3B
$GPGGA,185941.000,3748.7987,N,12217.8578,W,2,06,1.5,2.9,M,-25.1,M,1.8,0000*44
$GPGSA,A,3,28,08,05,13,07,26,,,,,,,2.5,1.5,2.0*35
$GPRMC,185941.000,A,3748.7987,N,12217.8578,W,0.45,55.90,040811,,,D*41
$GPVTG,55.90,T,,M,0.45,N,0.8,K,D*38
$GPGGA,185942.000,3748.7988,N,12217.8576,W,2,06,1.5,4.2,M,-25.1,M,1.8,0000*4B
$GPGSA,A,3,28,08,05,13,07,26,,,,,,,2.5,1.5,2.0*35
$GPRMC,185942.000,A,3748.7988,N,12217.8576,W,0.99,30.81,040811,,,D*41
$GPVTG,30.81,T,,M,0.99,N,1.8,K,D*3B
$GPGGA,185943.000,3748.7993,N,12217.8569,W,2,06,1.5,3.6,M,-25.1,M,1.8,0000*4D
$GPGSA,A,3,28,08,05,13,07,26,,,,,,,2.5,1.5,2.0*35
$GPRMC,185943.000,A,3748.7993,N,12217.8569,W,0.85,50.94,040811,,,D*4B
$GPVTG,50.94,T,,M,0.85,N,1.6,K,D*3A
$GPGGA,185944.000,3748.7991,N,12217.8569,W,2,06,1.5,4.1,M,-25.1,M,1.8,0000*48
$GPGSA,A,3,28,08,05,13,07,26,,,,,,,2.5,1.5,2.0*35
$GPGSV,3,1,12,08,66,007,28,28,62,254,32,07,56,070,33,26,28,316,25*7F
$GPGSV,3,2,12,19,25,050,24,13,21,150,39,05,19,270,31,10,12,218,33*7B
$GPGSV,3,3,12,11,12,104,23,17,10,188,32,03,00,035,,51,43,156,36*7B
$GPRMC,185944.000,A,3748.7991,N,12217.8569,W,1.45,101.77,040811,,,D*7B
$GPVTG,101.77,T,,M,1.45,N,2.7,K,D*0D
$GPGGA,185945.000,3748.7988,N,12217.8567,W,2,06,1.5,4.5,M,-25.1,M,1.8,0000*4B
$GPGSA,A,3,28,08,05,13,07,26,,,,,,,2.5,1.5,2.0*35
$GPRMC,185945.000,A,3748.7988,N,12217.8567,W,1.76,109.03,040811,,,D*77
$GPVTG,109.03,T,,M,1.76,N,3.3,K,D*03
$GPGGA,185946.000,3748.7985,N,12217.8564,W,2,06,1.5,4.5,M,-25.1,M,2.8,0000*45
$GPGSA,A,3,28,08,05,13,07,26,,,,,,,2.5,1.5,2.0*35
$GPRMC,185946.000,A,3748.7985,N,12217.8564,W,1.95,117.46,040811,,,D*79
$GPVTG,117.46,T,,M,1.95,N,3.6,K,D*05
$GPGGA,185947.000,3748.7982,N,12217.8560,W,2,06,1.5,4.3,M,-25.1,M,1.8,0000*42
$GPGSA,A,3,28,08,05,13,07,26,,,,,,,2.5,1.5,2.0*35
$GPRMC,185947.000,A,3748.7982,N,12217.8560,W,2.12,117.14,040811,,,D*70
$GPVTG,117.14,T,,M,2.12,N,3.9,K,D*01
$GPGGA,185948.000,3748.7977,N,12217.8556,W,2,06,1.5,4.6,M,-25.1,M,2.8,0000*44
$GPGSA,A,3,28,08,05,13,07,26,,,,,,,2.5,1.5,2.0*35
$GPRMC,185948.000,A,3748.7977,N,12217.8556,W,2.41,117.45,040811,,,D*72
$GPVTG,117.45,T,,M,2.41,N,4.5,K,D*08
$GPGGA,185949.000,3748.7976,N,12217.8549,W,2,06,1.5,3.8,M,-25.1,M,1.8,0000*40
$GPGSA,A,3,28,08,05,13,07,26,,,,,,,2.5,1.5,2.0*35
$GPGSV,3,1,12,08,66,007,28,28,62,254,33,07,56,070,28,26,28,316,25*74
$GPGSV,3,2,12,19,25,050,26,13,21,150,39,05,19,270,33,10,12,218,34*7C
$GPGSV,3,3,12,11,12,104,24,17,10,188,38,03,00,035,,51,43,156,39*79
$GPRMC,185949.000,A,3748.7976,N,12217.8549,W,2.37,110.52,040811,,,D*7C
$GPVTG,110.52,T,,M,2.37,N,4.4,K,D*09
$GPGGA,185950.000,3748.7974,N,12217.8542,W,2,06,1.5,3.4,M,-25.1,M,1.8,0000*4D
$GPGSA,A,3,28,08,05,13,07,26,,,,,,,2.5,1.5,2.0*35
$GPRMC,185950.000,A,3748.7974,N,12217.8542,W,2.44,107.68,040811,,,D*76
$GPVTG,107.68,T,,M,2.44,N,4.5,K,D*03
$GPGGA,185951.000,3748.7971,N,12217.8535,W,2,06,1.5,3.2,M,-25.1,M,1.8,0000*4F
$GPGSA,A,3,28,08,05,13,07,26,,,,,,,2.5,1.5,2.0*35
$GPRMC,185951.000,A,3748.7971,N,12217.8535,W,2.54,111.17,040811,,,D*7C
$GPVTG,111.17,T,,M,2.54,N,4.7,K,D*0F
$GPGGA,185952.000,3748.7967,N,12217.8528,W,2,06,1.5,3.1,M,-25.1,M,2.8,0000*47
$GPGSA,A,3,28,08,05,13,07,26,,,,,,,2.5,1.5,2.0*35
$GPRMC,185952.000,A,3748.7967,N,12217.8528,W,2.61,119.31,040811,,,D*7E
$GPVTG,119.31,T,,M,2.61,N,4.8,K,D*0A
$GPGGA,185953.000,3748.7964,N,12217.8522,W,2,06,1.5,2.9,M,-25.1,M,3.8,0000*47
$GPGSA,A,3,28,08,05,13,07,26,,,,,,,2.5,1.5,2.0*35
$GPRMC,185953.000,A,3748.7964,N,12217.8522,W,2.09,128.30,040811,,,D*7B
$GPVTG,128.30,T,,M,2.09,N,3.9,K,D*01
$GPGGA,185954.000,3748.7961,N,12217.8517,W,2,06,1.5,2.8,M,-25.1,M,4.8,0000*45
$GPGSA,A,3,28,08,05,13,07,26,,,,,,,2.5,1.5,2.0*35
$GPGSV,3,1,12,08,66,007,28,28,62,254,32,07,56,070,29,26,28,316,21*70
$GPGSV,3,2,12,19,25,050,30,13,21,150,41,05,19,270,26,10,12,218,33*77
$GPGSV,3,3,12,11,12,104,38,17,10,188,39,03,00,035,,51,43,156,34*78
$GPVTG,121.44,T,,M,1.89,N,3.5,K,D*0C
$GPGGA,185955.000,3748.7958,N,12217.8513,W,2,06,1.5,2.6,M,-25.1,M,1.8,0000*41
$GPGSA,A,3,28,08,05,13,07,26,,,,,,,2.5,1.5,2.0*35
$GPRMC,185955.000,A,3748.7958,N,12217.8513,W,1.50,120.89,040811,,,D*75
$GPVTG,120.89,T,,M,1.50,N,2.8,K,D*04
$GPGGA,185956.000,3748.7959,N,12217.8506,W,2,06,1.5,1.1,M,-25.1,M,1.8,0000*43
$GPGSA,A,3,28,08,05,13,07,26,,,,,,,2.5,1.5,2.0*35
$GPRMC,185956.000,A,3748.7959,N,12217.8506,W,1.73,121.64,040811,,,D*70
$GPVTG,121.64,T,,M,1.73,N,3.2,K,D*0C
$GPGGA,185957.000,3748.7957,N,12217.8500,W,2,06,1.5,-0.0,M,-25.1,M,1.8,0000*67
$GPGSA,A,3,28,08,05,13,07,26,,,,,,,2.5,1.5,2.0*35
$GPRMC,185957.000,A,3748.7957,N,12217.8500,W,1.92,120.11,040811,,,D*75
$GPVTG,120.11,T,,M,1.92,N,3.6,K,D*04
$GPGGA,185958.000,3748.7953,N,12217.8495,W,2,07,1.2,-0.7,M,-25.1,M,2.8,0000*63
$GPGSA,A,3,28,08,05,13,07,26,11,,,,,,2.0,1.2,1.5*31
$GPRMC,185958.000,A,3748.7953,N,12217.8495,W,1.55,135.60,040811,,,D*7A
$GPVTG,135.60,T,,M,1.55,N,2.9,K,D*03
$GPGGA,185959.000,3748.7947,N,12217.8491,W,2,07,1.2,-0.8,M,-25.1,M,3.8,0000*6D
$GPGSA,A,3,28,08,05,13,07,26,11,,,,,,2.0,1.2,1.5*31
$GPGSV,3,1,12,08,66,008,28,28,62,255,32,07,55,070,29,26,29,316,21*7C
$GPGSV,3,2,12,19,24,050,15,13,20,150,39,05,19,269,28,11,12,103,27*74
$GPGSV,3,3,12,10,12,218,33,17,10,188,32,03,00,035,,51,43,156,25*77
$GPRMC,185959.000,A,3748.7947,N,12217.8491,W,1.72,112.21,040811,,,D*7F
$GPVTG,112.21,T,,M,1.72,N,3.2,K,D*0C
$GPGGA,190000.000,3748.7945,N,12217.8485,W,2,07,1.2,-1.1,M,-25.1,M,4.8,0000*64
$GPGSA,A,3,28,08,05,13,07,26,11,,,,,,2.0,1.2,1.5*31
$GPRMC,190000.000,A,3748.7945,N,12217.8485,W,1.93,105.29,040811,,,D*78
$GPVTG,105.29,T,,M,1.93,N,3.6,K,D*09
$GPGGA,190001.000,3748.7942,N,12217.8477,W,2,07,1.2,-0.8,M,-25.1,M,1.8,0000*62
$GPGSA,A,3,28,08,05,13,07,26,11,,,,,,2.0,1.2,1.5*31
$GPRMC,190001.000,A,3748.7942,N,12217.8477,W,2.13,106.65,040811,,,D*73
$GPVTG,106.65,T,,M,2.13,N,3.9,K,D*06
$GPGGA,190002.000,3748.7940,N,12217.8470,W,2,07,1.2,-0.7,M,-25.1,M,1.8,0000*6B
$GPGSA,A,3,28,08,05,13,07,26,11,,,,,,2.0,1.2,1.5*31
$GPRMC,190002.000,A,3748.7940,N,12217.8470,W,2.14,105.94,040811,,,D*7F
$GPVTG,105.94,T,,M,2.14,N,4.0,K,D*02
$GPGGA,190003.000,3748.7938,N,12217.8462,W,2,07,1.2,-0.6,M,-25.1,M,1.8,0000*67
$GPGSA,A,3,28,08,05,13,07,26,11,,,,,,2.0,1.2,1.5*31
$GPRMC,190003.000,A,3748.7938,N,12217.8462,W,2.21,104.97,040811,,,D*76
$GPVTG,104.97,T,,M,2.21,N,4.1,K,D*07
$GPGGA,190004.000,3748.7938,N,12217.8454,W,2,07,1.2,-1.3,M,-25.1,M,1.8,0000*61
$GPGSA,A,3,28,08,05,13,07,26,11,,,,,,2.0,1.2,1.5*31
$GPGSV,3,1,12,08,66,008,28,28,62,255,26,07,55,070,29,26,29,316,25*7D
$GPGSV,3,2,12,19,24,050,18,13,20,150,36,05,19,269,32,11,12,103,26*7C
$GPGSV,3,3,12,10,12,218,34,17,10,188,33,03,00,035,,51,43,156,32*77
$GPRMC,190004.000,A,3748.7938,N,12217.8454,W,1.59,114.77,040811,,,D*77
$GPVTG,114.77,T,,M,1.59,N,2.9,K,D*0A
$GPGGA,190005.000,3748.7936,N,12217.8450,W,2,07,1.2,-1.9,M,-25.1,M,2.8,0000*63
$GPGSA,A,3,28,08,05,13,07,26,11,,,,,,2.0,1.2,1.5*31
$GPRMC,190005.000,A,3748.7936,N,12217.8450,W,1.50,107.63,040811,,,D*72
$GPVTG,107.63,T,,M,1.50,N,2.8,K,D*05
$GPGGA,190006.000,3748.7931,N,12217.8446,W,2,07,1.2,-2.0,M,-25.1,M,3.8,0000*6B
$GPGSA,A,3,28,08,05,13,07,26,11,,,,,,2.0,1.2,1.5*31
$GPRMC,190006.000,A,3748.7931,N,12217.8446,W,1.88,119.05,040811,,,D*7B
$GPVTG,119.05,T,,M,1.88,N,3.5,K,D*03
$GPGGA,190007.000,3748.7924,N,12217.8444,W,2,07,1.2,-2.0,M,-25.1,M,4.8,0000*6B
$GPGSA,A,3,28,08,05,13,07,26,11,,,,,,2.0,1.2,1.5*31
$GPRMC,190007.000,A,3748.7924,N,12217.8444,W,1.42,146.88,040811,,,D*75
$GPVTG,146.88,T,,M,1.42,N,2.6,K,D*08
$GPGGA,190008.000,3748.7918,N,12217.8441,W,2,07,1.2,-1.5,M,-25.1,M,1.8,0000*6D
$GPGSA,A,3,28,08,05,13,07,26,11,,,,,,2.0,1.2,1.5*31
$GPRMC,190008.000,A,3748.7918,N,12217.8441,W,1.99,131.71,040811,,,D*70
$GPVTG,131.71,T,,M,1.99,N,3.7,K,D*08
$GPGGA,190009.000,3748.7914,N,12217.8436,W,2,07,1.2,-1.9,M,-25.1,M,1.8,0000*6C
$GPGSA,A,3,28,08,05,13,07,26,11,,,,,,2.0,1.2,1.5*31
$GPGSV,3,1,12,08,66,008,27,28,62,255,33,07,55,070,27,26,29,316,22*7F
$GPGSV,3,2,12,19,24,050,24,13,20,150,38,05,19,269,28,11,12,103,26*76
$GPGSV,3,3,12,10,12,218,31,17,10,188,28,03,00,035,,51,43,156,37*7D
$GPRMC,190009.000,A,3748.7914,N,12217.8436,W,1.96,125.93,040811,,,D*7B
$GPVTG,125.93,T,,M,1.96,N,3.6,K,D*0F
$GPGGA,190010.000,3748.7910,N,12217.8430,W,2,07,1.2,-1.9,M,-25.1,M,1.8,0000*66
$GPGSA,A,3,28,08,05,13,07,26,11,,,,,,2.0,1.2,1.5*31
$GPRMC,190010.000,A,3748.7910,N,12217.8430,W,2.09,126.43,040811,,,D*7A
$GPVTG,126.43,T,,M,2.09,N,3.9,K,D*0B
$GPGGA,190011.000,3748.7906,N,12217.8424,W,2,07,1.2,-1.8,M,-25.1,M,2.8,0000*67
$GPGSA,A,3,28,08,05,13,07,26,11,,,,,,2.0,1.2,1.5*31
$GPRMC,190011.000,A,3748.7906,N,12217.8424,W,1.93,125.31,040811,,,D*7F
$GPVTG,125.31,T,,M,1.93,N,3.6,K,D*02
$GPGGA,190012.000,3748.7902,N,12217.8418,W,2,07,1.2,-1.6,M,-25.1,M,3.8,0000*60
$GPGSA,A,3,28,08,05,13,07,26,11,,,,,,2.0,1.2,1.5*31
$GPRMC,190012.000,A,3748.7902,N,12217.8418,W,2.28,127.51,040811,,,D*70
$GPVTG,127.51,T,,M,2.28,N,4.2,K,D*06
$GPGGA,190013.000,3748.7897,N,12217.8412,W,2,07,1.2,-1.1,M,-25.1,M,1.8,0000*63
$GPGSA,A,3,28,08,05,13,07,26,11,,,,,,2.0,1.2,1.5*31
$GPRMC,190013.000,A,3748.7897,N,12217.8412,W,2.05,128.28,040811,,,D*78
$GPVTG,128.28,T,,M,2.05,N,3.8,K,D*05
$GPGGA,190014.000,3748.7893,N,12217.8405,W,2,07,1.2,-0.7,M,-25.1,M,2.8,0000*62
$GPGSA,A,3,28,08,05,13,07,26,11,,,,,,2.0,1.2,1.5*31
$GPGSV,3,1,12,08,66,008,28,28,62,255,31,07,55,070,30,26,29,316,22*74
$GPGSV,3,2,12,19,24,050,24,13,20,150,35,05,19,269,34,11,12,103,29*79
$GPGSV,3,3,12,10,12,218,34,17,10,188,33,03,00,035,,51,43,156,32*77
$GPVTG,118.72,T,,M,2.09,N,3.9,K,D*04
$GPGGA,190015.000,3748.7889,N,12217.8398,W,2,07,1.2,-0.5,M,-25.1,M,1.8,0000*6A
$GPGSA,A,3,28,08,05,13,07,26,11,,,,,,2.0,1.2,1.5*31
$GPRMC,190015.000,A,3748.7889,N,12217.8398,W,2.00,122.85,040811,,,D*7C
$GPVTG,122.85,T,,M,2.00,N,3.7,K,D*02
$GPGGA,190016.000,3748.7886,N,12217.8392,W,2,07,1.2,-0.5,M,-25.1,M,2.8,0000*6F
$GPGSA,A,3,28,08,05,13,07,26,11,,,,,,2.0,1.2,1.5*31
$GPRMC,190016.000,A,3748.7886,N,12217.8392,W,1.90,129.38,040811,,,D*7D
$GPVTG,129.38,T,,M,1.90,N,3.5,K,D*07
$GPGGA,190017.000,3748.7880,N,12217.8385,W,2,07,1.2,0.2,M,-25.1,M,3.8,0000*45
$GPGSA,A,3,28,08,05,13,07,26,11,,,,,,2.0,1.2,1.5*31
$GPRMC,190017.000,A,3748.7880,N,12217.8385,W,1.85,130.17,040811,,,D*7D
$GPVTG,130.17,T,,M,1.85,N,3.4,K,D*07
$GPGGA,190018.000,3748.7867,N,12217.8378,W,2,07,1.2,2.8,M,-25.1,M,4.8,0000*4E
$GPGSA,A,3,28,08,05,13,07,26,11,,,,,,2.0,1.2,1.5*31
$GPRMC,190018.000,A,3748.7867,N,12217.8378,W,2.06,134.04,040811,,,D*77
$GPVTG,134.04,T,,M,2.06,N,3.8,K,D*05
$GPGGA,190019.000,3748.7864,N,12217.8372,W,2,07,1.2,2.9,M,-25.1,M,1.8,0000*42
$GPGSA,A,3,28,08,05,13,07,26,11,,,,,,2.0,1.2,1.5*31
$GPGSV,3,1,12,08,66,008,28,28,62,255,31,07,55,070,30,26,29,316,24*72
$GPGSV,3,2,12,19,24,050,25,13,20,150,38,05,19,269,26,11,12,103,30*7E
$GPGSV,3,3,12,10,12,218,32,17,10,188,31,03,00,035,,51,43,156,36*77
$GPRMC,190019.000,A,3748.7864,N,12217.8372,W,2.08,129.60,040811,,,D*7F
$GPVTG,129.60,T,,M,2.08,N,3.9,K,D*04
$GPGGA,190020.000,3748.7861,N,12217.8365,W,2,07,1.2,2.9,M,-25.1,M,1.8,0000*4B
$GPGSA,A,3,28,08,05,13,07,26,11,,,,,,2.0,1.2,1.5*31
$GPRMC,190020.000,A,3748.7861,N,12217.8365,W,2.29,121.46,040811,,,D*79
$GPVTG,121.46,T,,M,2.29,N,4.2,K,D*07
$GPGGA,190021.000,3748.7858,N,12217.8357,W,2,06,1.5,3.2,M,-25.1,M,1.8,0000*4D
$GPGSA,A,3,28,08,05,13,07,26,,,,,,,2.5,1.5,2.0*35
$GPRMC,190021.000,A,3748.7858,N,12217.8357,W,2.20,113.03,040811,,,D*7A
$GPVTG,113.03,T,,M,2.20,N,4.1,K,D*0D
$GPGGA,190022.000,3748.7855,N,12217.8349,W,2,07,1.2,3.5,M,-25.1,M,2.8,0000*4E
$GPGSA,A,3,28,08,05,13,07,26,11,,,,,,2.0,1.2,1.5*31
$GPRMC,190022.000,A,3748.7855,N,12217.8349,W,2.11,110.46,040811,,,D*7B
$GPVTG,110.46,T,,M,2.11,N,3.9,K,D*02
$GPGGA,190023.000,3748.7853,N,12217.8342,W,2,07,1.2,3.5,M,-25.1,M,3.8,0000*43
$GPGSA,A,3,28,08,05,13,07,26,11,,,,,,2.0,1.2,1.5*31
$GPRMC,190023.000,A,3748.7853,N,12217.8342,W,2.32,116.48,040811,,,D*7E
$GPVTG,116.48,T,,M,2.32,N,4.3,K,D*06
$GPGGA,190024.000,3748.7850,N,12217.8334,W,2,07,1.2,3.5,M,-25.1,M,4.8,0000*41
$GPGSA,A,3,28,08,05,13,07,26,11,,,,,,2.0,1.2,1.5*31
$GPGSV,3,1,12,08,66,008,28,28,62,255,31,07,55,070,30,26,29,316,22*74
$GPGSV,3,2,12,19,24,050,28,13,20,150,33,05,19,269,30,11,12,103,27*79
$GPGSV,3,3,12,10,12,218,26,17,10,188,34,03,00,035,,51,43,156,36*77
$GPRMC,190024.000,A,3748.7850,N,12217.8334,W,2.17,118.09,040811,,,D*77
$GPVTG,118.09,T,,M,2.17,N,4.0,K,D*09
$GPGGA,190025.000,3748.7847,N,12217.8327,W,2,07,1.2,3.5,M,-25.1,M,1.8,0000*41
$GPGSA,A,3,28,08,05,13,07,26,11,,,,,,2.0,1.2,1.5*31
$GPRMC,190025.000,A,3748.7847,N,12217.8327,W,2.20,120.90,040811,,,D*7D
$GPVTG,120.90,T,,M,2.20,N,4.1,K,D*07
$GPGGA,190026.000,3748.7845,N,12217.8319,W,2,07,1.2,3.4,M,-25.1,M,1.8,0000*4C
$GPGSA,A,3,28,08,05,13,07,26,11,,,,,,2.0,1.2,1.5*31
$GPRMC,190026.000,A,3748.7845,N,12217.8319,W,1.93,126.85,040811,,,D*78
$GPVTG,126.85,T,,M,1.93,N,3.6,K,D*0E
$GPGGA,190027.000,3748.7843,N,12217.8313,W,2,07,1.2,3.1,M,-25.1,M,2.8,0000*47
$GPGSA,A,3,28,08,05,13,07,26,11,,,,,,2.0,1.2,1.5*31
$GPRMC,190027.000,A,3748.7843,N,12217.8313,W,1.30,95.93,040811,,,D*42
$GPVTG,95.93,T,,M,1.30,N,2.4,K,D*3A
$GPGGA,190028.000,3748.7842,N,12217.8306,W,2,07,1.2,3.4,M,-25.1,M,3.8,0000*49
$GPGSA,A,3,28,08,05,13,07,26,11,,,,,,2.0,1.2,1.5*31
$GPRMC,190028.000,A,3748.7842,N,12217.8306,W,2.27,103.05,040811,,,D*7C
$GPVTG,103.05,T,,M,2.27,N,4.2,K,D*0E
$GPGGA,190029.000,3748.7839,N,12217.8298,W,2,07,1.2,3.7,M,-25.1,M,4.8,0000*46
$GPGSA,A,3,28,08,05,13,07,26,11,,,,,,2.0,1.2,1.5*31
$GPGSV,3,1,11,08,66,008,28,28,62,255,31,07,55,070,29,26,29,316,27*7A
$GPGSV,3,2,11,19,24,050,20,13,20,150,35,05,19,269,30,11,12,103,28*7B
$GPGSV,3,3,11,10,12,218,33,17,10,188,26,03,00,035,*47
$GPRMC,190029.000,A,3748.7839,N,12217.8298,W,1.74,118.85,040811,,,D*70
$GPVTG,118.85,T,,M,1.74,N,3.2,K,D*0E
$GPGGA,190030.000,3748.7836,N,12217.8291,W,2,07,1.2,4.2,M,-25.1,M,5.8,0000*4B
$GPGSA,A,3,28,08,05,13,07,26,11,,,,,,2.0,1.2,1.5*31
$GPRMC,190030.000,A,3748.7836,N,12217.8291,W,1.95,104.17,040811,,,D*77
$GPVTG,104.17,T,,M,1.95,N,3.6,K,D*03
$GPGGA,190031.000,3748.7833,N,12217.8285,W,2,07,1.2,4.6,M,-25.1,M,6.8,0000*4D
$GPGSA,A,3,28,08,05,13,07,26,11,,,,,,2.0,1.2,1.5*31
$GPRMC,190031.000,A,3748.7833,N,12217.8285,W,1.85,122.99,040811,,,D*75
$GPVTG,122.99,T,,M,1.85,N,3.4,K,D*02
$GPGGA,190032.000,3748.7830,N,12217.8278,W,2,07,1.2,4.5,M,-25.1,M,7.8,0000*4D
$GPGSA,A,3,28,08,05,13,07,26,11,,,,,,2.0,1.2,1.5*31
$GPRMC,190032.000,A,3748.7830,N,12217.8278,W,1.96,132.67,040811,,,D*75
$GPVTG,132.67,T,,M,1.96,N,3.6,K,D*02
$GPGGA,190033.000,3748.7825,N,12217.8272,W,2,07,1.2,5.1,M,-25.1,M,8.8,0000*48
$GPGSA,A,3,28,08,05,13,07,26,11,,,,,,2.0,1.2,1.5*31
$GPRMC,190033.000,A,3748.7825,N,12217.8272,W,1.95,128.78,040811,,,D*7C
$GPVTG,128.78,T,,M,1.95,N,3.6,K,D*04
$GPGGA,190034.000,3748.7820,N,12217.8267,W,2,07,1.2,5.1,M,-25.1,M,9.8,0000*4F
$GPGSA,A,3,28,08,05,13,07,26,11,,,,,,2.0,1.2,1.5*31
$GPGSV,3,1,12,08,66,008,28,28,62,255,31,07,55,070,30,26,29,316,18*7D
$GPGSV,3,2,12,19,24,050,25,13,20,150,39,05,19,269,28,11,12,103,24*74
$GPGSV,3,3,12,10,12,218,36,17,10,188,34,03,00,035,,51,43,156,35*75
$GPRMC,190034.000,A,3748.7820,N,12217.8267,W,1.93,128.36,040811,,,D*76
$GPGGA,190035.000,3748.7816,N,12217.8260,W,2,06,1.5,4.9,M,-25.1,M,1.8,0000*4B
$GPGSA,A,3,28,08,05,13,07,11,,,,,,,2.4,1.5,1.8*3B
$GPRMC,190035.000,A,3748.7816,N,12217.8260,W,2.26,121.12,040811,,,D*77
$GPVTG,121.12,T,,M,2.26,N,4.2,K,D*09
$GPGGA,190036.000,3748.7812,N,12217.8252,W,2,07,1.2,4.5,M,-25.1,M,2.8,0000*44
$GPGSA,A,3,28,08,05,13,07,26,11,,,,,,2.0,1.2,1.5*31
$GPRMC,190036.000,A,3748.7812,N,12217.8252,W,2.41,114.76,040811,,,D*74
$GPVTG,114.76,T,,M,2.41,N,4.5,K,D*0B
$GPGGA,190037.000,3748.7808,N,12217.8244,W,2,07,1.2,4.3,M,-25.1,M,1.8,0000*4C
$GPGSA,A,3,28,08,05,13,07,26,11,,,,,,2.0,1.2,1.5*31
$GPRMC,190037.000,A,3748.7808,N,12217.8244,W,2.22,121.05,040811,,,D*7E
$GPVTG,121.05,T,,M,2.22,N,4.1,K,D*08
$GPGGA,190038.000,3748.7805,N,12217.8236,W,2,07,1.2,4.4,M,-25.1,M,1.8,0000*4C
$GPGSA,A,3,28,08,05,13,07,26,11,,,,,,2.0,1.2,1.5*31
$GPRMC,190038.000,A,3748.7805,N,12217.8236,W,2.23,118.11,040811,,,D*77
$GPVTG,118.11,T,,M,2.23,N,4.1,K,D*06
$GPGGA,190039.000,3748.7801,N,12217.8229,W,2,07,1.2,4.5,M,-25.1,M,1.8,0000*46
$GPGSA,A,3,28,08,05,13,07,26,11,,,,,,2.0,1.2,1.5*31
$GPGSV,3,1,12,08,66,008,28,28,62,255,32,07,55,070,29,26,29,316,26*7B
$GPGSV,3,2,12,19,24,050,23,13,20,150,39,05,19,269,34,11,12,103,31*7B
