$ADVER,3080,2.3
$GPRMC,173404.286,A,3748.8067,N,12217.8601,W,0.11,18.07,270612,,,A*42
$GPRMC,173405.286,A,3748.8071,N,12217.8600,W,0.08,83.52,270612,,,A*4F
$GPRMC,173406.286,A,3748.8074,N,12217.8600,W,0.28,8.55,270612,,,A*7F
$GPRMC,173407.286,A,3748.8077,N,12217.8599,W,0.20,17.78,270612,,,A*47
$GPRMC,173408.286,A,3748.8077,N,12217.8599,W,0.08,60.44,270612,,,A*4D
$GPRMC,173409.286,A,3748.8076,N,12217.8599,W,0.09,37.10,270612,,,A*4F
$GPRMC,173410.286,A,3748.8076,N,12217.8599,W,0.17,29.71,270612,,,A*40
$GPRMC,173411.286,A,3748.8077,N,12217.8599,W,0.16,30.52,270612,,,A*48
$GPRMC,173412.286,A,3748.8078,N,12217.8599,W,0.09,148.70,270612,,,A*74
$GPRMC,173413.286,A,3748.8078,N,12217.8599,W,0.07,39.87,270612,,,A*44
$GPRMC,173414.286,A,3748.8080,N,12217.8598,W,0.07,121.16,270612,,,A*75
$GPRMC,173415.286,A,3748.8084,N,12217.8599,W,0.12,28.16,270612,,,A*4D
$GPRMC,173416.286,A,3748.8086,N,12217.8599,W,0.36,10.20,270612,,,A*44
$GPRMC,173417.286,A,3748.8087,N,12217.8598,W,0.17,89.72,270612,,,A*41
$GPRMC,173418.286,A,3748.8041,N,12217.8502,W,0.19,355.59,270612,,,A*72
$GPRMC,173419.286,A,3748.8040,N,12217.8498,W,0.21,8.95,270612,,,A*70
$GPRMC,173420.286,A,3748.8043,N,12217.8504,W,0.84,351.01,270612,,,A*70
$GPRMC,173421.286,A,3748.8038,N,12217.8519,W,6.86,1.62,270612,,,A*76
$GPRMC,173422.286,A,3748.8150,N,12217.8527,W,1.57,354.00,270612,,,A*7B
$GPRMC,173423.286,A,3748.8143,N,12217.8533,W,0.38,29.02,270612,,,A*4E
$GPRMC,173424.286,A,3748.8064,N,12217.8538,W,2.87,180.18,270612,,,A*79
$GPRMC,173425.286,A,3748.8018,N,12217.8542,W,1.85,178.08,270612,,,A*79
$GPRMC,173426.286,A,3748.8130,N,12217.8543,W,1.81,359.92,270612,,,A*76
$GPRMC,173427.286,A,3748.8068,N,12217.8526,W,0.56,61.02,270612,,,A*42
$GPRMC,173428.286,A,3748.8104,N,12217.8544,W,1.44,172.93,270612,,,A*7B
$GPRMC,173429.286,A,3748.8055,N,12217.8553,W,0.09,67.61,270612,,,A*49
$GPRMC,173430.286,A,3748.8047,N,12217.8565,W,0.10,136.78,270612,,,A*72
$GPRMC,173431.286,A,3748.8034,N,12217.8572,W,0.10,67.77,270612,,,A*4B
$GPRMC,173432.286,A,3748.8059,N,12217.8575,W,0.06,78.56,270612,,,A*4E
$GPRMC,173433.286,A,3748.8065,N,12217.8578,W,0.19,10.91,270612,,,A*46
$GPRMC,173434.286,A,3748.8069,N,12217.8582,W,0.08,60.44,270612,,,A*47
$GPRMC,173435.286,A,3748.8067,N,12217.8583,W,0.10,34.78,270612,,,A*4E
$GPRMC,173436.286,A,3748.8063,N,12217.8583,W,0.25,15.82,270612,,,D*4C
$GPRMC,173437.286,A,3748.8065,N,12217.8584,W,0.12,36.76,270612,,,D*42
$GPRMC,173438.286,A,3748.8057,N,12217.8585,W,0.07,142.08,270612,,,D*72
$GPRMC,173439.286,A,3748.8053,N,12217.8585,W,0.13,27.34,270612,,,D*4F
$GPRMC,173440.286,A,3748.8048,N,12217.8584,W,0.04,97.87,270612,,,D*4F
$GPRMC,173441.286,A,3748.8052,N,12217.8584,W,0.11,38.80,270612,,,D*43
$GPRMC,173442.286,A,3748.8055,N,12217.8584,W,0.50,172.18,270612,,,D*7C
$GPRMC,173443.286,A,3748.8053,N,12217.8584,W,1.86,1.90,270612,,,D*74
$GPRMC,173444.286,A,3748.8009,N,12217.8584,W,0.18,154.95,270612,,,D*7E
$GPRMC,173445.286,A,3748.8164,N,12217.8584,W,0.04,68.82,270612,,,D*40
$GPRMC,173446.286,A,3748.8109,N,12217.8585,W,2.59,353.47,270612,,,D*71
$GPRMC,173448.286,A,3748.7982,N,12217.8625,W,1.51,129.76,270612,,,D*74
$GPRMC,173449.286,A,3748.7968,N,12217.8566,W,1.98,64.68,270612,,,D*47
$GPRMC,173450.286,A,3748.7945,N,12217.8486,W,3.25,137.95,270612,,,D*7E
$GPRMC,173451.286,A,3748.8030,N,12217.8481,W,1.41,123.15,270612,,,D*71
$GPRMC,173456.286,A,3748.7946,N,12217.8569,W,1.64,137.21,270612,,,D*73
$GPRMC,173457.286,A,3748.7994,N,12217.8548,W,2.53,127.63,270612,,,D*7E
$GPRMC,173458.286,A,3748.8019,N,12217.8565,W,2.00,99.10,270612,,,D*4B
$GPRMC,173459.286,A,3748.8041,N,12217.8560,W,2.14,87.43,270612,,,D*4E
$GPRMC,173500.286,A,3748.8030,N,12217.8542,W,1.88,112.52,270612,,,D*7E
$GPRMC,173501.286,A,3748.8001,N,12217.8542,W,2.47,143.62,270612,,,A*7F
$GPRMC,173502.286,A,3748.7951,N,12217.8512,W,1.94,139.05,270612,,,A*7B
$GPRMC,173503.286,A,3748.7922,N,12217.8503,W,1.31,126.97,270612,,,A*74
$GPRMC,173509.286,A,3748.7928,N,12217.8444,W,1.37,126.72,270612,,,A*7B
$GPRMC,173510.286,A,3748.7849,N,12217.8488,W,0.63,119.65,270612,,,A*7F
$GPRMC,173511.286,A,3748.7874,N,12217.8478,W,0.69,147.42,270612,,,A*7B
$GPRMC,173512.286,A,3748.7819,N,12217.8497,W,1.29,349.03,270612,,,A*7E
$GPRMC,173514.286,A,3748.7906,N,12217.8418,W,2.81,142.01,270612,,,D*7F
$GPRMC,173515.286,A,3748.7979,N,12217.8365,W,1.29,154.93,270612,,,D*76
$GPRMC,173520.286,A,3748.7796,N,12217.8346,W,0.61,313.57,270612,,,D*7A
$GPRMC,173529.286,A,3748.7683,N,12217.8355,W,0.78,137.14,270612,,,D*7F
$GPRMC,173530.286,A,3748.7660,N,12217.8316,W,1.08,59.23,270612,,,D*46
$GPRMC,173535.286,A,3748.7787,N,12217.8283,W,1.44,100.76,270612,,,D*73
$GPRMC,173536.286,A,3748.7782,N,12217.8263,W,1.78,19.30,270612,,,D*4F
$GPRMC,173537.286,A,3748.7664,N,12217.8324,W,2.41,250.10,270612,,,D*71
$GPRMC,173538.286,A,3748.7682,N,12217.8273,W,1.70,322.27,270612,,,D*74
$GPRMC,173539.286,A,3748.7748,N,12217.8301,W,2.09,188.39,270612,,,D*76
$GPRMC,173540.286,A,3748.7728,N,12217.8317,W,0.85,303.49,270612,,,D*79
$GPRMC,173541.286,A,3748.7740,N,12217.8324,W,1.16,43.86,270612,,,D*49
$GPRMC,173542.286,A,3748.7723,N,12217.8247,W,1.59,37.37,270612,,,D*49
$GPRMC,173543.286,A,3748.7794,N,12217.8214,W,1.00,83.33,270612,,,D*45
$GPRMC,173544.286,A,3748.7807,N,12217.8253,W,0.69,16.19,270612,,,D*4E
$GPRMC,173545.286,A,3748.7804,N,12217.8245,W,1.71,303.63,270612,,,D*79
$GPRMC,173546.286,A,3748.7808,N,12217.8246,W,0.48,233.53,270612,,,D*7F
$GPRMC,173547.286,A,3748.7775,N,12217.8180,W,0.88,54.34,270612,,,D*4C
$GPRMC,173548.286,A,3748.7800,N,12217.8188,W,2.04,147.57,270612,,,D*76
$GPRMC,173549.286,A,3748.7797,N,12217.8232,W,2.16,124.36,270612,,,D*75
$GPRMC,173550.286,A,3748.7618,N,12217.8257,W,1.81,71.90,270612,,,D*48
$GPRMC,173551.286,A,3748.7526,N,12217.8310,W,2.36,34.66,270612,,,D*42
$GPRMC,173552.286,A,3748.7623,N,12217.8260,W,2.00,27.96,270612,,,D*49
$GPRMC,173553.286,A,3748.7640,N,12217.8213,W,0.82,152.97,270612,,,D*73
$GPRMC,173554.286,A,3748.7718,N,12217.8176,W,0.81,147.34,270612,,,D*76
$GPRMC,173555.286,A,3748.7684,N,12217.8111,W,1.05,316.29,270612,,,D*75
$GPRMC,173556.286,A,3748.7731,N,12217.8132,W,2.06,327.43,270612,,,D*76
$GPRMC,173557.286,A,3748.7764,N,12217.8162,W,0.08,344.37,270612,,,D*78
$GPRMC,173558.286,A,3748.7729,N,12217.8110,W,0.07,155.24,270612,,,D*74
$GPRMC,173559.286,A,3748.7714,N,12217.8088,W,0.53,57.14,270612,,,D*4A
$GPRMC,173600.286,A,3748.7709,N,12217.8053,W,1.13,86.50,270612,,,D*46
$GPRMC,173601.000,A,3748.7707,N,12217.8041,W,1.63,108.46,270612,,,D*71
$GPRMC,173602.000,A,3748.7702,N,12217.8018,W,1.69,113.86,270612,,,D*77
$GPRMC,173603.000,A,3748.7701,N,12217.8022,W,0.75,139.91,270612,,,D*7E
$GPRMC,173604.000,A,3748.7704,N,12217.8026,W,0.48,68.56,270612,,,D*48
$GPRMC,173605.000,A,3748.7706,N,12217.8035,W,0.39,354.01,270612,,,D*71
$GPRMC,173606.000,A,3748.7709,N,12217.8044,W,0.77,352.21,270612,,,D*75
$GPRMC,173607.000,A,3748.7712,N,12217.8046,W,0.72,332.98,270612,,,D*7D
$GPRMC,173608.000,A,3748.7715,N,12217.8047,W,0.65,345.18,270612,,,D*7A
$GPRMC,173609.000,A,3748.7714,N,12217.8043,W,0.72,71.90,270612,,,D*4C
$GPRMC,173610.000,A,3748.7710,N,12217.8038,W,1.25,112.97,270612,,,D*7C
$GPRMC,173611.000,A,3748.7704,N,12217.8031,W,1.71,125.49,270612,,,D*77
$GPRMC,173612.000,A,3748.7700,N,12217.8018,W,2.25,119.76,270612,,,D*7A
$GPRMC,173613.000,A,3748.7699,N,12217.8017,W,1.26,117.56,270612,,,D*79
$GPRMC,173614.000,A,3748.7700,N,12217.8019,W,0.56,91.14,270612,,,D*4E
$GPRMC,173615.000,A,3748.7695,N,12217.8016,W,0.46,116.96,270612,,,D*78
$GPRMC,173616.000,A,3748.7690,N,12217.8013,W,0.42,91.51,270612,,,D*4A
$GPRMC,173617.000,A,3748.7686,N,12217.8007,W,0.71,108.23,270612,,,D*7D
$GPRMC,173618.000,A,3748.7683,N,12217.8002,W,0.92,106.46,270612,,,D*72
$GPRMC,173619.000,A,3748.7682,N,12217.7996,W,1.42,107.96,270612,,,D*79
$GPRMC,173620.000,A,3748.7679,N,12217.7989,W,1.48,110.72,270612,,,D*7F
$GPRMC,173621.000,A,3748.7676,N,12217.7983,W,1.16,108.90,270612,,,D*75
$GPRMC,173622.000,A,3748.7674,N,12217.7977,W,1.06,118.51,270612,,,D*72
$GPRMC,173623.000,A,3748.7672,N,12217.7973,W,1.52,110.77,270612,,,D*7C
$GPRMC,173624.000,A,3748.7670,N,12217.7966,W,1.69,101.35,270612,,,D*73
$GPRMC,173625.000,A,3748.7667,N,12217.7961,W,1.32,115.40,270612,,,D*7A
$GPRMC,173626.000,A,3748.7663,N,12217.7957,W,1.83,113.02,270612,,,D*72
$GPRMC,173627.000,A,3748.7661,N,12217.7953,W,1.64,103.36,270612,,,D*7A
$GPRMC,173628.000,A,3748.7661,N,12217.7945,W,1.64,93.21,270612,,,D*4C
$GPRMC,173629.000,A,3748.7661,N,12217.7938,W,1.90,92.75,270612,,,D*4C
$GPRMC,173630.000,A,3748.7660,N,12217.7930,W,1.91,102.23,270612,,,D*77
$GPRMC,173631.000,A,3748.7660,N,12217.7925,W,1.62,112.84,270612,,,D*72
$GPRMC,173632.000,A,3748.7657,N,12217.7924,W,1.11,119.42,270612,,,D*71
$GPRMC,173633.000,A,3748.7653,N,12217.7923,W,0.74,117.04,270612,,,D*7D
$GPRMC,173634.000,A,3748.7645,N,12217.7916,W,2.25,122.17,270612,,,D*79
$GPRMC,173635.000,A,3748.7639,N,12217.7907,W,2.47,123.91,270612,,,D*78
$GPRMC,173636.000,A,3748.7634,N,12217.7899,W,2.17,131.01,270612,,,D*7F
$GPRMC,173637.000,A,3748.7630,N,12217.7891,W,2.34,131.98,270612,,,D*73
$GPRMC,173638.000,A,3748.7626,N,12217.7883,W,2.54,128.62,270612,,,D*73
$GPRMC,173639.000,A,3748.7622,N,12217.7875,W,2.82,117.93,270612,,,D*76
$GPRMC,173640.000,A,3748.7621,N,12217.7865,W,2.57,84.44,270612,,,D*43
$GPRMC,173641.000,A,3748.7620,N,12217.7857,W,2.15,76.60,270612,,,D*4F
$GPRMC,173642.000,A,3748.7616,N,12217.7851,W,1.96,85.71,270612,,,D*4B
$GPRMC,173643.000,A,3748.7609,N,12217.7845,W,2.51,120.00,270612,,,D*71
$GPRMC,173644.000,A,3748.7602,N,12217.7839,W,2.46,121.13,270612,,,D*73
$GPRMC,173645.000,A,3748.7597,N,12217.7832,W,2.54,115.24,270612,,,D*76
$GPRMC,173646.000,A,3748.7594,N,12217.7825,W,2.33,105.32,270612,,,D*77
$GPRMC,173647.000,A,3748.7588,N,12217.7819,W,2.27,110.65,270612,,,D*77
$GPRMC,173648.000,A,3748.7585,N,12217.7811,W,2.48,117.53,270612,,,D*76
$GPRMC,173649.000,A,3748.7579,N,12217.7804,W,2.26,136.63,270612,,,D*78
$GPRMC,173650.000,A,3748.7570,N,12217.7802,W,2.19,141.43,270612,,,D*71
$GPRMC,173651.000,A,3748.7563,N,12217.7797,W,2.65,133.34,270612,,,D*7F
$GPRMC,173652.000,A,3748.7556,N,12217.7790,W,2.40,129.72,270612,,,D*73
$GPRMC,173653.000,A,3748.7551,N,12217.7782,W,2.36,123.10,270612,,,D*79
$GPRMC,173654.000,A,3748.7548,N,12217.7771,W,2.07,129.80,270612,,,D*7B
$GPRMC,173655.000,A,3748.7544,N,12217.7762,W,2.00,127.93,270612,,,D*7F
$GPRMC,173656.000,A,3748.7541,N,12217.7751,W,2.06,124.50,270612,,,D*73
$GPRMC,173657.000,A,3748.7538,N,12217.7741,W,1.96,119.92,270612,,,D*77
$GPRMC,173658.000,A,3748.7536,N,12217.7732,W,2.65,116.94,270612,,,D*74
$GPRMC,173659.000,A,3748.7531,N,12217.7722,W,2.94,119.27,270612,,,D*7A
$GPRMC,173700.000,A,3748.7526,N,12217.7715,W,2.28,122.26,270612,,,D*7B
$GPRMC,173701.000,A,3748.7521,N,12217.7706,W,2.05,123.61,270612,,,D*72
$GPRMC,173702.000,A,3748.7516,N,12217.7704,W,2.10,128.85,270612,,,D*72
$GPRMC,173703.000,A,3748.7511,N,12217.7701,W,2.63,116.38,270612,,,D*7E
$GPRMC,173704.000,A,3748.7506,N,12217.7693,W,2.50,118.82,270612,,,D*7A
$GPRMC,173705.000,A,3748.7499,N,12217.7690,W,1.76,143.02,270612,,,D*7E
$GPRMC,173706.000,A,3748.7491,N,12217.7685,W,1.97,133.53,270612,,,D*7D
$GPRMC,173707.000,A,3748.7485,N,12217.7679,W,2.37,131.43,270612,,,D*70
$GPRMC,173708.000,A,3748.7483,N,12217.7668,W,2.54,126.33,270612,,,D*7D
$GPRMC,173709.000,A,3748.7474,N,12217.7661,W,2.54,129.97,270612,,,D*7C
$GPRMC,173710.000,A,3748.7471,N,12217.7650,W,2.53,130.05,270612,,,D*77
$GPRMC,173711.000,A,3748.7467,N,12217.7643,W,2.50,128.26,270612,,,D*78
$GPRMC,173712.000,A,3748.7466,N,12217.7634,W,2.63,115.90,270612,,,D*79
$GPRMC,173713.000,A,3748.7466,N,12217.7623,W,2.38,111.80,270612,,,D*75
$GPRMC,173714.000,A,3748.7465,N,12217.7613,W,2.50,114.72,270612,,,D*74
$GPRMC,173715.000,A,3748.7463,N,12217.7605,W,2.27,119.25,270612,,,D*7B
$GPRMC,173716.000,A,3748.7459,N,12217.7599,W,2.27,123.84,270612,,,D*75
$GPRMC,173717.000,A,3748.7454,N,12217.7593,W,2.64,125.40,270612,,,D*7A
$GPRMC,173718.000,A,3748.7449,N,12217.7582,W,2.39,130.92,270612,,,D*7A
$GPRMC,173719.000,A,3748.7434,N,12217.7583,W,2.03,124.13,270612,,,D*75
$GPRMC,173720.000,A,3748.7425,N,12217.7580,W,1.89,128.52,270612,,,D*74
$GPRMC,173721.000,A,3748.7414,N,12217.7581,W,1.55,141.95,270612,,,D*73
$GPRMC,173722.000,A,3748.7412,N,12217.7573,W,2.12,123.61,270612,,,D*74
$GPRMC,173723.000,A,3748.7410,N,12217.7563,W,2.26,124.42,270612,,,D*77
$GPRMC,173724.000,A,3748.7410,N,12217.7554,W,2.06,118.54,270612,,,D*7E
$GPRMC,173725.000,A,3748.7410,N,12217.7544,W,2.03,118.03,270612,,,D*79
$GPRMC,173726.000,A,3748.7411,N,12217.7536,W,1.99,118.37,270612,,,D*79
$GPRMC,173727.000,A,3748.7409,N,12217.7528,W,1.83,117.85,270612,,,D*73
$GPRMC,173728.000,A,3748.7407,N,12217.7518,W,1.95,114.68,270612,,,D*76
$GPRMC,173729.000,A,3748.7407,N,12217.7511,W,2.00,115.63,270612,,,D*7B
$GPRMC,173730.000,A,3748.7408,N,12217.7503,W,1.98,91.94,270612,,,D*48
$GPRMC,173731.000,A,3748.7406,N,12217.7495,W,2.28,131.19,270612,,,D*7F
$GPRMC,173732.000,A,3748.7403,N,12217.7487,W,2.14,120.40,270612,,,D*79
$GPRMC,173733.000,A,3748.7400,N,12217.7478,W,2.56,118.12,270612,,,D*71
$GPRMC,173734.000,A,3748.7397,N,12217.7468,W,2.11,108.50,270612,,,D*7A
$GPRMC,173735.000,A,3748.7394,N,12217.7458,W,2.31,104.68,270612,,,D*7E
$GPRMC,173736.000,A,3748.7394,N,12217.7451,W,1.63,110.27,270612,,,D*7E
$GPRMC,173737.000,A,3748.7392,N,12217.7443,W,2.19,110.45,270612,,,D*70
$GPRMC,173738.000,A,3748.7390,N,12217.7434,W,2.32,108.54,270612,,,D*7D
$GPRMC,173739.000,A,3748.7387,N,12217.7425,W,2.31,112.80,270612,,,D*7B
$GPRMC,173740.000,A,3748.7385,N,12217.7416,W,2.38,114.40,270612,,,D*74
$GPRMC,173741.000,A,3748.7382,N,12217.7407,W,2.31,113.48,270612,,,D*74
$GPRMC,173742.000,A,3748.7379,N,12217.7398,W,2.30,108.12,270612,,,D*76
$GPRMC,173743.000,A,3748.7376,N,12217.7389,W,2.64,105.24,270612,,,D*71
$GPRMC,173744.000,A,3748.7376,N,12217.7379,W,2.42,105.38,270612,,,D*70
$GPRMC,173745.000,A,3748.7371,N,12217.7369,W,2.22,119.28,270612,,,D*7D
$GPRMC,173746.000,A,3748.7368,N,12217.7359,W,2.13,108.98,270612,,,D*7C
$GPRMC,173747.000,A,3748.7366,N,12217.7352,W,1.65,107.34,270612,,,D*73
$GPRMC,173748.000,A,3748.7358,N,12217.7348,W,2.07,158.71,270612,,,D*76
$GPRMC,173749.000,A,3748.7350,N,12217.7340,W,1.86,134.22,270612,,,D*71
$GPRMC,173750.000,A,3748.7345,N,12217.7336,W,0.99,116.92,270612,,,D*78
$GPRMC,173751.000,A,3748.7341,N,12217.7330,W,1.59,120.81,270612,,,D*71
$GPRMC,173752.000,A,3748.7336,N,12217.7324,W,1.46,127.58,270612,,,D*7A
$GPRMC,173753.000,A,3748.7331,N,12217.7316,W,1.81,119.88,270612,,,D*76
$GPRMC,173754.000,A,3748.7329,N,12217.7309,W,1.56,122.86,270612,,,D*7A
$GPRMC,173755.000,A,3748.7329,N,12217.7300,W,1.46,121.29,270612,,,D*75
$GPRMC,173756.000,A,3748.7327,N,12217.7293,W,1.46,117.85,270612,,,D*70
$GPRMC,173757.000,A,3748.7318,N,12217.7280,W,1.80,125.65,270612,,,D*7A
$GPRMC,173758.000,A,3748.7314,N,12217.7273,W,1.88,122.28,270612,,,D*73
$GPRMC,173759.000,A,3748.7310,N,12217.7268,W,1.79,123.03,270612,,,D*7A
$GPRMC,173800.000,A,3748.7307,N,12217.7263,W,1.70,125.37,270612,,,D*7C
$GPRMC,173801.000,A,3748.7303,N,12217.7255,W,1.53,126.29,270612,,,D*71
$GPRMC,173802.000,A,3748.7298,N,12217.7247,W,1.97,123.10,270612,,,D*75
$GPRMC,173803.000,A,3748.7294,N,12217.7238,W,2.38,122.18,270612,,,D*7F
$GPRMC,173804.000,A,3748.7291,N,12217.7229,W,2.44,122.91,270612,,,D*77
$GPRMC,173805.000,A,3748.7287,N,12217.7221,W,2.24,118.05,270612,,,D*7B
$GPRMC,173806.000,A,3748.7284,N,12217.7213,W,2.24,121.88,270612,,,D*75
$GPRMC,173807.000,A,3748.7281,N,12217.7205,W,2.25,111.77,270612,,,D*74
$GPRMC,173808.000,A,3748.7278,N,12217.7196,W,2.46,115.76,270612,,,D*74
$GPRMC,173809.000,A,3748.7275,N,12217.7186,W,2.32,109.32,270612,,,D*77
$GPRMC,173810.000,A,3748.7274,N,12217.7176,W,1.96,90.78,270612,,,D*43
$GPRMC,173811.000,A,3748.7276,N,12217.7169,W,2.30,74.12,270612,,,D*47
$GPRMC,173812.000,A,3748.7280,N,12217.7163,W,2.01,49.91,270612,,,D*40
$GPRMC,173813.000,A,3748.7287,N,12217.7159,W,1.72,36.70,270612,,,D*4F
$GPRMC,173814.000,A,3748.7293,N,12217.7153,W,2.30,32.27,270612,,,D*44
$GPRMC,173815.000,A,3748.7303,N,12217.7146,W,2.51,27.84,270612,,,D*43
$GPRMC,173816.000,A,3748.7311,N,12217.7141,W,2.72,29.47,270612,,,D*44
$GPRMC,173817.000,A,3748.7319,N,12217.7136,W,2.57,22.80,270612,,,D*4A
$GPRMC,173818.000,A,3748.7325,N,12217.7132,W,2.37,20.27,270612,,,D*47
$GPRMC,173819.000,A,3748.7331,N,12217.7129,W,2.13,15.99,270612,,,D*4C
$GPRMC,173820.000,A,3748.7338,N,12217.7127,W,1.91,5.64,270612,,,D*7B
$GPRMC,173821.000,A,3748.7344,N,12217.7127,W,1.30,291.42,270612,,,D*71
$GPRMC,173822.000,A,3748.7342,N,12217.7130,W,1.08,210.17,270612,,,D*70
$GPRMC,173823.000,A,3748.7339,N,12217.7132,W,1.60,218.10,270612,,,D*7E
$GPRMC,173824.000,A,3748.7335,N,12217.7132,W,1.30,205.57,270612,,,D*7F
$GPRMC,173825.000,A,3748.7330,N,12217.7132,W,0.74,179.88,270612,,,D*70
$GPRMC,173826.000,A,3748.7326,N,12217.7129,W,0.11,79.93,270612,,,D*46
$GPRMC,173827.000,A,3748.7330,N,12217.7125,W,1.05,11.34,270612,,,D*4B
$GPRMC,173828.000,A,3748.7329,N,12217.7123,W,1.29,5.97,270612,,,A*7D
$GPRMC,173829.000,A,3748.7332,N,12217.7121,W,1.64,22.54,270612,,,A*47
$GPRMC,173830.000,A,3748.7336,N,12217.7116,W,2.10,31.04,270612,,,A*48
$GPRMC,173831.000,A,3748.7340,N,12217.7112,W,2.05,25.71,270612,,,A*4F
$GPRMC,173832.000,A,3748.7345,N,12217.7108,W,1.53,19.61,270612,,,A*4C
$GPRMC,173833.000,A,3748.7350,N,12217.7103,W,2.24,24.61,270612,,,A*4F
$GPRMC,173834.000,A,3748.7355,N,12217.7098,W,2.10,19.90,270612,,,A*49
$GPRMC,173835.000,A,3748.7360,N,12217.7096,W,1.66,21.03,270612,,,A*43
$GPRMC,173836.000,A,3748.7367,N,12217.7093,W,1.93,18.84,270612,,,A*4D
$GPRMC,173837.000,A,3748.7373,N,12217.7088,W,2.31,28.89,270612,,,A*46
$GPRMC,173838.000,A,3748.7380,N,12217.7082,W,2.43,27.51,270612,,,A*40
$GPRMC,173839.000,A,3748.7385,N,12217.7078,W,2.16,26.70,270612,,,A*43
$GPRMC,173840.000,A,3748.7390,N,12217.7073,W,2.40,32.88,270612,,,A*43
$GPRMC,173841.000,A,3748.7395,N,12217.7068,W,2.32,23.50,270612,,,A*4D
$GPRMC,173842.000,A,3748.7401,N,12217.7065,W,2.23,22.26,270612,,,A*49
$GPRMC,173843.000,A,3748.7407,N,12217.7062,W,2.09,20.98,270612,,,A*46
$GPRMC,173844.000,A,3748.7411,N,12217.7059,W,2.18,15.09,270612,,,A*40
$GPRMC,173845.000,A,3748.7416,N,12217.7055,W,2.26,20.77,270612,,,A*48
$GPRMC,173846.000,A,3748.7421,N,12217.7052,W,2.05,13.79,270612,,,A*47
$GPRMC,173847.000,A,3748.7428,N,12217.7047,W,2.16,22.34,270612,,,A*42
$GPRMC,173848.000,A,3748.7438,N,12217.7042,W,2.52,18.66,270612,,,A*47
$GPRMC,173849.000,A,3748.7446,N,12217.7037,W,2.36,22.64,270612,,,A*44
$GPRMC,173850.000,A,3748.7453,N,12217.7032,W,1.66,26.77,270612,,,A*4D
$GPRMC,173851.000,A,3748.7458,N,12217.7026,W,1.80,37.59,270612,,,A*46
$GPRMC,173852.000,A,3748.7465,N,12217.7019,W,1.55,17.82,270612,,,A*4B
$GPRMC,173853.000,A,3748.7468,N,12217.7018,W,1.79,17.08,270612,,,A*4A
$GPRMC,173854.000,A,3748.7473,N,12217.7015,W,2.31,28.89,270612,,,A*40
$GPRMC,173855.000,A,3748.7480,N,12217.7007,W,1.52,26.98,270612,,,A*46
$GPRMC,173856.000,A,3748.7485,N,12217.7003,W,1.34,18.12,270612,,,A*4B
$GPRMC,173857.000,A,3748.7488,N,12217.7001,W,1.38,18.84,270612,,,A*46
$GPRMC,173858.000,A,3748.7494,N,12217.6998,W,1.88,20.80,270612,,,A*48
$GPRMC,173859.000,A,3748.7497,N,12217.6996,W,1.98,15.16,270612,,,A*4C
$GPRMC,173900.000,A,3748.7505,N,12217.6990,W,1.67,16.98,270612,,,A*48
$GPRMC,173901.000,A,3748.7511,N,12217.6985,W,1.74,21.09,270612,,,A*46
$GPRMC,173902.000,A,3748.7519,N,12217.6980,W,1.75,14.28,270612,,,A*4C
$GPRMC,173903.000,A,3748.7527,N,12217.6975,W,1.97,15.02,270612,,,A*4F
$GPRMC,173904.000,A,3748.7534,N,12217.6970,W,1.97,24.11,270612,,,A*4F
$GPRMC,173905.000,A,3748.7541,N,12217.6966,W,1.81,14.84,270612,,,A*43
$GPRMC,173906.000,A,3748.7546,N,12217.6963,W,2.08,14.13,270612,,,A*4E
$GPRMC,173907.000,A,3748.7552,N,12217.6961,W,2.05,12.20,270612,,,A*43
$GPRMC,173908.000,A,3748.7556,N,12217.6958,W,2.34,25.50,270612,,,A*43
$GPRMC,173909.000,A,3748.7560,N,12217.6953,W,1.90,29.57,270612,,,A*4A
$GPRMC,173910.000,A,3748.7565,N,12217.6948,W,2.36,28.12,270612,,,A*42
$GPRMC,173911.000,A,3748.7572,N,12217.6946,W,2.29,30.39,270612,,,A*45
$GPRMC,173912.000,A,3748.7575,N,12217.6938,W,2.02,40.84,270612,,,A*40
$GPRMC,173913.000,A,3748.7578,N,12217.6928,W,1.81,24.40,270612,,,A*4F
$GPRMC,173914.000,A,3748.7582,N,12217.6919,W,1.91,29.82,270612,,,A*4D
$GPRMC,173915.000,A,3748.7586,N,12217.6909,W,1.65,19.74,270612,,,A*48
$GPRMC,173916.000,A,3748.7589,N,12217.6905,W,1.12,345.78,270612,,,A*7E
$GPRMC,173917.000,A,3748.7590,N,12217.6904,W,0.63,329.96,270612,,,A*7B
$GPRMC,173918.000,A,3748.7593,N,12217.6901,W,1.60,21.99,270612,,,A*44
$GPRMC,173919.000,A,3748.7598,N,12217.6899,W,1.45,16.91,270612,,,A*45
$GPRMC,173920.000,A,3748.7605,N,12217.6895,W,1.57,21.48,270612,,,A*47
$GPRMC,173921.000,A,3748.7614,N,12217.6889,W,2.58,29.44,270612,,,A*43
$GPRMC,173922.000,A,3748.7622,N,12217.6883,W,2.61,33.71,270612,,,A*48
$GPRMC,173923.000,A,3748.7632,N,12217.6876,W,2.15,28.76,270612,,,A*4C
$GPRMC,173924.000,A,3748.7638,N,12217.6872,W,2.05,23.00,270612,,,A*4E
$GPRMC,173925.000,A,3748.7644,N,12217.6868,W,2.33,30.72,270612,,,A*4D
$GPRMC,173926.000,A,3748.7653,N,12217.6864,W,2.28,20.63,270612,,,A*4F
$GPRMC,173927.000,A,3748.7658,N,12217.6861,W,1.71,12.86,270612,,,A*45
$GPRMC,173928.000,A,3748.7663,N,12217.6858,W,1.83,13.96,270612,,,A*45
$GPRMC,173929.000,A,3748.7668,N,12217.6854,W,2.00,18.25,270612,,,A*48
$GPRMC,173930.000,A,3748.7673,N,12217.6848,W,2.45,27.43,270612,,,A*4A
$GPRMC,173931.000,A,3748.7679,N,12217.6842,W,2.48,31.10,270612,,,A*47
$GPRMC,173932.000,A,3748.7684,N,12217.6836,W,2.54,36.07,270612,,,A*49
$GPRMC,173933.000,A,3748.7690,N,12217.6830,W,2.49,26.50,270612,,,A*44
$GPRMC,173934.000,A,3748.7697,N,12217.6825,W,2.46,23.76,270612,,,A*4E
$GPRMC,173935.000,A,3748.7703,N,12217.6820,W,2.48,30.14,270612,,,A*4E
$GPRMC,173936.000,A,3748.7709,N,12217.6815,W,2.07,23.78,270612,,,A*42
$GPRMC,173937.000,A,3748.7716,N,12217.6810,W,2.56,22.23,270612,,,A*43
$GPRMC,173938.000,A,3748.7722,N,12217.6808,W,2.07,16.53,270612,,,A*46
$GPRMC,173939.000,A,3748.7727,N,12217.6804,W,1.86,18.45,270612,,,A*4D
$GPRMC,173940.000,A,3748.7732,N,12217.6801,W,2.18,24.38,270612,,,A*43
$GPRMC,173941.000,A,3748.7738,N,12217.6797,W,2.19,24.15,270612,,,A*46
$GPRMC,173942.000,A,3748.7745,N,12217.6791,W,2.08,26.45,270612,,,A*4E
$GPRMC,173943.000,A,3748.7751,N,12217.6787,W,2.12,22.94,270612,,,D*4B
$GPRMC,173944.000,A,3748.7757,N,12217.6783,W,2.09,24.68,270612,,,D*41
$GPRMC,173945.000,A,3748.7762,N,12217.6781,W,2.02,18.27,270612,,,D*4B
$GPRMC,173946.000,A,3748.7768,N,12217.6779,W,2.19,9.79,270612,,,D*74
$GPRMC,173947.000,A,3748.7774,N,12217.6775,W,2.25,24.24,270612,,,D*4C
$GPRMC,173948.000,A,3748.7780,N,12217.6771,W,2.25,24.99,270612,,,D*4A
$GPRMC,173949.000,A,3748.7785,N,12217.6766,W,2.49,30.24,270612,,,D*41
$GPRMC,173950.000,A,3748.7791,N,12217.6762,W,2.23,27.97,270612,,,D*4A
$GPRMC,173951.000,A,3748.7797,N,12217.6758,W,2.32,20.71,270612,,,D*4B
$GPRMC,173952.000,A,3748.7804,N,12217.6755,W,2.19,19.33,270612,,,D*45
$GPRMC,173953.000,A,3748.7810,N,12217.6750,W,2.45,30.31,270612,,,D*44
$GPRMC,173954.000,A,3748.7815,N,12217.6746,W,1.86,33.24,270612,,,D*4A
$GPRMC,173955.000,A,3748.7821,N,12217.6742,W,2.34,16.50,270612,,,D*46
$GPRMC,173956.000,A,3748.7826,N,12217.6736,W,2.49,21.79,270612,,,D*44
$GPRMC,173957.000,A,3748.7832,N,12217.6730,W,2.61,32.90,270612,,,D*49
$GPRMC,173958.000,A,3748.7838,N,12217.6724,W,2.43,20.39,270612,,,D*49
$GPRMC,173959.000,A,3748.7843,N,12217.6720,W,1.84,18.31,270612,,,D*4B
$GPRMC,174000.000,A,3748.7847,N,12217.6718,W,1.55,7.28,270612,,,D*7C
$GPRMC,174001.000,A,3748.7852,N,12217.6718,W,1.65,358.26,270612,,,D*7D
$GPRMC,174002.000,A,3748.7857,N,12217.6715,W,2.23,20.13,270612,,,D*4D
$GPRMC,174003.000,A,3748.7862,N,12217.6713,W,1.78,20.74,270612,,,D*40
$GPRMC,174004.000,A,3748.7868,N,12217.6711,W,2.41,20.66,270612,,,D*45
$GPRMC,174005.000,A,3748.7874,N,12217.6708,W,2.17,16.94,270612,,,D*4A
$GPRMC,174006.000,A,3748.7879,N,12217.6706,W,1.91,13.98,270612,,,D*4E
$GPRMC,174007.000,A,3748.7885,N,12217.6699,W,1.92,21.16,270612,,,D*4F
$GPRMC,174008.000,A,3748.7891,N,12217.6695,W,0.86,23.06,270612,,,D*4E
$GPRMC,174009.000,A,3748.7894,N,12217.6690,W,0.37,78.47,270612,,,D*4E
$GPRMC,174010.000,A,3748.7895,N,12217.6685,W,0.29,101.40,270612,,,D*74
$GPRMC,174011.000,A,3748.7896,N,12217.6682,W,0.13,75.81,270612,,,D*47
$GPRMC,174012.000,A,3748.7896,N,12217.6678,W,0.06,257.70,270612,,,D*79
$GPRMC,174013.000,A,3748.7895,N,12217.6676,W,0.10,107.64,270612,,,D*71
$GPRMC,174014.000,A,3748.7891,N,12217.6660,W,0.12,45.92,270612,,,D*49
$GPRMC,174015.000,A,3748.7892,N,12217.6660,W,0.26,18.99,270612,,,D*4F
$GPRMC,174016.000,A,3748.7894,N,12217.6662,W,0.04,169.63,270612,,,D*7A
$GPRMC,174017.000,A,3748.7893,N,12217.6663,W,0.10,279.21,270612,,,D*7C
$GPRMC,174018.000,A,3748.7893,N,12217.6664,W,0.03,162.75,270612,,,D*7E
$GPRMC,174019.000,A,3748.7892,N,12217.6665,W,0.44,8.48,270612,,,D*7F
$GPRMC,174020.000,A,3748.7895,N,12217.6664,W,1.62,30.30,270612,,,D*42
$GPRMC,174021.000,A,3748.7900,N,12217.6660,W,1.96,24.86,270612,,,D*49
$GPRMC,174022.000,A,3748.7906,N,12217.6657,W,2.08,18.02,270612,,,D*4F
$GPRMC,174023.000,A,3748.7912,N,12217.6654,W,2.09,13.99,270612,,,D*40
$GPRMC,174024.000,A,3748.7918,N,12217.6653,W,2.27,4.15,270612,,,D*74
$GPRMC,174025.000,A,3748.7925,N,12217.6651,W,2.35,10.80,270612,,,D*43
$GPRMC,174026.000,A,3748.7930,N,12217.6649,W,1.74,27.83,270612,,,D*4C
$GPRMC,174027.000,A,3748.7932,N,12217.6645,W,1.26,67.26,270612,,,D*4F
$GPRMC,174028.000,A,3748.7932,N,12217.6642,W,0.13,81.74,270612,,,D*4F
$GPRMC,174029.000,A,3748.7930,N,12217.6641,W,0.53,192.35,270612,,,D*7D
$GPRMC,174030.000,A,3748.7924,N,12217.6636,W,0.65,252.79,270612,,,D*72
$GPRMC,174031.000,A,3748.7927,N,12217.6650,W,0.28,240.90,270612,,,D*7D
$GPRMC,174032.000,A,3748.7926,N,12217.6650,W,0.37,195.17,270612,,,D*75
$GPRMC,174033.000,A,3748.7927,N,12217.6649,W,1.43,21.27,270612,,,D*42
$GPRMC,174034.000,A,3748.7933,N,12217.6645,W,1.29,28.52,270612,,,D*4B
$GPRMC,174035.000,A,3748.7941,N,12217.6640,W,1.89,11.30,270612,,,D*4E
$GPRMC,174036.000,A,3748.7944,N,12217.6631,W,1.67,16.51,270612,,,D*4E
$GPRMC,174037.000,A,3748.7952,N,12217.6628,W,1.65,18.93,270612,,,D*42
$GPRMC,174038.000,A,3748.7961,N,12217.6624,W,2.05,3.32,270612,,,D*75
$GPRMC,174039.000,A,3748.7968,N,12217.6620,W,2.41,15.71,270612,,,D*49
$GPRMC,174040.000,A,3748.7977,N,12217.6614,W,2.64,18.00,270612,,,D*42
$GPRMC,174041.000,A,3748.7983,N,12217.6609,W,2.20,20.51,270612,,,D*4B
$GPRMC,174042.000,A,3748.7989,N,12217.6606,W,2.43,14.04,270612,,,D*4F
$GPRMC,174043.000,A,3748.7995,N,12217.6601,W,2.49,19.40,270612,,,D*43
$GPRMC,174044.000,A,3748.8002,N,12217.6599,W,2.50,25.08,270612,,,D*45
$GPRMC,174045.000,A,3748.8008,N,12217.6593,W,2.55,38.50,270612,,,D*40
$GPRMC,174046.000,A,3748.8015,N,12217.6586,W,3.04,40.20,270612,,,D*46
$GPRMC,174047.000,A,3748.8022,N,12217.6579,W,2.76,35.77,270612,,,D*47
$GPRMC,174048.000,A,3748.8029,N,12217.6574,W,2.44,22.66,270612,,,D*49
$GPRMC,174049.000,A,3748.8035,N,12217.6569,W,2.51,30.62,270612,,,D*4A
$GPRMC,174050.000,A,3748.8042,N,12217.6567,W,2.32,30.50,270612,,,D*48
$GPRMC,174051.000,A,3748.8047,N,12217.6564,W,1.89,46.93,270612,,,D*42
$GPRMC,174052.000,A,3748.8053,N,12217.6557,W,2.36,44.96,270612,,,D*44
$GPRMC,174053.000,A,3748.8060,N,12217.6551,W,2.54,23.28,270612,,,D*43
$GPRMC,174054.000,A,3748.8067,N,12217.6547,W,2.50,19.26,270612,,,D*47
$GPRMC,174055.000,A,3748.8074,N,12217.6542,W,2.27,20.32,270612,,,D*4E
$GPRMC,174056.000,A,3748.8080,N,12217.6537,W,2.43,27.96,270612,,,D*4F
$GPRMC,174057.000,A,3748.8087,N,12217.6531,W,2.64,37.60,270612,,,D*42
$GPRMC,174058.000,A,3748.8094,N,12217.6527,W,2.55,16.59,270612,,,D*43
$GPRMC,174059.000,A,3748.8101,N,12217.6524,W,2.85,24.11,270612,,,D*4C
$GPRMC,174100.000,A,3748.8109,N,12217.6520,W,2.77,19.55,270612,,,D*4E
$GPRMC,174101.000,A,3748.8116,N,12217.6518,W,2.94,13.87,270612,,,D*42
$GPRMC,174102.000,A,3748.8124,N,12217.6517,W,2.83,8.95,270612,,,D*70
$GPRMC,174103.000,A,3748.8131,N,12217.6514,W,2.67,28.71,270612,,,D*44
$GPRMC,174104.000,A,3748.8138,N,12217.6509,W,2.56,30.32,270612,,,D*4A
$GPRMC,174105.000,A,3748.8143,N,12217.6505,W,2.50,36.79,270612,,,D*44
$GPRMC,174106.000,A,3748.8148,N,12217.6500,W,2.12,39.62,270612,,,D*4A
$GPRMC,174107.000,A,3748.8153,N,12217.6494,W,2.72,40.92,270612,,,D*4A
$GPRMC,174108.000,A,3748.8160,N,12217.6487,W,2.36,44.75,270612,,,D*4A
$GPRMC,174109.000,A,3748.8164,N,12217.6482,W,2.43,36.65,270612,,,D*4C
$GPRMC,174110.000,A,3748.8169,N,12217.6479,W,2.50,16.40,270612,,,D*4A
$GPRMC,174111.000,A,3748.8174,N,12217.6477,W,2.40,16.73,270612,,,D*48
$GPRMC,174112.000,A,3748.8180,N,12217.6475,W,2.47,10.96,270612,,,D*48
$GPRMC,174113.000,A,3748.8187,N,12217.6473,W,2.63,9.12,270612,,,D*7A
$GPRMC,174114.000,A,3748.8193,N,12217.6470,W,2.64,18.57,270612,,,D*4D
$GPRMC,174115.000,A,3748.8199,N,12217.6465,W,2.06,25.63,270612,,,D*4F
$GPRMC,174116.000,A,3748.8203,N,12217.6461,W,2.64,18.80,270612,,,D*4F
$GPRMC,174117.000,A,3748.8208,N,12217.6455,W,2.58,35.28,270612,,,D*40
$GPRMC,174118.000,A,3748.8215,N,12217.6448,W,2.44,36.41,270612,,,D*4E
$GPRMC,174119.000,A,3748.8221,N,12217.6439,W,2.32,47.38,270612,,,A*42
$GPRMC,174120.000,A,3748.8224,N,12217.6426,W,2.26,58.35,270612,,,A*45
$GPRMC,174121.000,A,3748.8227,N,12217.6420,W,1.83,60.72,270612,,,A*45
$GPRMC,174122.000,A,3748.8227,N,12217.6412,W,1.71,61.82,270612,,,A*44
$GPRMC,174123.000,A,3748.8233,N,12217.6406,W,1.76,44.77,270612,,,A*4F
$GPRMC,174124.000,A,3748.8239,N,12217.6398,W,1.58,44.73,270612,,,A*4A
$GPRMC,174125.000,A,3748.8244,N,12217.6394,W,1.98,27.21,270612,,,A*43
$GPRMC,174126.000,A,3748.8248,N,12217.6386,W,1.96,17.31,270612,,,A*43
$GPRMC,174127.000,A,3748.8254,N,12217.6383,W,2.16,15.11,270612,,,A*41
$GPRMC,174128.000,A,3748.8262,N,12217.6379,W,1.97,20.08,270612,,,A*4A
$GPRMC,174129.000,A,3748.8267,N,12217.6374,W,2.20,34.01,270612,,,A*40
$GPRMC,174130.000,A,3748.8273,N,12217.6368,W,2.37,25.66,270612,,,A*47
$GPRMC,174131.000,A,3748.8280,N,12217.6361,W,2.21,32.17,270612,,,A*44
$GPRMC,174132.000,A,3748.8284,N,12217.6353,W,1.88,45.64,270612,,,A*46
$GPRMC,174133.000,A,3748.8291,N,12217.6342,W,2.28,47.12,270612,,,A*49
$GPRMC,174134.000,A,3748.8294,N,12217.6330,W,2.46,45.73,270612,,,A*43
$GPRMC,174135.000,A,3748.8300,N,12217.6323,W,2.17,28.49,270612,,,A*4A
$GPRMC,174136.000,A,3748.8308,N,12217.6321,W,2.08,26.09,270612,,,A*47
$GPRMC,174137.000,A,3748.8314,N,12217.6312,W,2.53,28.93,270612,,,A*48
$GPRMC,174138.000,A,3748.8321,N,12217.6310,W,2.21,32.44,270612,,,A*47
$GPRMC,174139.000,A,3748.8325,N,12217.6309,W,1.78,23.79,270612,,,A*4B
$GPRMC,174140.000,A,3748.8332,N,12217.6305,W,2.11,34.89,270612,,,A*4A
$GPRMC,174141.000,A,3748.8337,N,12217.6301,W,2.07,28.51,270612,,,A*45
$GPRMC,174142.000,A,3748.8342,N,12217.6298,W,2.00,15.95,270612,,,A*44
$GPRMC,174143.000,A,3748.8347,N,12217.6295,W,1.80,12.99,270612,,,A*4D
$GPRMC,174144.000,A,3748.8352,N,12217.6293,W,1.81,19.82,270612,,,A*48
$GPRMC,174145.000,A,3748.8357,N,12217.6289,W,2.37,24.90,270612,,,A*44
$GPRMC,174146.000,A,3748.8364,N,12217.6287,W,2.13,23.60,270612,,,A*47
$GPRMC,174147.000,A,3748.8369,N,12217.6285,W,1.96,20.48,270612,,,A*4E
$GPRMC,174148.000,A,3748.8375,N,12217.6284,W,2.07,13.84,270612,,,A*46
$GPRMC,174149.000,A,3748.8380,N,12217.6283,W,1.92,6.70,270612,,,A*7A
$GPRMC,174150.000,A,3748.8386,N,12217.6282,W,2.03,7.29,270612,,,A*73
$GPRMC,174151.000,A,3748.8391,N,12217.6279,W,1.53,42.33,270612,,,A*4C
$GPRMC,174152.000,A,3748.8398,N,12217.6270,W,1.42,71.11,270612,,,A*4F
$GPRMC,174153.000,A,3748.8400,N,12217.6254,W,1.76,100.86,270612,,,A*70
$GPRMC,174154.000,A,3748.8399,N,12217.6247,W,2.04,120.32,270612,,,A*79
$GPRMC,174155.000,A,3748.8395,N,12217.6241,W,2.28,120.47,270612,,,A*7E
$GPRMC,174156.000,A,3748.8391,N,12217.6231,W,2.18,119.51,270612,,,A*70
$GPRMC,174157.000,A,3748.8388,N,12217.6223,W,2.19,121.10,270612,,,A*75
$GPRMC,174158.000,A,3748.8381,N,12217.6217,W,2.26,125.61,270612,,,A*7A
$GPRMC,174159.000,A,3748.8378,N,12217.6212,W,1.71,133.05,270612,,,A*7C
$GPRMC,174200.000,A,3748.8376,N,12217.6208,W,2.11,128.91,270612,,,A*74
$GPRMC,174201.000,A,3748.8372,N,12217.6202,W,2.18,126.74,270612,,,A*77
$GPRMC,174202.000,A,3748.8369,N,12217.6194,W,2.26,101.13,270612,,,A*7B
$GPRMC,174203.000,A,3748.8365,N,12217.6185,W,2.46,108.52,270612,,,A*7C
$GPRMC,174204.000,A,3748.8359,N,12217.6177,W,2.21,108.23,270612,,,A*7E
$GPRMC,174205.000,A,3748.8358,N,12217.6169,W,1.87,92.98,270612,,,A*4C
$GPRMC,174206.000,A,3748.8354,N,12217.6162,W,2.30,110.36,270612,,,A*78
$GPRMC,174207.000,A,3748.8350,N,12217.6155,W,1.94,125.01,270612,,,A*76
$GPRMC,174208.000,A,3748.8343,N,12217.6150,W,1.92,142.26,270612,,,A*7C
$GPRMC,174209.000,A,3748.8339,N,12217.6145,W,1.97,141.67,270612,,,A*77
$GPRMC,174210.000,A,3748.8334,N,12217.6138,W,2.31,133.16,270612,,,A*74
$GPRMC,174211.000,A,3748.8330,N,12217.6132,W,2.06,138.22,270612,,,A*73
$GPRMC,174212.000,A,3748.8325,N,12217.6120,W,2.48,116.88,270612,,,A*71
$GPRMC,174213.000,A,3748.8326,N,12217.6111,W,1.86,98.72,270612,,,A*42
$GPRMC,174214.000,A,3748.8324,N,12217.6105,W,1.92,110.96,270612,,,A*7C
$GPRMC,174215.000,A,3748.8318,N,12217.6098,W,1.80,113.65,270612,,,A*7B
$GPRMC,174216.000,A,3748.8314,N,12217.6094,W,1.48,116.94,270612,,,A*77
$GPRMC,174217.000,A,3748.8310,N,12217.6090,W,1.12,126.01,270612,,,A*76
$GPRMC,174218.000,A,3748.8306,N,12217.6083,W,1.89,122.02,270612,,,A*79
$GPRMC,174219.000,A,3748.8303,N,12217.6077,W,2.24,117.37,270612,,,A*72
$GPRMC,174220.000,A,3748.8299,N,12217.6069,W,2.24,122.41,270612,,,A*72
$GPRMC,174221.000,A,3748.8295,N,12217.6061,W,2.32,124.10,270612,,,A*72
$GPRMC,174222.000,A,3748.8290,N,12217.6052,W,2.18,123.32,270612,,,A*7B
$GPRMC,174223.000,A,3748.8289,N,12217.6043,W,1.88,121.50,270612,,,A*7E
$GPRMC,174224.000,A,3748.8287,N,12217.6034,W,1.49,112.15,270612,,,A*7B
$GPRMC,174225.000,A,3748.8286,N,12217.6030,W,1.03,115.10,270612,,,A*73
$GPRMC,174226.000,A,3748.8282,N,12217.6025,W,1.15,118.98,270612,,,A*7A
$GPRMC,174227.000,A,3748.8278,N,12217.6017,W,1.14,129.40,270612,,,A*79
$GPRMC,174228.000,A,3748.8274,N,12217.6010,W,1.06,124.27,270612,,,A*72
$GPRMC,174229.000,A,3748.8271,N,12217.6006,W,0.99,127.11,270612,,,A*70
$GPRMC,174230.000,A,3748.8268,N,12217.6000,W,1.26,128.88,270612,,,A*7C
$GPRMC,174231.000,A,3748.8265,N,12217.5994,W,1.10,135.90,270612,,,A*77
$GPRMC,174232.000,A,3748.8262,N,12217.5989,W,0.94,135.14,270612,,,A*7E
$GPRMC,174233.000,A,3748.8260,N,12217.5983,W,1.65,126.00,270612,,,A*7F
$GPRMC,174234.000,A,3748.8257,N,12217.5976,W,1.70,134.25,270612,,,A*76
$GPRMC,174235.000,A,3748.8251,N,12217.5968,W,1.60,134.06,270612,,,A*7E
$GPRMC,174236.000,A,3748.8245,N,12217.5961,W,1.07,134.68,270612,,,A*78
$GPRMC,174237.000,A,3748.8242,N,12217.5954,W,1.14,112.19,270612,,,A*78
$GPRMC,174238.000,A,3748.8238,N,12217.5946,W,1.34,113.56,270612,,,A*71
$GPRMC,174239.000,A,3748.8234,N,12217.5938,W,1.41,124.10,270612,,,A*71
$GPRMC,174240.000,A,3748.8230,N,12217.5931,W,1.54,124.01,270612,,,A*76
$GPRMC,174241.000,A,3748.8224,N,12217.5921,W,1.87,128.36,270612,,,A*75
$GPRMC,174242.000,A,3748.8220,N,12217.5911,W,1.85,124.79,270612,,,A*74
$GPRMC,174243.000,A,3748.8216,N,12217.5901,W,1.73,116.48,270612,,,A*7B
$GPRMC,174244.000,A,3748.8210,N,12217.5891,W,1.44,117.34,270612,,,A*7C
$GPRMC,174245.000,A,3748.8209,N,12217.5883,W,1.30,116.33,270612,,,A*73
$GPRMC,174246.000,A,3748.8206,N,12217.5871,W,1.53,112.37,270612,,,A*77
$GPRMC,174247.000,A,3748.8203,N,12217.5861,W,2.21,120.57,270612,,,A*73
$GPRMC,174248.000,A,3748.8199,N,12217.5851,W,2.36,115.50,270612,,,A*78
$GPRMC,174249.000,A,3748.8194,N,12217.5839,W,2.53,116.91,270612,,,A*77
$GPRMC,174250.000,A,3748.8189,N,12217.5827,W,2.52,114.58,270612,,,A*7A
$GPRMC,174251.000,A,3748.8186,N,12217.5815,W,2.36,108.92,270612,,,A*7C
$GPRMC,174252.000,A,3748.8182,N,12217.5804,W,1.89,123.18,270612,,,A*77
$GPRMC,174253.000,A,3748.8177,N,12217.5796,W,1.56,123.58,270612,,,A*7E
$GPRMC,174254.000,A,3748.8173,N,12217.5788,W,1.92,111.77,270612,,,A*76
$GPRMC,174255.000,A,3748.8166,N,12217.5780,W,2.56,124.75,270612,,,A*74
$GPRMC,174256.000,A,3748.8159,N,12217.5771,W,2.09,123.59,270612,,,A*76
$GPRMC,174257.000,A,3748.8156,N,12217.5765,W,1.43,124.88,270612,,,A*7B
$GPRMC,174258.000,A,3748.8152,N,12217.5759,W,1.21,116.28,270612,,,A*70
$GPRMC,174259.000,A,3748.8148,N,12217.5752,W,0.96,113.67,270612,,,A*72
$GPRMC,174300.000,A,3748.8144,N,12217.5743,W,1.23,135.65,270612,,,A*7A
$GPRMC,174301.000,A,3748.8139,N,12217.5734,W,1.01,162.93,270612,,,A*7A
$GPRMC,174302.000,A,3748.8136,N,12217.5727,W,1.21,120.06,270612,,,A*7C
$GPRMC,174303.000,A,3748.8131,N,12217.5717,W,2.48,116.62,270612,,,A*72
$GPRMC,174304.000,A,3748.8127,N,12217.5706,W,2.29,109.72,270612,,,A*7A
$GPRMC,174305.000,A,3748.8125,N,12217.5696,W,1.90,116.23,270612,,,A*7A
$GPRMC,174306.000,A,3748.8121,N,12217.5686,W,2.42,109.79,270612,,,A*71
$GPRMC,174307.000,A,3748.8118,N,12217.5677,W,2.01,120.16,270612,,,A*71
$GPRMC,174308.000,A,3748.8114,N,12217.5668,W,2.03,110.30,270612,,,A*79
$GPRMC,174309.000,A,3748.8108,N,12217.5654,W,2.03,113.37,270612,,,A*7E
$GPRMC,174310.000,A,3748.8102,N,12217.5644,W,1.74,116.93,270612,,,A*75
$GPRMC,174311.000,A,3748.8095,N,12217.5633,W,2.12,123.93,270612,,,A*7E
$GPRMC,174312.000,A,3748.8092,N,12217.5626,W,1.91,139.02,270612,,,A*75
$GPRMC,174313.000,A,3748.8087,N,12217.5618,W,1.89,128.95,270612,,,A*7A
$GPRMC,174314.000,A,3748.8083,N,12217.5611,W,1.78,138.94,270612,,,A*7E
$GPRMC,174315.000,A,3748.8078,N,12217.5608,W,1.33,135.94,270612,,,A*71
$GPRMC,174316.000,A,3748.8076,N,12217.5599,W,1.66,104.17,270612,,,A*7E
$GPRMC,174317.000,A,3748.8080,N,12217.5589,W,1.98,112.07,270612,,,A*70
$GPRMC,174318.000,A,3748.8077,N,12217.5582,W,1.99,109.38,270612,,,A*7B
$GPRMC,174319.000,A,3748.8076,N,12217.5574,W,1.74,124.50,270612,,,A*70
$GPRMC,174320.000,A,3748.8071,N,12217.5569,W,1.61,122.20,270612,,,A*74
$GPRMC,174321.000,A,3748.8065,N,12217.5563,W,1.51,134.72,270612,,,A*79
$GPRMC,174322.000,A,3748.8058,N,12217.5558,W,1.40,132.05,270612,,,A*7A
$GPRMC,174323.000,A,3748.8055,N,12217.5551,W,1.12,135.11,270612,,,A*7A
$GPRMC,174324.000,A,3748.8052,N,12217.5546,W,1.26,147.05,270612,,,A*7B
$GPRMC,174325.000,A,3748.8044,N,12217.5536,W,1.82,165.35,270612,,,A*77
$GPRMC,174326.000,A,3748.8038,N,12217.5534,W,1.34,181.76,270612,,,A*7D
$GPRMC,174327.000,A,3748.8030,N,12217.5531,W,1.32,183.77,270612,,,A*74
$GPRMC,174328.000,A,3748.8024,N,12217.5532,W,1.33,213.17,270612,,,A*70
$GPRMC,174329.000,A,3748.8016,N,12217.5531,W,2.05,198.82,270612,,,A*79
$GPRMC,174330.000,A,3748.8005,N,12217.5534,W,1.43,200.49,270612,,,A*72
$GPRMC,174331.000,A,3748.7995,N,12217.5532,W,1.82,201.14,270612,,,A*7E
$GPRMC,174332.000,A,3748.7990,N,12217.5537,W,1.77,200.47,270612,,,A*70
$GPRMC,174333.000,A,3748.7987,N,12217.5544,W,1.81,202.36,270612,,,A*7E
$GPRMC,174334.000,A,3748.7980,N,12217.5542,W,1.91,203.58,270612,,,A*70
$GPRMC,174335.000,A,3748.7970,N,12217.5542,W,1.94,209.54,270612,,,A*7D
$GPRMC,174336.000,A,3748.7963,N,12217.5544,W,2.02,189.91,270612,,,A*74
$GPRMC,174337.000,A,3748.7954,N,12217.5546,W,1.27,188.17,270612,,,A*78
$GPRMC,174338.000,A,3748.7949,N,12217.5547,W,1.31,170.17,270612,,,A*7A
$GPRMC,174339.000,A,3748.7944,N,12217.5546,W,1.32,191.04,270612,,,A*79
$GPRMC,174340.000,A,3748.7938,N,12217.5548,W,1.89,208.18,270612,,,A*7C
$GPRMC,174341.000,A,3748.7932,N,12217.5553,W,1.71,208.05,270612,,,A*76
$GPRMC,174342.000,A,3748.7927,N,12217.5560,W,1.69,202.14,270612,,,A*72
$GPRMC,174343.000,A,3748.7919,N,12217.5562,W,2.33,214.33,270612,,,A*72
$GPRMC,174344.000,A,3748.7913,N,12217.5568,W,1.93,214.01,270612,,,A*7D
$GPRMC,174345.000,A,3748.7907,N,12217.5571,W,1.45,200.17,270612,,,A*78
$GPRMC,174346.000,A,3748.7901,N,12217.5570,W,1.97,165.92,270612,,,A*7E
$GPRMC,174347.000,A,3748.7896,N,12217.5572,W,1.50,193.54,270612,,,A*7A
$GPRMC,174348.000,A,3748.7893,N,12217.5575,W,1.73,208.32,270612,,,A*77
$GPRMC,174349.000,A,3748.7889,N,12217.5580,W,1.38,183.11,270612,,,A*79
$GPRMC,174350.000,A,3748.7885,N,12217.5582,W,1.05,172.28,270612,,,A*75
$GPRMC,174351.000,A,3748.7886,N,12217.5579,W,0.60,102.57,270612,,,A*7E
$GPRMC,174352.000,A,3748.7885,N,12217.5580,W,0.26,103.22,270612,,,A*79
$GPRMC,174353.000,A,3748.7886,N,12217.5579,W,0.92,29.65,270612,,,A*48
$GPRMC,174354.000,A,3748.7887,N,12217.5576,W,0.42,18.37,270612,,,A*49
$GPRMC,174355.000,A,3748.7885,N,12217.5574,W,0.37,228.16,270612,,,A*78
$GPRMC,174356.000,A,3748.7885,N,12217.5576,W,0.30,243.36,270612,,,A*71
$GPRMC,174357.000,A,3748.7883,N,12217.5578,W,1.14,204.99,270612,,,A*79
$GPRMC,174358.000,A,3748.7879,N,12217.5584,W,1.14,212.76,270612,,,A*76
$GPRMC,174359.000,A,3748.7875,N,12217.5593,W,1.37,223.63,270612,,,A*7A
$GPRMC,174400.000,A,3748.7871,N,12217.5599,W,0.78,219.93,270612,,,A*73
$GPRMC,174401.000,A,3748.7868,N,12217.5606,W,1.48,242.05,270612,,,A*7C
$GPRMC,174402.000,A,3748.7864,N,12217.5611,W,1.72,233.90,270612,,,A*76
$GPRMC,174403.000,A,3748.7859,N,12217.5615,W,1.23,239.88,270612,,,A*7A
$GPRMC,174404.000,A,3748.7858,N,12217.5618,W,0.92,210.52,270612,,,A*76
$GPRMC,174405.000,A,3748.7858,N,12217.5618,W,1.19,216.79,270612,,,A*7A
$GPRMC,174406.000,A,3748.7856,N,12217.5624,W,1.38,220.14,270612,,,A*75
$GPRMC,174407.000,A,3748.7850,N,12217.5630,W,2.31,214.99,270612,,,A*7F
$GPRMC,174408.000,A,3748.7844,N,12217.5639,W,1.83,200.41,270612,,,A*76
$GPRMC,174409.000,A,3748.7838,N,12217.5642,W,1.56,204.68,270612,,,A*77
$GPRMC,174410.000,A,3748.7833,N,12217.5649,W,1.77,199.68,270612,,,A*7B
$GPRMC,174411.000,A,3748.7825,N,12217.5651,W,1.64,183.97,270612,,,A*7D
$GPRMC,174412.000,A,3748.7816,N,12217.5653,W,1.94,190.78,270612,,,A*70
$GPRMC,174413.000,A,3748.7810,N,12217.5653,W,1.51,195.38,270612,,,A*7F
$GPRMC,174414.000,A,3748.7803,N,12217.5657,W,1.79,209.12,270612,,,A*7A
$GPRMC,174415.000,A,3748.7796,N,12217.5663,W,1.82,212.70,270612,,,A*75
$GPRMC,174416.000,A,3748.7787,N,12217.5668,W,2.08,204.92,270612,,,A*77
$GPRMC,174417.000,A,3748.7781,N,12217.5672,W,1.11,227.14,270612,,,A*7F
$GPRMC,174418.000,A,3748.7778,N,12217.5676,W,1.56,339.70,270612,,,A*7D
$GPRMC,174419.000,A,3748.7779,N,12217.5678,W,1.42,315.22,270612,,,A*7F
$GPRMC,174420.000,A,3748.7779,N,12217.5679,W,0.80,346.99,270612,,,A*7D
$GPRMC,174421.000,A,3748.7781,N,12217.5680,W,1.21,6.72,270612,,,A*75
$GPRMC,174422.000,A,3748.7786,N,12217.5678,W,1.48,11.04,270612,,,A*4E
$GPRMC,174423.000,A,3748.7789,N,12217.5678,W,1.46,338.44,270612,,,A*72
$GPRMC,174424.000,A,3748.7790,N,12217.5680,W,1.63,301.99,270612,,,A*77
$GPRMC,174425.000,A,3748.7788,N,12217.5686,W,1.61,252.57,270612,,,A*7E
$GPRMC,174426.000,A,3748.7779,N,12217.5688,W,1.63,223.32,270612,,,A*7A
$GPRMC,174427.000,A,3748.7773,N,12217.5691,W,1.76,217.21,270612,,,A*78
$GPRMC,174428.000,A,3748.7771,N,12217.5696,W,1.57,221.06,270612,,,A*71
$GPRMC,174429.000,A,3748.7767,N,12217.5696,W,1.65,191.09,270612,,,A*71
$GPRMC,174430.000,A,3748.7760,N,12217.5695,W,2.23,167.03,270612,,,A*7F
$GPRMC,174431.000,A,3748.7755,N,12217.5695,W,2.34,173.38,270612,,,A*73
$GPRMC,174432.000,A,3748.7750,N,12217.5704,W,1.74,206.50,270612,,,A*74
$GPRMC,174433.000,A,3748.7744,N,12217.5708,W,1.18,181.10,270612,,,A*7E
$GPRMC,174434.000,A,3748.7744,N,12217.5709,W,0.74,102.01,270612,,,A*78
$GPRMC,174435.000,A,3748.7743,N,12217.5711,W,0.03,59.62,270612,,,A*4D
$GPRMC,174436.000,A,3748.7741,N,12217.5715,W,0.74,233.37,270612,,,A*76
$GPRMC,174437.000,A,3748.7735,N,12217.5714,W,1.68,209.56,270612,,,A*77
$GPRMC,174438.000,A,3748.7725,N,12217.5718,W,1.95,219.68,270612,,,A*7B
$GPRMC,174439.000,A,3748.7709,N,12217.5714,W,2.37,216.05,270612,,,A*77
$GPRMC,174440.000,A,3748.7701,N,12217.5719,W,1.83,206.46,270612,,,A*76
$GPRMC,174441.000,A,3748.7696,N,12217.5725,W,2.03,208.23,270612,,,A*71
$GPRMC,174442.000,A,3748.7693,N,12217.5733,W,1.75,209.49,270612,,,A*7F
$GPRMC,174443.000,A,3748.7689,N,12217.5740,W,1.53,203.54,270612,,,A*73
$GPRMC,174444.000,A,3748.7685,N,12217.5748,W,2.26,209.97,270612,,,A*74
$GPRMC,174445.000,A,3748.7678,N,12217.5755,W,2.49,211.12,270612,,,A*76
$GPRMC,174446.000,A,3748.7672,N,12217.5761,W,2.20,209.58,270612,,,A*70
$GPRMC,174447.000,A,3748.7666,N,12217.5766,W,2.14,216.19,270612,,,A*7F
$GPRMC,174448.000,A,3748.7662,N,12217.5773,W,1.96,204.82,270612,,,A*78
$GPRMC,174449.000,A,3748.7658,N,12217.5776,W,1.71,191.68,270612,,,A*77
$GPRMC,174450.000,A,3748.7655,N,12217.5781,W,1.84,203.55,270612,,,A*76
$GPRMC,174451.000,A,3748.7649,N,12217.5789,W,2.16,209.08,270612,,,A*78
$GPRMC,174452.000,A,3748.7645,N,12217.5795,W,1.81,195.01,270612,,,A*78
$GPRMC,174453.000,A,3748.7641,N,12217.5799,W,1.72,194.27,270612,,,A*78
$GPRMC,174454.000,A,3748.7636,N,12217.5802,W,2.11,203.61,270612,,,A*7B
$GPRMC,174455.000,A,3748.7631,N,12217.5805,W,1.59,201.84,270612,,,A*7C
$GPRMC,174456.000,A,3748.7628,N,12217.5808,W,1.26,220.21,270612,,,A*7E
$GPRMC,174457.000,A,3748.7625,N,12217.5814,W,1.70,216.54,270612,,,A*7B
$GPRMC,174458.000,A,3748.7621,N,12217.5819,W,1.86,209.09,270612,,,A*72
$GPRMC,174459.000,A,3748.7616,N,12217.5823,W,1.83,198.71,270612,,,A*7F
$GPRMC,174500.000,A,3748.7612,N,12217.5827,W,1.42,193.01,270612,,,A*73
$GPRMC,174501.000,A,3748.7607,N,12217.5828,W,1.54,200.64,270612,,,A*74
$GPRMC,174502.000,A,3748.7602,N,12217.5830,W,1.92,200.63,270612,,,A*76
$GPRMC,174503.000,A,3748.7597,N,12217.5833,W,1.78,194.62,270612,,,A*70
$GPRMC,174504.000,A,3748.7589,N,12217.5839,W,2.01,207.41,270612,,,A*77
$GPRMC,174505.000,A,3748.7582,N,12217.5844,W,1.74,201.14,270612,,,A*70
$GPRMC,174506.000,A,3748.7574,N,12217.5849,W,1.66,199.19,270612,,,A*7B
$GPRMC,174507.000,A,3748.7568,N,12217.5853,W,1.54,191.84,270612,,,A*71
$GPRMC,174508.000,A,3748.7561,N,12217.5857,W,1.54,193.72,270612,,,A*78
$GPRMC,174509.000,A,3748.7556,N,12217.5858,W,1.80,198.60,270612,,,A*73
$GPRMC,174510.000,A,3748.7551,N,12217.5861,W,1.66,198.67,270612,,,A*79
$GPRMC,174511.000,A,3748.7547,N,12217.5866,W,1.55,207.38,270612,,,A*77
$GPRMC,174512.000,A,3748.7543,N,12217.5875,W,1.76,217.52,270612,,,A*7E
$GPRMC,174513.000,A,3748.7537,N,12217.5886,W,1.87,217.85,270612,,,A*74
$GPRMC,174514.000,A,3748.7531,N,12217.5895,W,1.71,228.45,270612,,,A*7E
$GPRMC,174515.000,A,3748.7526,N,12217.5898,W,1.61,235.07,270612,,,A*7F
$GPRMC,174516.000,A,3748.7519,N,12217.5902,W,1.72,220.59,270612,,,A*7F
$GPRMC,174517.000,A,3748.7512,N,12217.5909,W,2.16,195.54,270612,,,A*7F
$GPRMC,174518.000,A,3748.7506,N,12217.5913,W,1.70,198.89,270612,,,A*70
$GPRMC,174519.000,A,3748.7500,N,12217.5916,W,1.66,193.74,270612,,,A*7C
$GPRMC,174520.000,A,3748.7493,N,12217.5920,W,2.01,204.17,270612,,,A*72
$GPRMC,174521.000,A,3748.7485,N,12217.5924,W,1.91,199.86,270612,,,A*75
$GPRMC,174522.000,A,3748.7480,N,12217.5929,W,1.95,202.13,270612,,,A*77
$GPRMC,174523.000,A,3748.7475,N,12217.5939,W,2.51,209.41,270612,,,A*7A
$GPRMC,174524.000,A,3748.7470,N,12217.5946,W,1.89,200.78,270612,,,A*75
$GPRMC,174525.000,A,3748.7465,N,12217.5954,W,1.80,204.30,270612,,,A*72
$GPRMC,174526.000,A,3748.7456,N,12217.5956,W,1.66,192.77,270612,,,A*74
$GPRMC,174527.000,A,3748.7450,N,12217.5960,W,1.45,196.83,270612,,,A*78
$GPRMC,174528.000,A,3748.7444,N,12217.5964,W,1.51,195.17,270612,,,A*7D
$GPRMC,174529.000,A,3748.7438,N,12217.5968,W,1.40,209.83,270612,,,A*70
$GPRMC,174530.000,A,3748.7433,N,12217.5977,W,1.69,211.02,270612,,,A*76
$GPRMC,174531.000,A,3748.7429,N,12217.5988,W,1.44,227.02,270612,,,A*76
$GPRMC,174532.000,A,3748.7423,N,12217.5992,W,1.33,189.82,270612,,,A*7B
$GPRMC,174533.000,A,3748.7416,N,12217.5992,W,1.21,178.98,270612,,,A*7A
$GPRMC,174534.000,A,3748.7410,N,12217.5994,W,1.04,178.70,270612,,,A*7C
$GPRMC,174535.000,A,3748.7404,N,12217.5996,W,1.06,183.34,270612,,,A*7C
$GPRMC,174536.000,A,3748.7398,N,12217.6001,W,1.24,177.23,270612,,,A*74
$GPRMC,174537.000,A,3748.7391,N,12217.6005,W,1.30,163.98,270612,,,A*78
$GPRMC,174538.000,A,3748.7384,N,12217.6009,W,1.61,187.08,270612,,,A*78
$GPRMC,174539.000,A,3748.7379,N,12217.6015,W,2.18,212.72,270612,,,A*79
$GPRMC,174540.000,A,3748.7378,N,12217.6020,W,2.02,205.65,270612,,,A*7B
$GPRMC,174541.000,A,3748.7377,N,12217.6028,W,1.58,207.78,270612,,,A*7F
$GPRMC,174542.000,A,3748.7373,N,12217.6031,W,1.62,201.76,270612,,,A*71
$GPRMC,174543.000,A,3748.7369,N,12217.6034,W,1.81,205.37,270612,,,A*72
$GPRMC,174544.000,A,3748.7364,N,12217.6038,W,1.49,211.99,270612,,,A*71
$GPRMC,174545.000,A,3748.7360,N,12217.6041,W,1.42,205.39,270612,,,A*7E
$GPRMC,174546.000,A,3748.7357,N,12217.6045,W,1.21,207.33,270612,,,A*70
$GPRMC,174547.000,A,3748.7354,N,12217.6049,W,1.25,209.06,270612,,,A*72
$GPRMC,174548.000,A,3748.7349,N,12217.6052,W,1.49,202.14,270612,,,A*79
$GPRMC,174549.000,A,3748.7343,N,12217.6056,W,1.73,212.63,270612,,,A*7E
$GPRMC,174550.000,A,3748.7337,N,12217.6059,W,1.73,206.76,270612,,,A*7B
$GPRMC,174551.000,A,3748.7333,N,12217.6061,W,1.43,194.12,270612,,,A*7C
$GPRMC,174552.000,A,3748.7328,N,12217.6063,W,1.80,184.57,270612,,,A*78
$GPRMC,174553.000,A,3748.7321,N,12217.6064,W,1.58,181.56,270612,,,A*76
$GPRMC,174554.000,A,3748.7311,N,12217.6070,W,2.50,172.61,270612,,,A*74
$GPRMC,174555.000,A,3748.7305,N,12217.6076,W,1.67,199.71,270612,,,A*75
$GPRMC,174556.000,A,3748.7301,N,12217.6079,W,0.98,210.47,270612,,,A*7B
$GPRMC,174557.000,A,3748.7295,N,12217.6083,W,1.12,213.32,270612,,,A*71
$GPRMC,174558.000,A,3748.7291,N,12217.6085,W,0.83,225.68,270612,,,A*7F
$GPRMC,174559.000,A,3748.7289,N,12217.6090,W,0.77,212.75,270612,,,A*70
$GPRMC,174600.000,A,3748.7286,N,12217.6093,W,0.92,191.36,270612,,,A*77
$GPRMC,174601.000,A,3748.7283,N,12217.6097,W,1.57,207.50,270612,,,A*73
$GPRMC,174602.000,A,3748.7271,N,12217.6106,W,1.78,203.11,270612,,,A*78
$GPRMC,174603.000,A,3748.7265,N,12217.6110,W,1.66,189.66,270612,,,A*75
$GPRMC,174604.000,A,3748.7257,N,12217.6116,W,1.55,176.60,270612,,,A*73
$GPRMC,174605.000,A,3748.7253,N,12217.6120,W,1.14,195.38,270612,,,A*76
$GPRMC,174606.000,A,3748.7245,N,12217.6128,W,1.52,183.38,270612,,,A*7F
$GPRMC,174607.000,A,3748.7237,N,12217.6135,W,1.24,187.79,270612,,,A*77
$GPRMC,174608.000,A,3748.7229,N,12217.6141,W,1.33,201.58,270612,,,A*7C
$GPRMC,174609.000,A,3748.7226,N,12217.6144,W,1.05,193.34,270612,,,A*70
$GPRMC,174610.000,A,3748.7219,N,12217.6149,W,1.51,200.05,270612,,,A*73
$GPRMC,174611.000,A,3748.7210,N,12217.6156,W,1.71,197.26,270612,,,A*7B
$GPRMC,174612.000,A,3748.7201,N,12217.6163,W,1.78,192.48,270612,,,A*7A
$GPRMC,174613.000,A,3748.7190,N,12217.6166,W,1.64,183.72,270612,,,A*71
$GPRMC,174614.000,A,3748.7185,N,12217.6169,W,1.09,177.23,270612,,,A*79
$GPRMC,174615.000,A,3748.7180,N,12217.6174,W,1.43,187.37,270612,,,A*75
$GPRMC,174616.000,A,3748.7176,N,12217.6180,W,1.73,192.94,270612,,,A*7A
$GPRMC,174617.000,A,3748.7171,N,12217.6184,W,1.76,193.89,270612,,,A*70
$GPRMC,174618.000,A,3748.7167,N,12217.6188,W,1.29,199.68,270612,,,A*7B
$GPRMC,174619.000,A,3748.7164,N,12217.6190,W,1.19,200.02,270612,,,A*7C
$GPRMC,174620.000,A,3748.7160,N,12217.6191,W,1.53,196.77,270612,,,A*73
$GPRMC,174621.000,A,3748.7156,N,12217.6193,W,1.32,194.17,270612,,,A*76
$GPRMC,174622.000,A,3748.7155,N,12217.6195,W,0.56,238.10,270612,,,A*71
$GPRMC,174623.000,A,3748.7153,N,12217.6199,W,0.62,217.21,270612,,,A*72
$GPRMC,174624.000,A,3748.7149,N,12217.6203,W,1.37,212.83,270612,,,A*72
$GPRMC,174625.000,A,3748.7145,N,12217.6207,W,1.18,210.69,270612,,,A*70
$GPRMC,174626.000,A,3748.7141,N,12217.6210,W,1.19,203.56,270612,,,A*7E
$GPRMC,174627.000,A,3748.7136,N,12217.6213,W,1.39,208.53,270612,,,A*70
$GPRMC,174628.000,A,3748.7132,N,12217.6218,W,1.10,209.35,270612,,,A*7A
$GPRMC,174629.000,A,3748.7129,N,12217.6222,W,0.56,245.46,270612,,,A*77
$GPRMC,174630.000,A,3748.7126,N,12217.6226,W,0.86,209.48,270612,,,A*7F
$GPRMC,174631.000,A,3748.7120,N,12217.6229,W,1.74,198.56,270612,,,A*7F
$GPRMC,174632.000,A,3748.7113,N,12217.6231,W,1.44,204.80,270612,,,A*7B
$GPRMC,174633.000,A,3748.7106,N,12217.6238,W,1.61,192.44,270612,,,A*74
$GPRMC,174634.000,A,3748.7097,N,12217.6246,W,1.43,185.52,270612,,,A*72
$GPRMC,174635.000,A,3748.7087,N,12217.6253,W,1.42,187.17,270612,,,A*74
$GPRMC,174636.000,A,3748.7075,N,12217.6261,W,1.06,208.37,270612,,,A*7D
$GPRMC,174637.000,A,3748.7069,N,12217.6268,W,1.31,220.72,270612,,,A*77
$GPRMC,174638.000,A,3748.7059,N,12217.6275,W,1.11,210.03,270612,,,A*70
$GPRMC,174639.000,A,3748.7048,N,12217.6282,W,1.23,227.01,270612,,,A*7E
$GPRMC,174640.000,A,3748.7043,N,12217.6291,W,1.19,244.14,270612,,,A*71
$GPRMC,174641.000,A,3748.7039,N,12217.6301,W,1.06,208.96,270612,,,A*79
$GPRMC,174642.000,A,3748.7036,N,12217.6307,W,1.04,217.04,270612,,,A*74
$GPRMC,174643.000,A,3748.7031,N,12217.6309,W,1.43,212.41,270612,,,A*7B
$GPRMC,174644.000,A,3748.7026,N,12217.6313,W,1.61,211.69,270612,,,A*78
$GPRMC,174645.000,A,3748.7019,N,12217.6317,W,1.77,210.51,270612,,,A*7C
$GPRMC,174646.000,A,3748.7012,N,12217.6322,W,1.72,206.83,270612,,,A*7F
$GPRMC,174647.000,A,3748.7004,N,12217.6326,W,1.74,202.96,270612,,,A*7B
$GPRMC,174648.000,A,3748.6998,N,12217.6330,W,1.59,201.92,270612,,,A*76
$GPRMC,174649.000,A,3748.6991,N,12217.6334,W,2.00,204.28,270612,,,A*71
$GPRMC,174650.000,A,3748.6984,N,12217.6338,W,1.75,211.53,270612,,,A*78
$GPRMC,174651.000,A,3748.6978,N,12217.6343,W,1.80,213.86,270612,,,A*76
$GPRMC,174652.000,A,3748.6972,N,12217.6348,W,1.61,214.44,270612,,,A*72
$GPRMC,174653.000,A,3748.6967,N,12217.6354,W,1.54,221.19,270612,,,A*72
$GPRMC,174654.000,A,3748.6963,N,12217.6359,W,1.44,222.98,270612,,,A*77
$GPRMC,174655.000,A,3748.6961,N,12217.6365,W,0.99,237.12,270612,,,A*7C
$GPRMC,174656.000,A,3748.6958,N,12217.6369,W,1.34,217.40,270612,,,A*7A
$GPRMC,174657.000,A,3748.6955,N,12217.6372,W,1.24,190.02,270612,,,A*77
$GPRMC,174658.000,A,3748.6950,N,12217.6374,W,1.40,202.20,270612,,,A*71
$GPRMC,174659.000,A,3748.6943,N,12217.6378,W,1.63,207.31,270612,,,A*7A
$GPRMC,174700.000,A,3748.6936,N,12217.6384,W,1.82,208.85,270612,,,A*79
$GPRMC,174701.000,A,3748.6929,N,12217.6389,W,1.47,203.47,270612,,,A*77
$GPRMC,174702.000,A,3748.6925,N,12217.6392,W,1.10,200.90,270612,,,A*79
$GPRMC,174703.000,A,3748.6920,N,12217.6397,W,1.43,210.63,270612,,,A*73
$GPRMC,174704.000,A,3748.6914,N,12217.6400,W,1.36,206.09,270612,,,A*73
$GPRMC,174705.000,A,3748.6908,N,12217.6405,W,1.75,214.97,270612,,,A*79
$GPRMC,174706.000,A,3748.6902,N,12217.6412,W,1.74,214.90,270612,,,A*70
$GPRMC,174707.000,A,3748.6896,N,12217.6417,W,1.48,214.03,270612,,,A*7D
$GPRMC,174708.000,A,3748.6890,N,12217.6421,W,1.26,204.61,270612,,,A*7C
$GPRMC,174709.000,A,3748.6883,N,12217.6424,W,1.63,202.88,270612,,,A*7A
$GPRMC,174710.000,A,3748.6878,N,12217.6425,W,1.16,181.65,270612,,,A*7E
$GPRMC,174711.000,A,3748.6872,N,12217.6428,W,1.11,182.24,270612,,,A*79
$GPRMC,174712.000,A,3748.6863,N,12217.6434,W,1.07,177.82,270612,,,A*76
$GPRMC,174713.000,A,3748.6855,N,12217.6443,W,0.62,210.20,270612,,,A*7A
$GPRMC,174714.000,A,3748.6844,N,12217.6453,W,1.22,217.33,270612,,,A*7C
$GPRMC,174715.000,A,3748.6838,N,12217.6459,W,1.77,202.72,270612,,,A*7D
$GPRMC,174716.000,A,3748.6826,N,12217.6467,W,1.75,203.35,270612,,,A*7C
$GPRMC,174717.000,A,3748.6813,N,12217.6477,W,1.95,203.06,270612,,,A*74
$GPRMC,174718.000,A,3748.6803,N,12217.6485,W,1.30,212.80,270612,,,A*76
$GPRMC,174719.000,A,3748.6799,N,12217.6488,W,1.01,188.53,270612,,,A*7A
$GPRMC,174720.000,A,3748.6794,N,12217.6494,W,1.53,191.37,270612,,,A*7D
$GPRMC,174721.000,A,3748.6788,N,12217.6498,W,1.22,204.84,270612,,,A*7C
$GPRMC,174722.000,A,3748.6780,N,12217.6505,W,1.38,208.63,270612,,,A*7C
$GPRMC,174723.000,A,3748.6771,N,12217.6505,W,1.11,217.27,270612,,,A*76
$GPRMC,174724.000,A,3748.6762,N,12217.6508,W,1.86,223.83,270612,,,A*79
$GPRMC,174725.000,A,3748.6755,N,12217.6514,W,1.78,213.39,270612,,,A*72
$GPRMC,174726.000,A,3748.6750,N,12217.6522,W,1.81,203.99,270612,,,A*7C
$GPRMC,174727.000,A,3748.6742,N,12217.6526,W,1.75,209.83,270612,,,A*70
$GPRMC,174728.000,A,3748.6732,N,12217.6533,W,1.20,229.81,270612,,,A*7C
$GPRMC,174729.000,A,3748.6725,N,12217.6537,W,1.16,197.59,270612,,,A*79
$GPRMC,174730.000,A,3748.6718,N,12217.6539,W,0.77,179.92,270612,,,A*70
$GPRMC,174731.000,A,3748.6706,N,12217.6543,W,1.17,212.19,270612,,,A*79
$GPRMC,174732.000,A,3748.6696,N,12217.6547,W,1.71,229.50,270612,,,A*73
$GPRMC,174733.000,A,3748.6692,N,12217.6551,W,1.08,233.14,270612,,,A*74
$GPRMC,174734.000,A,3748.6689,N,12217.6557,W,0.74,248.36,270612,,,A*79
$GPRMC,174735.000,A,3748.6683,N,12217.6560,W,1.61,210.19,270612,,,A*73
$GPRMC,174736.000,A,3748.6682,N,12217.6571,W,1.47,207.99,270612,,,A*7B
$GPRMC,174737.000,A,3748.6678,N,12217.6578,W,1.47,199.78,270612,,,A*7D
$GPRMC,174738.000,A,3748.6674,N,12217.6583,W,1.41,184.90,270612,,,A*76
$GPRMC,174739.000,A,3748.6670,N,12217.6588,W,1.54,195.62,270612,,,A*71
$GPRMC,174740.000,A,3748.6665,N,12217.6591,W,1.81,193.16,270612,,,A*7E
$GPRMC,174741.000,A,3748.6660,N,12217.6598,W,1.30,239.56,270612,,,A*7E
$GPRMC,174742.000,A,3748.6656,N,12217.6604,W,1.41,226.73,270612,,,A*71
$GPRMC,174743.000,A,3748.6654,N,12217.6610,W,1.13,209.08,270612,,,A*71
$GPRMC,174744.000,A,3748.6650,N,12217.6615,W,1.05,195.12,270612,,,A*7D
$GPRMC,174745.000,A,3748.6647,N,12217.6619,W,0.99,205.12,270612,,,A*78
$GPRMC,174746.000,A,3748.6642,N,12217.6623,W,1.29,191.03,270612,,,A*73
$GPRMC,174747.000,A,3748.6638,N,12217.6628,W,1.35,208.14,270612,,,A*7C
$GPRMC,174748.000,A,3748.6633,N,12217.6632,W,1.75,209.30,270612,,,A*70
$GPRMC,174749.000,A,3748.6629,N,12217.6637,W,1.57,210.90,270612,,,A*7D
$GPRMC,174750.000,A,3748.6624,N,12217.6642,W,1.69,209.01,270612,,,A*77
$GPRMC,174751.000,A,3748.6619,N,12217.6648,W,1.61,211.94,270612,,,D*7A
$GPRMC,174752.000,A,3748.6614,N,12217.6652,W,2.09,215.73,270612,,,D*7F
$GPRMC,174753.000,A,3748.6609,N,12217.6656,W,1.78,213.41,270612,,,D*74
$GPRMC,174754.000,A,3748.6604,N,12217.6660,W,1.76,195.79,270612,,,D*73
$GPRMC,174755.000,A,3748.6599,N,12217.6665,W,1.58,203.41,270612,,,D*7B
$GPRMC,174756.000,A,3748.6593,N,12217.6667,W,1.50,208.97,270612,,,D*78
$GPRMC,174757.000,A,3748.6589,N,12217.6670,W,1.23,214.68,270612,,,D*7D
$GPRMC,174758.000,A,3748.6584,N,12217.6676,W,1.84,212.38,270612,,,D*77
$GPRMC,174759.000,A,3748.6579,N,12217.6683,W,1.25,205.22,270612,,,D*78
$GPRMC,174800.000,A,3748.6575,N,12217.6688,W,1.26,238.76,270612,,,D*70
$GPRMC,174801.000,A,3748.6572,N,12217.6693,W,1.07,235.65,270612,,,D*70
$GPRMC,174802.000,A,3748.6568,N,12217.6698,W,1.22,215.02,270612,,,D*77
$GPRMC,174803.000,A,3748.6563,N,12217.6704,W,1.31,206.48,270612,,,D*77
$GPRMC,174804.000,A,3748.6558,N,12217.6709,W,1.14,204.37,270612,,,D*78
$GPRMC,174805.000,A,3748.6552,N,12217.6713,W,1.24,196.94,270612,,,D*7A
$GPRMC,174806.000,A,3748.6546,N,12217.6717,W,1.65,195.31,270612,,,D*71
$GPRMC,174807.000,A,3748.6541,N,12217.6721,W,1.17,189.03,270612,,,D*7B
$GPRMC,174808.000,A,3748.6536,N,12217.6724,W,0.69,183.83,270612,,,D*7B
$GPRMC,174809.000,A,3748.6532,N,12217.6726,W,0.81,210.86,270612,,,D*76
$GPRMC,174810.000,A,3748.6527,N,12217.6729,W,1.23,194.65,270612,,,D*7E
$GPRMC,174811.000,A,3748.6517,N,12217.6739,W,1.27,184.30,270612,,,D*78
$GPRMC,174812.000,A,3748.6508,N,12217.6745,W,1.46,166.58,270612,,,D*7B
$GPRMC,174813.000,A,3748.6496,N,12217.6753,W,1.11,195.50,270612,,,D*7D
$GPRMC,174814.000,A,3748.6480,N,12217.6761,W,1.08,181.41,270612,,,D*71
$GPRMC,174815.000,A,3748.6468,N,12217.6773,W,0.55,198.99,270612,,,D*71
$GPRMC,174816.000,A,3748.6458,N,12217.6779,W,1.01,226.56,270612,,,D*7E
$GPRMC,174817.000,A,3748.6450,N,12217.6786,W,1.35,220.10,270612,,,D*74
$GPRMC,174818.000,A,3748.6442,N,12217.6790,W,0.92,201.58,270612,,,D*7C
$GPRMC,174819.000,A,3748.6435,N,12217.6791,W,1.30,211.48,270612,,,D*75
$GPRMC,174820.000,A,3748.6425,N,12217.6790,W,1.61,188.87,270612,,,D*7B
$GPRMC,174821.000,A,3748.6413,N,12217.6792,W,2.08,198.76,270612,,,D*7E
$GPRMC,174822.000,A,3748.6401,N,12217.6792,W,2.20,197.81,270612,,,D*73
$GPRMC,174823.000,A,3748.6389,N,12217.6796,W,1.44,199.05,270612,,,D*72
$GPRMC,174824.000,A,3748.6379,N,12217.6800,W,1.15,188.71,270612,,,D*7D
$GPRMC,174825.000,A,3748.6372,N,12217.6805,W,1.59,199.50,270612,,,D*79
$GPRMC,174826.000,A,3748.6364,N,12217.6812,W,2.07,213.16,270612,,,D*70
$GPRMC,174827.000,A,3748.6357,N,12217.6821,W,2.29,211.89,270612,,,D*79
$GPRMC,174828.000,A,3748.6353,N,12217.6832,W,1.41,209.06,270612,,,D*73
$GPRMC,174829.000,A,3748.6350,N,12217.6837,W,1.23,197.24,270612,,,D*74
$GPRMC,174830.000,A,3748.6348,N,12217.6836,W,1.22,187.96,270612,,,D*7D
$GPRMC,174831.000,A,3748.6344,N,12217.6842,W,1.42,193.34,270612,,,D*78
$GPRMC,174832.000,A,3748.6339,N,12217.6848,W,1.50,178.24,270612,,,A*79
$GPRMC,174833.000,A,3748.6334,N,12217.6852,W,1.44,163.05,270612,,,D*77
$GPRMC,174834.000,A,3748.6331,N,12217.6857,W,1.66,185.54,270612,,,D*7C
$GPRMC,174835.000,A,3748.6327,N,12217.6859,W,1.30,178.38,270612,,,D*7F
$GPRMC,174836.000,A,3748.6324,N,12217.6863,W,1.24,206.69,270612,,,D*7D
$GPRMC,174837.000,A,3748.6320,N,12217.6870,W,1.27,197.13,270612,,,D*7F
$GPRMC,174838.000,A,3748.6317,N,12217.6879,W,1.70,201.18,270612,,,D*78
