$ADVER,3080,2.3
$GPRMC,214720.408,A,3748.5658,N,12217.8588,W,0.10,175.93,190712,,,A*7A
$GPRMC,214721.408,A,3748.5658,N,12217.8588,W,0.14,229.47,190712,,,A*7C
$GPRMC,214722.408,A,3748.5654,N,12217.8590,W,0.09,186.29,190712,,,A*78
$GPRMC,214723.408,A,3748.5653,N,12217.8589,W,0.17,238.68,190712,,,A*7A
$GPRMC,214724.408,A,3748.5656,N,12217.8582,W,0.26,234.36,190712,,,A*76
$GPRMC,214725.408,A,3748.5655,N,12217.8587,W,0.09,140.10,190712,,,A*78
$GPRMC,214726.408,A,3748.5644,N,12217.8603,W,0.11,110.95,190712,,,A*75
$GPRMC,214727.408,A,3748.5641,N,12217.8608,W,0.16,205.02,190712,,,A*74
$GPRMC,214728.000,A,3748.5637,N,12217.8614,W,0.04,99.28,190712,,,A*47
$GPRMC,214729.000,A,3748.5635,N,12217.8617,W,0.07,91.65,190712,,,A*45
$GPRMC,214730.000,A,3748.5634,N,12217.8617,W,0.10,84.34,190712,,,A*4A
$GPRMC,214731.000,A,3748.5634,N,12217.8617,W,0.13,80.45,190712,,,A*4A
$GPRMC,214732.000,A,3748.5643,N,12217.8593,W,0.03,81.41,190712,,,A*42
$GPRMC,214733.000,A,3748.5642,N,12217.8596,W,0.03,208.21,190712,,,A*72
$GPRMC,214734.000,A,3748.5641,N,12217.8597,W,0.05,161.11,190712,,,A*7E
$GPRMC,214735.000,A,3748.5642,N,12217.8594,W,1.06,316.64,190712,,,A*7D
$GPRMC,214736.000,A,3748.5645,N,12217.8599,W,0.53,206.47,190712,,,A*74
$GPRMC,214737.000,A,3748.5643,N,12217.8600,W,1.13,209.18,190712,,,A*70
$GPRMC,214738.000,A,3748.5639,N,12217.8598,W,1.31,207.42,190712,,,A*71
$GPRMC,214739.000,A,3748.5639,N,12217.8594,W,0.53,203.05,190712,,,A*7E
$GPRMC,214740.000,A,3748.5643,N,12217.8593,W,0.24,74.44,190712,,,A*4D
$GPRMC,214741.000,A,3748.5648,N,12217.8588,W,1.03,64.59,190712,,,A*44
$GPRMC,214742.000,A,3748.5650,N,12217.8585,W,0.67,86.19,190712,,,A*48
$GPRMC,214743.000,A,3748.5658,N,12217.8577,W,1.10,52.84,190712,,,A*40
$GPRMC,214744.000,A,3748.5661,N,12217.8573,W,0.27,116.94,190712,,,A*7C
$GPRMC,214745.000,A,3748.5664,N,12217.8575,W,0.39,209.03,190712,,,A*72
$GPRMC,214746.000,A,3748.5660,N,12217.8584,W,1.15,209.46,190712,,,A*75
$GPRMC,214747.000,A,3748.5658,N,12217.8589,W,0.34,212.42,190712,,,A*7E
$GPRMC,214748.000,A,3748.5660,N,12217.8588,W,0.81,48.11,190712,,,A*4E
$GPRMC,214749.000,A,3748.5663,N,12217.8591,W,0.25,164.74,190712,,,A*76
$GPRMC,214750.000,A,3748.5664,N,12217.8585,W,1.28,109.37,190712,,,A*7C
$GPRMC,214751.000,A,3748.5658,N,12217.8585,W,0.91,156.82,190712,,,A*75
$GPRMC,214752.000,A,3748.5651,N,12217.8585,W,1.84,169.78,190712,,,A*73
$GPRMC,214753.000,A,3748.5648,N,12217.8583,W,0.54,159.69,190712,,,A*73
$GPRMC,214754.000,A,3748.5647,N,12217.8579,W,1.47,143.07,190712,,,A*7E
$GPRMC,214755.000,A,3748.5642,N,12217.8574,W,1.32,134.18,190712,,,A*7B
$GPRMC,214756.000,A,3748.5634,N,12217.8578,W,1.44,185.97,190712,,,A*79
$GPRMC,214757.000,A,3748.5631,N,12217.8574,W,1.21,164.40,190712,,,A*77
$GPRMC,214758.000,A,3748.5629,N,12217.8570,W,0.60,111.98,190712,,,A*76
$GPRMC,214759.000,A,3748.5621,N,12217.8580,W,0.40,185.16,190712,,,A*79
$GPRMC,214800.000,A,3748.5626,N,12217.8578,W,0.80,315.66,190712,,,A*7A
$GPRMC,214801.000,A,3748.5633,N,12217.8573,W,0.54,41.49,190712,,,A*42
$GPRMC,214802.000,A,3748.5638,N,12217.8565,W,0.37,2.63,190712,,,A*77
$GPRMC,214803.000,A,3748.5641,N,12217.8560,W,0.37,26.58,190712,,,A*43
$GPRMC,214804.000,A,3748.5641,N,12217.8561,W,0.52,268.29,190712,,,A*78
$GPRMC,214805.000,A,3748.5635,N,12217.8567,W,0.53,217.08,190712,,,A*76
$GPRMC,214806.000,A,3748.5626,N,12217.8573,W,0.76,130.78,190712,,,A*74
$GPRMC,214807.000,A,3748.5624,N,12217.8576,W,0.63,124.22,190712,,,A*7C
$GPRMC,214808.000,A,3748.5623,N,12217.8573,W,0.09,334.78,190712,,,A*71
$GPRMC,214809.000,A,3748.5622,N,12217.8573,W,0.90,189.35,190712,,,A*7C
$GPRMC,214810.000,A,3748.5616,N,12217.8577,W,1.21,183.03,190712,,,A*73
$GPRMC,214811.000,A,3748.5615,N,12217.8574,W,1.27,139.85,190712,,,A*7B
$GPRMC,214812.000,A,3748.5615,N,12217.8569,W,1.12,132.10,190712,,,A*75
$GPRMC,214813.000,A,3748.5610,N,12217.8567,W,1.25,170.05,190712,,,A*79
$GPRMC,214814.000,A,3748.5607,N,12217.8567,W,1.41,138.47,190712,,,A*70
$GPRMC,214815.000,A,3748.5605,N,12217.8563,W,0.80,118.72,190712,,,A*7F
$GPRMC,214816.000,A,3748.5604,N,12217.8558,W,0.84,128.18,190712,,,A*7E
$GPRMC,214817.000,A,3748.5601,N,12217.8553,W,1.17,130.95,190712,,,A*76
$GPRMC,214818.000,A,3748.5598,N,12217.8553,W,1.53,135.44,190712,,,A*73
$GPRMC,214819.000,A,3748.5594,N,12217.8551,W,1.40,173.40,190712,,,A*78
$GPRMC,214820.000,A,3748.5589,N,12217.8550,W,1.34,185.85,190712,,,A*7C
$GPRMC,214821.000,A,3748.5586,N,12217.8550,W,1.79,160.76,190712,,,A*7C
$GPRMC,214822.000,A,3748.5583,N,12217.8546,W,0.76,126.16,190712,,,A*77
$GPRMC,214823.000,A,3748.5581,N,12217.8542,W,1.06,138.18,190712,,,A*77
$GPRMC,214824.000,A,3748.5579,N,12217.8537,W,1.11,118.60,190712,,,A*7E
$GPRMC,214825.000,A,3748.5580,N,12217.8529,W,0.52,132.66,190712,,,A*7E
$GPRMC,214826.000,A,3748.5581,N,12217.8521,W,0.43,145.52,190712,,,A*73
$GPRMC,214827.000,A,3748.5580,N,12217.8518,W,1.19,88.60,190712,,,A*46
$GPRMC,214828.000,A,3748.5580,N,12217.8514,W,0.82,109.60,190712,,,A*7E
$GPRMC,214829.000,A,3748.5579,N,12217.8507,W,0.77,69.56,190712,,,A*43
$GPRMC,214830.000,A,3748.5579,N,12217.8502,W,0.18,78.13,190712,,,A*46
$GPRMC,214831.000,A,3748.5572,N,12217.8502,W,0.44,202.29,190712,,,A*73
$GPRMC,214832.000,A,3748.5572,N,12217.8498,W,0.12,289.08,190712,,,A*71
$GPRMC,214833.000,A,3748.5573,N,12217.8495,W,0.11,292.35,190712,,,A*7B
$GPRMC,214834.000,A,3748.5576,N,12217.8487,W,0.39,61.50,190712,,,A*4D
$GPRMC,214835.000,A,3748.5574,N,12217.8486,W,0.27,102.00,190712,,,A*71
$GPRMC,214836.000,A,3748.5575,N,12217.8490,W,0.41,238.67,190712,,,A*7F
$GPRMC,214837.000,A,3748.5571,N,12217.8496,W,0.26,221.62,190712,,,A*70
$GPRMC,214838.000,A,3748.5572,N,12217.8502,W,0.25,207.72,190712,,,A*76
$GPRMC,214839.000,A,3748.5570,N,12217.8509,W,0.98,229.30,190712,,,A*72
$GPRMC,214840.000,A,3748.5566,N,12217.8508,W,1.00,208.46,190712,,,A*78
$GPRMC,214841.000,A,3748.5560,N,12217.8509,W,0.82,136.98,190712,,,A*78
$GPRMC,214842.000,A,3748.5560,N,12217.8505,W,1.01,87.43,190712,,,A*40
$GPRMC,214843.000,A,3748.5561,N,12217.8505,W,0.46,7.04,190712,,,A*79
$GPRMC,214844.000,A,3748.5554,N,12217.8515,W,0.71,184.06,190712,,,A*75
$GPRMC,214845.000,A,3748.5552,N,12217.8517,W,0.56,146.15,190712,,,A*79
$GPRMC,214846.000,A,3748.5554,N,12217.8510,W,0.76,162.66,190712,,,A*7B
$GPRMC,214847.000,A,3748.5552,N,12217.8506,W,1.36,183.20,190712,,,A*73
$GPRMC,214848.000,A,3748.5552,N,12217.8505,W,0.87,181.88,190712,,,A*74
$GPRMC,214849.000,A,3748.5549,N,12217.8503,W,1.35,181.47,190712,,,A*72
$GPRMC,214850.000,A,3748.5547,N,12217.8506,W,0.87,205.06,190712,,,A*73
$GPRMC,214851.000,A,3748.5546,N,12217.8506,W,0.83,242.72,190712,,,A*77
$GPRMC,214852.000,A,3748.5545,N,12217.8508,W,0.20,293.52,190712,,,A*7E
$GPRMC,214853.000,A,3748.5546,N,12217.8509,W,0.34,355.21,190712,,,A*77
$GPRMC,214854.000,A,3748.5547,N,12217.8511,W,0.40,234.39,190712,,,A*74
$GPRMC,214855.000,A,3748.5554,N,12217.8502,W,0.20,16.40,190712,,,A*4F
$GPRMC,214856.000,A,3748.5555,N,12217.8500,W,0.33,48.82,190712,,,A*48
$GPRMC,214857.000,A,3748.5556,N,12217.8498,W,0.61,63.40,190712,,,A*4A
$GPRMC,214858.000,A,3748.5558,N,12217.8499,W,0.53,28.12,190712,,,A*43
$GPRMC,214859.000,A,3748.5557,N,12217.8501,W,0.23,29.17,190712,,,A*4E
$GPRMC,214900.000,A,3748.5557,N,12217.8498,W,0.37,171.00,190712,,,A*7D
$GPRMC,214901.000,A,3748.5555,N,12217.8500,W,0.39,214.09,190712,,,A*79
$GPRMC,214902.000,A,3748.5554,N,12217.8501,W,0.22,251.62,190712,,,A*7C
$GPRMC,214903.000,A,3748.5561,N,12217.8495,W,0.50,5.53,190712,,,A*73
$GPRMC,214904.000,A,3748.5561,N,12217.8498,W,0.77,341.95,190712,,,A*75
$GPRMC,214905.000,A,3748.5561,N,12217.8502,W,0.82,323.15,190712,,,A*70
$GPRMC,214906.000,A,3748.5561,N,12217.8502,W,0.90,14.20,190712,,,A*41
$GPRMC,214907.000,A,3748.5562,N,12217.8500,W,1.43,24.42,190712,,,A*49
$GPRMC,214908.000,A,3748.5566,N,12217.8498,W,1.59,7.80,190712,,,A*76
$GPRMC,214909.000,A,3748.5566,N,12217.8498,W,1.30,16.46,190712,,,A*42
$GPRMC,214910.000,A,3748.5567,N,12217.8498,W,1.21,31.82,190712,,,A*46
$GPRMC,214911.000,A,3748.5570,N,12217.8499,W,1.17,350.76,190712,,,A*7A
$GPRMC,214912.000,A,3748.5575,N,12217.8502,W,1.31,310.97,190712,,,A*70
$GPRMC,214913.000,A,3748.5576,N,12217.8508,W,0.72,334.24,190712,,,A*70
$GPRMC,214914.000,A,3748.5578,N,12217.8511,W,0.66,325.77,190712,,,A*72
$GPRMC,214915.000,A,3748.5579,N,12217.8515,W,0.28,31.68,190712,,,A*44
$GPRMC,214916.000,A,3748.5582,N,12217.8518,W,0.15,270.57,190712,,,A*7B
$GPRMC,214917.000,A,3748.5583,N,12217.8521,W,0.67,294.51,190712,,,A*78
$GPRMC,214918.000,A,3748.5582,N,12217.8527,W,1.07,246.33,190712,,,A*7C
$GPRMC,214919.000,A,3748.5582,N,12217.8527,W,0.48,224.79,190712,,,A*7D
$GPRMC,214920.000,A,3748.5582,N,12217.8527,W,0.36,143.19,190712,,,A*7A
$GPRMC,214921.000,A,3748.5582,N,12217.8526,W,0.53,82.51,190712,,,A*49
$GPRMC,214922.000,A,3748.5580,N,12217.8530,W,0.09,125.98,190712,,,A*79
$GPRMC,214923.000,A,3748.5584,N,12217.8525,W,0.33,231.13,190712,,,A*74
$GPRMC,214924.000,A,3748.5583,N,12217.8529,W,0.82,236.14,190712,,,A*72
$GPRMC,214925.000,A,3748.5584,N,12217.8530,W,0.03,245.08,190712,,,A*7C
$GPRMC,214926.000,A,3748.5584,N,12217.8532,W,0.17,22.13,190712,,,A*41
$GPRMC,214927.000,A,3748.5584,N,12217.8536,W,0.26,16.65,190712,,,A*40
$GPRMC,214928.000,A,3748.5584,N,12217.8541,W,0.17,32.44,190712,,,A*48
$GPRMC,214929.000,A,3748.5583,N,12217.8543,W,0.03,82.54,190712,,,A*43
$GPRMC,214930.000,A,3748.5583,N,12217.8542,W,0.15,39.96,190712,,,A*43
$GPRMC,214931.000,A,3748.5582,N,12217.8545,W,0.17,35.90,190712,,,A*4C
$GPRMC,214932.000,A,3748.5582,N,12217.8542,W,0.47,49.45,190712,,,A*4E
$GPRMC,214933.000,A,3748.5583,N,12217.8541,W,0.04,60.70,190712,,,A*47
$GPRMC,214934.000,A,3748.5579,N,12217.8538,W,0.39,205.39,190712,,,A*79
$GPRMC,214935.000,A,3748.5576,N,12217.8537,W,0.66,171.17,190712,,,A*7E
$GPRMC,214936.000,A,3748.5576,N,12217.8537,W,0.32,128.86,190712,,,A*78
$GPRMC,214937.000,A,3748.5577,N,12217.8536,W,0.33,104.28,190712,,,A*72
$GPRMC,214938.000,A,3748.5578,N,12217.8534,W,0.58,16.74,190712,,,A*46
$GPRMC,214939.000,A,3748.5584,N,12217.8529,W,1.60,23.42,190712,,,A*41
$GPRMC,214940.000,A,3748.5588,N,12217.8526,W,0.80,48.62,190712,,,A*4C
$GPRMC,214941.000,A,3748.5591,N,12217.8521,W,0.87,48.00,190712,,,A*41
$GPRMC,214942.000,A,3748.5590,N,12217.8526,W,0.48,341.79,190712,,,A*73
$GPRMC,214943.000,A,3748.5589,N,12217.8527,W,0.20,63.44,190712,,,A*48
$GPRMC,214944.000,A,3748.5582,N,12217.8531,W,0.81,229.93,190712,,,A*7E
$GPRMC,214945.000,A,3748.5576,N,12217.8536,W,0.74,282.61,190712,,,A*75
$GPRMC,214946.000,A,3748.5572,N,12217.8541,W,0.33,254.02,190712,,,A*7F
$GPRMC,214947.000,A,3748.5565,N,12217.8549,W,0.91,214.63,190712,,,A*7B
$GPRMC,214948.000,A,3748.5574,N,12217.8552,W,0.14,359.04,190712,,,A*7A
$GPRMC,214949.000,A,3748.5584,N,12217.8552,W,1.20,344.92,190712,,,A*71
$GPRMC,214950.000,A,3748.5584,N,12217.8556,W,0.76,332.15,190712,,,A*71
$GPRMC,214951.000,A,3748.5567,N,12217.8558,W,0.48,69.95,190712,,,A*4B
$GPRMC,214952.000,A,3748.5562,N,12217.8553,W,0.65,164.29,190712,,,A*72
$GPRMC,214953.000,A,3748.5561,N,12217.8545,W,0.90,177.26,190712,,,A*70
$GPRMC,214954.000,A,3748.5559,N,12217.8542,W,0.55,205.51,190712,,,A*74
$GPRMC,214955.000,A,3748.5555,N,12217.8543,W,1.03,212.04,190712,,,A*7C
$GPRMC,214956.000,A,3748.5558,N,12217.8543,W,1.40,198.23,190712,,,A*71
$GPRMC,214957.000,A,3748.5556,N,12217.8540,W,0.98,186.78,190712,,,A*78
$GPRMC,214958.000,A,3748.5556,N,12217.8538,W,0.21,208.73,190712,,,A*74
$GPRMC,214959.000,A,3748.5556,N,12217.8537,W,0.19,238.11,190712,,,A*76
$GPRMC,215000.000,A,3748.5554,N,12217.8537,W,0.47,297.19,190712,,,A*76
$GPRMC,215001.000,A,3748.5551,N,12217.8541,W,1.11,318.20,190712,,,A*7D
$GPRMC,215002.000,A,3748.5551,N,12217.8546,W,0.88,260.71,190712,,,A*72
$GPRMC,215003.000,A,3748.5548,N,12217.8551,W,1.00,260.03,190712,,,A*79
$GPRMC,215004.000,A,3748.5546,N,12217.8554,W,0.76,248.07,190712,,,A*7B
$GPRMC,215005.000,A,3748.5546,N,12217.8556,W,0.14,271.31,190712,,,A*73
$GPRMC,215006.000,A,3748.5544,N,12217.8564,W,0.68,306.55,190712,,,A*7B
$GPRMC,215007.000,A,3748.5547,N,12217.8559,W,0.51,335.59,190712,,,A*71
$GPRMC,215008.000,A,3748.5546,N,12217.8552,W,0.36,178.90,190712,,,A*7B
$GPRMC,215009.000,A,3748.5545,N,12217.8539,W,0.85,76.99,190712,,,A*4A
$GPRMC,215010.000,A,3748.5545,N,12217.8531,W,0.78,84.46,190712,,,A*47
$GPRMC,215011.000,A,3748.5544,N,12217.8529,W,0.29,135.37,190712,,,A*77
$GPRMC,215012.000,A,3748.5547,N,12217.8522,W,0.39,105.34,190712,,,A*7D
$GPRMC,215013.000,A,3748.5541,N,12217.8524,W,0.27,60.97,190712,,,A*48
$GPRMC,215014.000,A,3748.5533,N,12217.8532,W,0.14,290.47,190712,,,A*7D
$GPRMC,215015.000,A,3748.5527,N,12217.8536,W,0.27,351.90,190712,,,A*7B
$GPRMC,215016.000,A,3748.5528,N,12217.8534,W,0.37,347.64,190712,,,A*78
$GPRMC,215017.000,A,3748.5533,N,12217.8527,W,0.71,32.73,190712,,,A*44
$GPRMC,215018.000,A,3748.5534,N,12217.8528,W,0.16,24.27,190712,,,A*44
$GPRMC,215019.000,A,3748.5530,N,12217.8533,W,0.19,218.60,190712,,,A*7A
$GPRMC,215020.000,A,3748.5528,N,12217.8538,W,0.37,295.49,190712,,,A*70
$GPRMC,215021.000,A,3748.5536,N,12217.8534,W,0.12,56.71,190712,,,A*43
$GPRMC,215022.000,A,3748.5541,N,12217.8529,W,0.54,52.40,190712,,,A*48
$GPRMC,215023.000,A,3748.5548,N,12217.8527,W,0.59,32.66,190712,,,A*41
$GPRMC,215024.000,A,3748.5547,N,12217.8531,W,0.70,21.76,190712,,,A*46
$GPRMC,215025.000,A,3748.5546,N,12217.8533,W,0.36,177.86,190712,,,A*7B
$GPRMC,215026.000,A,3748.5546,N,12217.8533,W,0.21,183.77,190712,,,A*7B
$GPRMC,215027.000,A,3748.5547,N,12217.8535,W,0.06,304.75,190712,,,A*77
$GPRMC,215028.000,A,3748.5546,N,12217.8536,W,0.08,290.47,190712,,,A*79
$GPRMC,215029.000,A,3748.5540,N,12217.8533,W,0.28,212.36,190712,,,A*75
$GPRMC,215030.000,A,3748.5536,N,12217.8534,W,0.47,188.10,190712,,,A*76
$GPRMC,215031.000,A,3748.5535,N,12217.8529,W,0.44,154.33,190712,,,A*7B
$GPRMC,215032.000,A,3748.5538,N,12217.8528,W,0.12,76.90,190712,,,A*4F
$GPRMC,215033.000,A,3748.5540,N,12217.8526,W,0.27,75.72,190712,,,A*46
$GPRMC,215034.000,A,3748.5543,N,12217.8522,W,0.58,102.58,190712,,,A*77
$GPRMC,215035.000,A,3748.5548,N,12217.8522,W,0.47,32.35,190712,,,A*4A
$GPRMC,215036.000,A,3748.5547,N,12217.8520,W,0.25,21.05,190712,,,A*41
$GPRMC,215037.000,A,3748.5551,N,12217.8517,W,0.14,245.86,190712,,,A*7A
$GPRMC,215038.000,A,3748.5553,N,12217.8518,W,0.24,195.56,190712,,,A*78
$GPRMC,215039.000,A,3748.5554,N,12217.8520,W,0.34,187.30,190712,,,A*77
$GPRMC,215040.000,A,3748.5552,N,12217.8522,W,0.22,308.32,190712,,,A*7D
$GPRMC,215041.000,A,3748.5550,N,12217.8525,W,0.19,249.67,190712,,,A*75
$GPRMC,215042.000,A,3748.5549,N,12217.8527,W,0.15,43.67,190712,,,A*48
$GPRMC,215043.000,A,3748.5552,N,12217.8525,W,0.50,81.20,190712,,,A*4D
$GPRMC,215044.000,A,3748.5552,N,12217.8524,W,0.07,166.24,190712,,,A*75
$GPRMC,215045.000,A,3748.5553,N,12217.8523,W,0.09,142.57,190712,,,A*7E
$GPRMC,215046.000,A,3748.5554,N,12217.8523,W,0.15,241.55,190712,,,A*75
$GPRMC,215047.000,A,3748.5552,N,12217.8525,W,0.19,97.23,190712,,,A*40
$GPRMC,215048.000,A,3748.5553,N,12217.8523,W,0.34,83.81,190712,,,A*4A
$GPRMC,215049.000,A,3748.5554,N,12217.8522,W,0.23,122.51,190712,,,A*7C
$GPRMC,215050.000,A,3748.5556,N,12217.8522,W,0.68,203.39,190712,,,A*77
$GPRMC,215051.000,A,3748.5555,N,12217.8522,W,0.37,194.97,190712,,,A*76
$GPRMC,215052.000,A,3748.5557,N,12217.8521,W,0.58,35.46,190712,,,A*4B
$GPRMC,215053.000,A,3748.5557,N,12217.8522,W,0.22,273.84,190712,,,A*7A
$GPRMC,215054.000,A,3748.5557,N,12217.8523,W,0.73,213.35,190712,,,A*74
$GPRMC,215055.000,A,3748.5558,N,12217.8523,W,0.38,208.06,190712,,,A*7F
$GPRMC,215056.000,A,3748.5556,N,12217.8524,W,0.45,209.26,190712,,,A*7C
$GPRMC,215057.000,A,3748.5558,N,12217.8524,W,0.37,4.10,190712,,,A*7C
$GPRMC,215058.000,A,3748.5557,N,12217.8526,W,0.36,277.26,190712,,,A*7C
$GPRMC,215059.000,A,3748.5559,N,12217.8525,W,0.16,308.69,190712,,,A*70
$GPRMC,215100.000,A,3748.5558,N,12217.8528,W,0.09,108.35,190712,,,A*74
$GPRMC,215101.000,A,3748.5555,N,12217.8531,W,0.62,215.39,190712,,,A*7E
$GPRMC,215102.000,A,3748.5559,N,12217.8530,W,0.63,265.13,190712,,,A*7E
$GPRMC,215103.000,A,3748.5559,N,12217.8533,W,0.49,291.68,190712,,,A*73
$GPRMC,215104.000,A,3748.5557,N,12217.8534,W,0.15,268.47,190712,,,A*7F
$GPRMC,215105.000,A,3748.5554,N,12217.8535,W,0.34,153.49,190712,,,A*7A
$GPRMC,215106.000,A,3748.5555,N,12217.8533,W,0.22,114.58,190712,,,A*7A
$GPRMC,215107.000,A,3748.5555,N,12217.8535,W,0.84,259.22,190712,,,A*76
$GPRMC,215108.000,A,3748.5556,N,12217.8535,W,0.55,273.76,190712,,,A*7F
$GPRMC,215109.000,A,3748.5557,N,12217.8538,W,0.54,239.15,190712,,,A*78
$GPRMC,215110.000,A,3748.5559,N,12217.8542,W,0.39,238.48,190712,,,A*71
$GPRMC,215111.000,A,3748.5560,N,12217.8544,W,0.24,351.20,190712,,,A*70
$GPRMC,215112.000,A,3748.5557,N,12217.8545,W,0.21,122.23,190712,,,A*76
$GPRMC,215113.000,A,3748.5554,N,12217.8544,W,0.21,138.49,190712,,,A*72
$GPRMC,215114.000,A,3748.5551,N,12217.8543,W,0.25,202.66,190712,,,A*74
$GPRMC,215115.000,A,3748.5546,N,12217.8543,W,0.68,206.76,190712,,,A*7F
$GPRMC,215116.000,A,3748.5551,N,12217.8535,W,0.22,98.02,190712,,,A*43
$GPRMC,215117.000,A,3748.5555,N,12217.8531,W,0.52,46.59,190712,,,A*48
$GPRMC,215118.000,A,3748.5557,N,12217.8531,W,0.29,49.41,190712,,,A*4F
$GPRMC,215119.000,A,3748.5554,N,12217.8535,W,0.20,268.99,190712,,,A*74
$GPRMC,215120.000,A,3748.5550,N,12217.8542,W,0.20,337.52,190712,,,A*76
$GPRMC,215121.000,A,3748.5548,N,12217.8545,W,0.12,309.45,190712,,,A*73
$GPRMC,215122.000,A,3748.5547,N,12217.8546,W,0.11,253.74,190712,,,A*73
$GPRMC,215123.000,A,3748.5546,N,12217.8547,W,0.30,169.20,190712,,,A*7A
$GPRMC,215124.000,A,3748.5547,N,12217.8545,W,0.25,199.89,190712,,,A*76
$GPRMC,215125.000,A,3748.5546,N,12217.8544,W,0.18,221.44,190712,,,A*78
$GPRMC,215126.000,A,3748.5541,N,12217.8543,W,0.51,79.30,190712,,,A*4A
$GPRMC,215127.000,A,3748.5541,N,12217.8536,W,0.55,141.86,190712,,,A*7A
$GPRMC,215128.000,A,3748.5541,N,12217.8535,W,0.51,227.48,190712,,,A*73
$GPRMC,215129.000,A,3748.5539,N,12217.8538,W,1.03,269.38,190712,,,A*7B
$GPRMC,215130.000,A,3748.5540,N,12217.8540,W,0.39,212.07,190712,,,A*7A
$GPRMC,215131.000,A,3748.5541,N,12217.8540,W,0.19,322.84,190712,,,A*71
$GPRMC,215132.000,A,3748.5543,N,12217.8541,W,0.10,15.57,190712,,,A*41
$GPRMC,215133.000,A,3748.5545,N,12217.8544,W,0.13,23.32,190712,,,A*46
$GPRMC,215134.000,A,3748.5546,N,12217.8546,W,0.02,284.03,190712,,,A*7D
$GPRMC,215135.000,A,3748.5547,N,12217.8549,W,0.31,236.62,190712,,,A*7C
$GPRMC,215136.000,A,3748.5548,N,12217.8550,W,0.11,41.49,190712,,,A*41
$GPRMC,215137.000,A,3748.5549,N,12217.8551,W,0.32,21.56,190712,,,A*49
$GPRMC,215138.000,A,3748.5550,N,12217.8553,W,0.14,243.38,190712,,,A*76
$GPRMC,215139.000,A,3748.5551,N,12217.8554,W,0.13,236.76,190712,,,A*7E
$GPRMC,215140.000,A,3748.5551,N,12217.8555,W,0.20,42.44,190712,,,A*41
$GPRMC,215141.000,A,3748.5552,N,12217.8554,W,0.16,86.65,190712,,,A*4C
$GPRMC,215142.000,A,3748.5552,N,12217.8556,W,0.21,257.28,190712,,,A*7E
$GPRMC,215143.000,A,3748.5552,N,12217.8557,W,0.07,180.24,190712,,,A*7F
$GPRMC,215144.000,A,3748.5552,N,12217.8557,W,0.00,107.10,190712,,,A*77
$GPRMC,215145.000,A,3748.5554,N,12217.8557,W,0.25,228.42,190712,,,A*7E
$GPRMC,215146.000,A,3748.5554,N,12217.8558,W,0.33,298.14,190712,,,A*7D
$GPRMC,215147.000,A,3748.5555,N,12217.8558,W,0.49,241.21,190712,,,A*72
$GPRMC,215148.000,A,3748.5554,N,12217.8561,W,0.68,245.99,190712,,,A*72
$GPRMC,215149.000,A,3748.5555,N,12217.8564,W,0.81,250.13,190712,,,A*76
$GPRMC,215150.000,A,3748.5558,N,12217.8565,W,0.79,315.65,190712,,,A*74
$GPRMC,215151.000,A,3748.5559,N,12217.8567,W,0.54,237.04,190712,,,A*7F
$GPRMC,215152.000,A,3748.5558,N,12217.8567,W,0.37,55.85,190712,,,A*47
$GPRMC,215153.000,A,3748.5558,N,12217.8564,W,0.14,19.32,190712,,,A*40
$GPRMC,215154.000,A,3748.5556,N,12217.8564,W,0.17,87.32,190712,,,A*4D
$GPRMC,215155.000,A,3748.5556,N,12217.8559,W,0.19,118.88,190712,,,A*7A
$GPRMC,215156.000,A,3748.5561,N,12217.8551,W,0.10,346.21,190712,,,A*76
$GPRMC,215157.000,A,3748.5566,N,12217.8546,W,0.23,347.48,190712,,,A*78
$GPRMC,215158.000,A,3748.5570,N,12217.8542,W,0.30,63.94,190712,,,A*42
$GPRMC,215159.000,A,3748.5574,N,12217.8537,W,0.17,48.52,190712,,,A*43
$GPRMC,215200.000,A,3748.5578,N,12217.8532,W,0.53,29.31,190712,,,A*47
$GPRMC,215201.000,A,3748.5576,N,12217.8533,W,0.51,43.60,190712,,,A*43
$GPRMC,215202.000,A,3748.5575,N,12217.8533,W,0.13,326.61,190712,,,A*74
$GPRMC,215203.000,A,3748.5576,N,12217.8537,W,0.40,283.82,190712,,,A*77
$GPRMC,215204.000,A,3748.5578,N,12217.8540,W,0.51,234.54,190712,,,A*79
$GPRMC,215205.000,A,3748.5579,N,12217.8541,W,0.36,288.72,190712,,,A*7A
$GPRMC,215206.000,A,3748.5574,N,12217.8539,W,0.82,179.06,190712,,,A*7A
$GPRMC,215207.000,A,3748.5569,N,12217.8546,W,1.28,213.23,190712,,,A*76
$GPRMC,215208.000,A,3748.5565,N,12217.8549,W,1.36,212.62,190712,,,A*71
$GPRMC,215209.000,A,3748.5561,N,12217.8551,W,1.53,227.43,190712,,,A*7B
$GPRMC,215210.000,A,3748.5558,N,12217.8556,W,1.74,228.44,190712,,,A*73
$GPRMC,215211.000,A,3748.5554,N,12217.8560,W,1.88,219.18,190712,,,A*73
$GPRMC,215212.000,A,3748.5546,N,12217.8564,W,1.90,227.80,190712,,,A*72
$GPRMC,215213.000,A,3748.5543,N,12217.8568,W,1.53,216.14,190712,,,A*7A
$GPRMC,215214.000,A,3748.5539,N,12217.8572,W,1.94,218.30,190712,,,A*78
$GPRMC,215215.000,A,3748.5534,N,12217.8576,W,1.62,214.59,190712,,,A*7A
$GPRMC,215216.000,A,3748.5529,N,12217.8578,W,1.09,208.64,190712,,,A*75
$GPRMC,215217.000,A,3748.5524,N,12217.8581,W,1.33,222.53,190712,,,A*7A
$GPRMC,215218.000,A,3748.5520,N,12217.8582,W,1.10,193.38,190712,,,A*77
$GPRMC,215219.000,A,3748.5511,N,12217.8583,W,1.74,185.28,190712,,,A*71
$GPRMC,215220.000,A,3748.5507,N,12217.8583,W,1.85,186.71,190712,,,A*7D
$GPRMC,215221.000,A,3748.5502,N,12217.8583,W,1.51,189.50,190712,,,A*7C
$GPRMC,215222.000,A,3748.5497,N,12217.8583,W,2.15,188.99,190712,,,A*75
$GPRMC,215223.000,A,3748.5490,N,12217.8585,W,2.14,188.96,190712,,,A*7B
$GPRMC,215224.000,A,3748.5483,N,12217.8587,W,1.98,179.11,190712,,,A*7A
$GPRMC,215225.000,A,3748.5475,N,12217.8588,W,2.50,165.03,190712,,,A*74
$GPRMC,215226.000,A,3748.5469,N,12217.8587,W,1.39,167.28,190712,,,A*72
$GPRMC,215227.000,A,3748.5465,N,12217.8584,W,1.64,161.99,190712,,,A*78
$GPRMC,215228.000,A,3748.5460,N,12217.8582,W,1.65,154.84,190712,,,A*7F
$GPRMC,215229.000,A,3748.5455,N,12217.8585,W,1.65,161.34,190712,,,A*72
$GPRMC,215230.000,A,3748.5452,N,12217.8582,W,1.15,147.03,190712,,,A*7D
$GPRMC,215231.000,A,3748.5447,N,12217.8584,W,1.35,178.50,190712,,,A*76
$GPRMC,215232.000,A,3748.5444,N,12217.8583,W,1.61,166.52,190712,,,A*7D
$GPRMC,215233.000,A,3748.5441,N,12217.8581,W,1.83,160.85,190712,,,A*7B
$GPRMC,215234.000,A,3748.5435,N,12217.8579,W,1.88,161.81,190712,,,A*76
$GPRMC,215235.000,A,3748.5430,N,12217.8578,W,1.88,164.21,190712,,,A*7C
$GPRMC,215236.000,A,3748.5426,N,12217.8574,W,1.91,162.35,190712,,,A*7F
$GPRMC,215237.000,A,3748.5420,N,12217.8573,W,1.45,164.00,190712,,,A*76
$GPRMC,215238.000,A,3748.5416,N,12217.8571,W,1.67,155.48,190712,,,A*70
$GPRMC,215239.000,A,3748.5413,N,12217.8566,W,1.43,141.99,190712,,,A*7D
$GPRMC,215240.000,A,3748.5409,N,12217.8563,W,1.72,159.04,190712,,,A*72
$GPRMC,215241.000,A,3748.5405,N,12217.8558,W,2.03,141.87,190712,,,A*70
$GPRMC,215242.000,A,3748.5401,N,12217.8552,W,1.84,136.03,190712,,,A*7D
$GPRMC,215243.000,A,3748.5398,N,12217.8547,W,2.18,126.00,190712,,,A*7B
$GPRMC,215244.000,A,3748.5395,N,12217.8539,W,1.97,124.90,190712,,,A*77
$GPRMC,215245.000,A,3748.5392,N,12217.8533,W,1.74,125.95,190712,,,A*72
$GPRMC,215246.000,A,3748.5388,N,12217.8526,W,1.67,118.96,190712,,,A*71
$GPRMC,215247.000,A,3748.5385,N,12217.8521,W,2.00,107.82,190712,,,A*73
$GPRMC,215248.000,A,3748.5381,N,12217.8518,W,1.65,130.40,190712,,,A*78
$GPRMC,215249.000,A,3748.5380,N,12217.8515,W,1.57,112.42,190712,,,A*76
$GPRMC,215250.000,A,3748.5378,N,12217.8509,W,1.93,121.96,190712,,,A*75
$GPRMC,215251.000,A,3748.5377,N,12217.8503,W,1.82,113.18,190712,,,A*76
$GPRMC,215252.000,A,3748.5374,N,12217.8502,W,1.29,128.04,190712,,,A*73
$GPRMC,215253.000,A,3748.5369,N,12217.8502,W,1.68,124.76,190712,,,A*72
$GPRMC,215254.000,A,3748.5364,N,12217.8497,W,1.75,122.00,190712,,,A*7E
$GPRMC,215255.000,A,3748.5362,N,12217.8493,W,1.18,145.37,190712,,,A*73
$GPRMC,215256.000,A,3748.5358,N,12217.8488,W,1.99,146.76,190712,,,A*7C
$GPRMC,215257.000,A,3748.5355,N,12217.8484,W,1.87,140.31,190712,,,A*76
$GPRMC,215258.000,A,3748.5350,N,12217.8475,W,2.07,109.29,190712,,,A*7D
$GPRMC,215259.000,A,3748.5347,N,12217.8467,W,2.16,118.51,190712,,,A*76
$GPRMC,215300.000,A,3748.5343,N,12217.8455,W,2.29,117.56,190712,,,A*7A
$GPRMC,215301.000,A,3748.5333,N,12217.8448,W,2.17,129.11,190712,,,A*73
$GPRMC,215302.000,A,3748.5326,N,12217.8442,W,1.93,125.63,190712,,,A*78
$GPRMC,215303.000,A,3748.5325,N,12217.8435,W,1.97,127.61,190712,,,A*7E
$GPRMC,215304.000,A,3748.5318,N,12217.8430,W,2.28,144.41,190712,,,A*72
$GPRMC,215305.000,A,3748.5312,N,12217.8426,W,2.35,152.29,190712,,,A*7B
$GPRMC,215306.000,A,3748.5301,N,12217.8426,W,2.08,163.34,190712,,,A*7A
$GPRMC,215307.000,A,3748.5293,N,12217.8425,W,1.89,153.71,190712,,,A*7A
$GPRMC,215308.000,A,3748.5287,N,12217.8420,W,2.24,128.79,190712,,,A*75
$GPRMC,215309.000,A,3748.5282,N,12217.8415,W,2.13,121.95,190712,,,A*78
$GPRMC,215310.000,A,3748.5276,N,12217.8409,W,2.08,131.69,190712,,,A*7E
$GPRMC,215311.000,A,3748.5272,N,12217.8405,W,2.03,146.02,190712,,,A*71
$GPRMC,215312.000,A,3748.5268,N,12217.8401,W,1.99,142.31,190712,,,A*79
$GPRMC,215313.000,A,3748.5266,N,12217.8395,W,1.95,136.67,190712,,,A*70
$GPRMC,215314.000,A,3748.5262,N,12217.8389,W,1.93,148.16,190712,,,A*77
$GPRMC,215315.000,A,3748.5260,N,12217.8383,W,1.57,138.22,190712,,,A*76
$GPRMC,215316.000,A,3748.5258,N,12217.8378,W,1.67,106.44,190712,,,A*74
$GPRMC,215317.000,A,3748.5256,N,12217.8367,W,1.80,112.64,190712,,,A*7B
$GPRMC,215318.000,A,3748.5254,N,12217.8358,W,1.91,137.93,190712,,,A*75
$GPRMC,215319.000,A,3748.5249,N,12217.8351,W,2.34,126.89,190712,,,A*76
$GPRMC,215320.000,A,3748.5246,N,12217.8345,W,1.80,122.55,190712,,,A*7F
$GPRMC,215321.000,A,3748.5242,N,12217.8342,W,1.67,139.97,190712,,,A*70
$GPRMC,215322.000,A,3748.5238,N,12217.8340,W,2.22,141.13,190712,,,A*7D
$GPRMC,215323.000,A,3748.5239,N,12217.8334,W,1.98,131.76,190712,,,A*78
$GPRMC,215324.000,A,3748.5239,N,12217.8324,W,1.15,110.93,190712,,,A*73
$GPRMC,215325.000,A,3748.5241,N,12217.8321,W,0.93,86.25,190712,,,A*44
$GPRMC,215326.000,A,3748.5241,N,12217.8316,W,1.37,143.81,190712,,,A*7A
$GPRMC,215327.000,A,3748.5242,N,12217.8309,W,1.96,142.95,190712,,,A*79
$GPRMC,215328.000,A,3748.5235,N,12217.8299,W,2.50,123.23,190712,,,A*7D
$GPRMC,215329.000,A,3748.5231,N,12217.8294,W,1.85,124.23,190712,,,A*79
$GPRMC,215330.000,A,3748.5230,N,12217.8287,W,1.67,103.33,190712,,,A*7A
$GPRMC,215331.000,A,3748.5226,N,12217.8278,W,2.08,114.45,190712,,,A*71
$GPRMC,215332.000,A,3748.5222,N,12217.8272,W,2.04,124.58,190712,,,A*7F
$GPRMC,215333.000,A,3748.5216,N,12217.8268,W,1.88,132.76,190712,,,A*7E
$GPRMC,215334.000,A,3748.5211,N,12217.8263,W,1.77,136.65,190712,,,A*73
$GPRMC,215335.000,A,3748.5211,N,12217.8250,W,2.17,124.75,190712,,,A*75
$GPRMC,215336.000,A,3748.5209,N,12217.8241,W,1.82,117.67,190712,,,A*73
$GPRMC,215337.000,A,3748.5209,N,12217.8232,W,1.46,119.99,190712,,,A*71
$GPRMC,215338.000,A,3748.5208,N,12217.8227,W,1.74,106.42,190712,,,A*72
$GPRMC,215339.000,A,3748.5206,N,12217.8222,W,1.62,117.92,190712,,,A*72
$GPRMC,215340.000,A,3748.5202,N,12217.8219,W,1.34,130.58,190712,,,A*70
$GPRMC,215341.000,A,3748.5197,N,12217.8216,W,1.64,137.74,190712,,,A*7D
$GPRMC,215342.000,A,3748.5191,N,12217.8209,W,2.52,151.15,190712,,,A*77
$GPRMC,215343.000,A,3748.5187,N,12217.8202,W,2.40,100.33,190712,,,A*79
$GPRMC,215344.000,A,3748.5186,N,12217.8194,W,2.28,112.64,190712,,,A*7C
$GPRMC,215345.000,A,3748.5185,N,12217.8186,W,2.45,101.80,190712,,,A*7E
$GPRMC,215346.000,A,3748.5184,N,12217.8183,W,2.23,97.40,190712,,,A*4B
$GPRMC,215347.000,A,3748.5181,N,12217.8177,W,2.43,110.04,190712,,,A*7C
$GPRMC,215348.000,A,3748.5175,N,12217.8173,W,3.04,129.27,190712,,,A*75
$GPRMC,215349.000,A,3748.5173,N,12217.8161,W,2.34,136.91,190712,,,A*70
$GPRMC,215350.000,A,3748.5175,N,12217.8145,W,2.59,130.98,190712,,,A*7C
$GPRMC,215351.000,A,3748.5170,N,12217.8136,W,1.81,151.56,190712,,,A*7F
$GPRMC,215352.000,A,3748.5165,N,12217.8131,W,1.53,150.37,190712,,,A*76
$GPRMC,215353.000,A,3748.5163,N,12217.8124,W,1.98,129.35,190712,,,A*7E
$GPRMC,215354.000,A,3748.5164,N,12217.8117,W,1.85,124.39,190712,,,A*73
$GPRMC,215355.000,A,3748.5162,N,12217.8107,W,1.94,130.41,190712,,,A*7F
$GPRMC,215356.000,A,3748.5155,N,12217.8100,W,2.58,144.98,190712,,,A*7B
$GPRMC,215357.000,A,3748.5152,N,12217.8090,W,1.87,122.55,190712,,,A*75
$GPRMC,215358.000,A,3748.5153,N,12217.8080,W,1.47,119.71,190712,,,A*78
$GPRMC,215359.000,A,3748.5149,N,12217.8074,W,1.87,117.12,190712,,,A*7E
$GPRMC,215400.000,A,3748.5148,N,12217.8069,W,1.93,126.39,190712,,,A*76
$GPRMC,215401.000,A,3748.5144,N,12217.8065,W,2.20,127.20,190712,,,A*75
$GPRMC,215402.000,A,3748.5141,N,12217.8059,W,1.67,126.86,190712,,,A*71
$GPRMC,215403.000,A,3748.5136,N,12217.8055,W,1.53,129.03,190712,,,A*79
$GPRMC,215404.000,A,3748.5128,N,12217.8051,W,1.62,166.91,190712,,,A*77
$GPRMC,215405.000,A,3748.5120,N,12217.8046,W,1.98,138.48,190712,,,A*72
$GPRMC,215406.000,A,3748.5116,N,12217.8040,W,2.01,136.68,190712,,,A*7D
$GPRMC,215407.000,A,3748.5112,N,12217.8034,W,2.01,133.63,190712,,,A*75
$GPRMC,215408.000,A,3748.5109,N,12217.8025,W,1.56,124.06,190712,,,A*74
$GPRMC,215409.000,A,3748.5105,N,12217.8017,W,2.18,124.25,190712,,,A*70
$GPRMC,215410.000,A,3748.5098,N,12217.8005,W,2.91,134.55,190712,,,A*79
$GPRMC,215411.000,A,3748.5092,N,12217.7998,W,1.75,119.49,190712,,,A*7B
$GPRMC,215412.000,A,3748.5087,N,12217.7991,W,1.87,135.96,190712,,,A*74
$GPRMC,215413.000,A,3748.5082,N,12217.7987,W,1.75,147.51,190712,,,A*74
$GPRMC,215414.000,A,3748.5074,N,12217.7979,W,1.95,133.98,190712,,,A*73
$GPRMC,215415.000,A,3748.5069,N,12217.7971,W,1.83,138.62,190712,,,A*7F
$GPRMC,215416.000,A,3748.5067,N,12217.7968,W,1.59,165.93,190712,,,A*7B
$GPRMC,215417.000,A,3748.5063,N,12217.7967,W,1.27,184.95,190712,,,A*71
$GPRMC,215418.000,A,3748.5060,N,12217.7961,W,1.02,178.75,190712,,,A*71
$GPRMC,215419.000,A,3748.5061,N,12217.7952,W,0.85,136.82,190712,,,A*7D
$GPRMC,215420.000,A,3748.5063,N,12217.7942,W,1.56,121.74,190712,,,A*74
$GPRMC,215421.000,A,3748.5062,N,12217.7934,W,1.55,132.12,190712,,,A*74
$GPRMC,215422.000,A,3748.5059,N,12217.7929,W,1.28,114.68,190712,,,A*70
$GPRMC,215423.000,A,3748.5058,N,12217.7923,W,1.81,138.56,190712,,,A*7A
$GPRMC,215424.000,A,3748.5055,N,12217.7918,W,1.83,141.70,190712,,,A*70
$GPRMC,215425.000,A,3748.5053,N,12217.7913,W,1.29,156.38,190712,,,A*76
$GPRMC,215426.000,A,3748.5048,N,12217.7910,W,1.79,170.48,190712,,,A*7A
$GPRMC,215427.000,A,3748.5041,N,12217.7910,W,2.68,189.73,190712,,,A*7F
$GPRMC,215428.000,A,3748.5032,N,12217.7916,W,2.36,206.69,190712,,,A*76
$GPRMC,215429.000,A,3748.5024,N,12217.7926,W,2.34,216.87,190712,,,A*70
$GPRMC,215430.000,A,3748.5018,N,12217.7931,W,2.33,217.55,190712,,,A*78
$GPRMC,215431.000,A,3748.5013,N,12217.7935,W,2.48,211.12,190712,,,A*7F
$GPRMC,215432.000,A,3748.5008,N,12217.7937,W,2.09,211.33,190712,,,A*72
$GPRMC,215433.000,A,3748.5000,N,12217.7943,W,2.07,215.77,190712,,,A*72
$GPRMC,215434.000,A,3748.4996,N,12217.7948,W,2.03,218.92,190712,,,A*7B
$GPRMC,215435.000,A,3748.4991,N,12217.7955,W,1.76,218.08,190712,,,A*73
$GPRMC,215436.000,A,3748.4985,N,12217.7960,W,1.84,213.68,190712,,,A*73
$GPRMC,215437.000,A,3748.4979,N,12217.7963,W,1.74,207.66,190712,,,A*76
$GPRMC,215438.000,A,3748.4975,N,12217.7966,W,1.45,220.38,190712,,,A*7C
$GPRMC,215439.000,A,3748.4969,N,12217.7968,W,1.86,222.54,190712,,,A*79
$GPRMC,215440.000,A,3748.4963,N,12217.7970,W,1.24,203.69,190712,,,A*71
$GPRMC,215441.000,A,3748.4959,N,12217.7971,W,1.07,227.59,190712,,,A*7C
$GPRMC,215442.000,A,3748.4955,N,12217.7977,W,1.58,213.57,190712,,,A*76
$GPRMC,215443.000,A,3748.4952,N,12217.7978,W,1.47,201.68,190712,,,A*7E
$GPRMC,215444.000,A,3748.4945,N,12217.7981,W,1.42,208.44,190712,,,A*7B
$GPRMC,215445.000,A,3748.4935,N,12217.7981,W,1.22,188.42,190712,,,A*76
$GPRMC,215446.000,A,3748.4930,N,12217.7982,W,1.24,196.48,190712,,,A*70
$GPRMC,215447.000,A,3748.4926,N,12217.7983,W,1.37,194.77,190712,,,A*7B
$GPRMC,215448.000,A,3748.4923,N,12217.7980,W,1.31,199.14,190712,,,A*7C
$GPRMC,215449.000,A,3748.4920,N,12217.7979,W,1.14,200.24,190712,,,A*7F
$GPRMC,215450.000,A,3748.4919,N,12217.7980,W,1.52,199.38,190712,,,A*77
$GPRMC,215451.000,A,3748.4914,N,12217.7983,W,1.80,221.98,190712,,,A*7D
$GPRMC,215452.000,A,3748.4917,N,12217.7985,W,1.59,230.60,190712,,,A*78
$GPRMC,215453.000,A,3748.4912,N,12217.7992,W,1.72,227.64,190712,,,A*71
$GPRMC,215454.000,A,3748.4909,N,12217.7997,W,1.51,224.51,190712,,,A*7D
$GPRMC,215455.000,A,3748.4902,N,12217.8002,W,1.44,206.80,190712,,,A*75
$GPRMC,215456.000,A,3748.4898,N,12217.8006,W,1.15,213.93,190712,,,A*72
$GPRMC,215457.000,A,3748.4890,N,12217.8015,W,2.23,220.42,190712,,,A*73
$GPRMC,215458.000,A,3748.4882,N,12217.8021,W,2.04,215.46,190712,,,A*7F
$GPRMC,215459.000,A,3748.4875,N,12217.8027,W,1.64,218.40,190712,,,A*7E
$GPRMC,215500.000,A,3748.4866,N,12217.8033,W,1.85,211.50,190712,,,A*73
$GPRMC,215501.000,A,3748.4858,N,12217.8038,W,2.00,210.68,190712,,,A*70
$GPRMC,215502.000,A,3748.4853,N,12217.8042,W,1.87,210.56,190712,,,A*74
$GPRMC,215503.000,A,3748.4849,N,12217.8044,W,1.23,214.84,190712,,,A*7D
$GPRMC,215504.000,A,3748.4843,N,12217.8049,W,0.90,214.79,190712,,,A*76
$GPRMC,215505.000,A,3748.4832,N,12217.8059,W,1.17,197.70,190712,,,A*7F
$GPRMC,215506.000,A,3748.4825,N,12217.8064,W,1.59,198.47,190712,,,A*75
$GPRMC,215507.000,A,3748.4817,N,12217.8065,W,1.58,188.52,190712,,,A*70
$GPRMC,215508.000,A,3748.4807,N,12217.8070,W,1.98,198.56,190712,,,A*73
$GPRMC,215509.000,A,3748.4797,N,12217.8076,W,1.74,218.09,190712,,,A*71
$GPRMC,215510.000,A,3748.4791,N,12217.8081,W,0.89,209.91,190712,,,A*75
$GPRMC,215511.000,A,3748.4786,N,12217.8084,W,0.79,199.30,190712,,,A*79
$GPRMC,215512.000,A,3748.4783,N,12217.8087,W,1.17,223.43,190712,,,A*73
$GPRMC,215513.000,A,3748.4781,N,12217.8088,W,0.90,227.72,190712,,,A*77
$GPRMC,215514.000,A,3748.4778,N,12217.8092,W,0.93,216.36,190712,,,A*7C
$GPRMC,215515.000,A,3748.4770,N,12217.8098,W,1.51,213.84,190712,,,A*7C
$GPRMC,215516.000,A,3748.4760,N,12217.8104,W,1.79,199.55,190712,,,A*7D
$GPRMC,215517.000,A,3748.4749,N,12217.8111,W,1.72,201.54,190712,,,A*7B
$GPRMC,215518.000,A,3748.4740,N,12217.8115,W,1.59,190.58,190712,,,A*77
$GPRMC,215519.000,A,3748.4734,N,12217.8117,W,1.68,202.60,190712,,,A*76
$GPRMC,215520.000,A,3748.4732,N,12217.8122,W,1.31,228.23,190712,,,A*7F
$GPRMC,215521.000,A,3748.4729,N,12217.8127,W,1.54,224.74,190712,,,A*7C
$GPRMC,215522.000,A,3748.4727,N,12217.8133,W,2.21,218.65,190712,,,A*7A
$GPRMC,215523.000,A,3748.4721,N,12217.8136,W,2.03,206.49,190712,,,A*79
$GPRMC,215524.000,A,3748.4714,N,12217.8138,W,2.10,193.76,190712,,,A*77
$GPRMC,215525.000,A,3748.4707,N,12217.8140,W,2.22,171.77,190712,,,A*77
$GPRMC,215526.000,A,3748.4700,N,12217.8139,W,2.09,155.16,190712,,,A*75
$GPRMC,215527.000,A,3748.4694,N,12217.8136,W,2.28,162.60,190712,,,A*71
$GPRMC,215528.000,A,3748.4689,N,12217.8133,W,1.63,156.49,190712,,,A*77
$GPRMC,215529.000,A,3748.4684,N,12217.8130,W,1.79,161.12,190712,,,A*79
$GPRMC,215530.000,A,3748.4680,N,12217.8127,W,1.72,163.84,190712,,,A*75
$GPRMC,215531.000,A,3748.4675,N,12217.8126,W,1.90,176.58,190712,,,A*76
$GPRMC,215532.000,A,3748.4668,N,12217.8122,W,2.44,167.44,190712,,,A*7A
$GPRMC,215533.000,A,3748.4660,N,12217.8120,W,2.44,170.78,190712,,,A*78
$GPRMC,215534.000,A,3748.4653,N,12217.8118,W,2.77,168.77,190712,,,A*72
$GPRMC,215535.000,A,3748.4647,N,12217.8116,W,2.08,162.91,190712,,,A*72
$GPRMC,215536.000,A,3748.4642,N,12217.8114,W,2.10,159.43,190712,,,A*78
$GPRMC,215537.000,A,3748.4638,N,12217.8110,W,1.55,154.09,190712,,,A*71
$GPRMC,215538.000,A,3748.4635,N,12217.8111,W,1.74,174.58,190712,,,A*77
$GPRMC,215539.000,A,3748.4628,N,12217.8117,W,2.37,183.65,190712,,,A*7E
$GPRMC,215540.000,A,3748.4621,N,12217.8119,W,2.34,184.49,190712,,,A*7D
$GPRMC,215541.000,A,3748.4615,N,12217.8118,W,2.32,192.30,190712,,,A*75
$GPRMC,215542.000,A,3748.4610,N,12217.8113,W,2.09,179.26,190712,,,A*72
$GPRMC,215543.000,A,3748.4602,N,12217.8108,W,2.76,180.28,190712,,,A*7A
$GPRMC,215544.000,A,3748.4595,N,12217.8109,W,1.60,169.78,190712,,,A*77
$GPRMC,215545.000,A,3748.4589,N,12217.8105,W,1.38,195.77,190712,,,A*76
$GPRMC,215546.000,A,3748.4586,N,12217.8107,W,1.27,200.38,190712,,,A*72
$GPRMC,215547.000,A,3748.4580,N,12217.8107,W,1.58,186.62,190712,,,A*7F
$GPRMC,215548.000,A,3748.4570,N,12217.8115,W,3.05,211.04,190712,,,A*7B
$GPRMC,215549.000,A,3748.4562,N,12217.8122,W,2.14,208.06,190712,,,A*76
$GPRMC,215550.000,A,3748.4554,N,12217.8130,W,2.03,204.73,190712,,,A*70
$GPRMC,215551.000,A,3748.4548,N,12217.8139,W,1.92,216.79,190712,,,A*77
$GPRMC,215552.000,A,3748.4540,N,12217.8148,W,2.60,217.63,190712,,,A*7E
$GPRMC,215553.000,A,3748.4531,N,12217.8156,W,2.59,207.96,190712,,,A*77
$GPRMC,215554.000,A,3748.4526,N,12217.8161,W,2.30,212.13,190712,,,A*74
$GPRMC,215555.000,A,3748.4523,N,12217.8160,W,2.24,216.60,190712,,,A*74
$GPRMC,215556.000,A,3748.4519,N,12217.8163,W,2.00,209.85,190712,,,A*7E
$GPRMC,215557.000,A,3748.4514,N,12217.8171,W,1.88,212.74,190712,,,A*76
$GPRMC,215558.000,A,3748.4508,N,12217.8177,W,2.19,208.15,190712,,,A*75
$GPRMC,215559.000,A,3748.4501,N,12217.8182,W,2.81,202.47,190712,,,A*7B
$GPRMC,215600.000,A,3748.4496,N,12217.8183,W,2.45,208.53,190712,,,A*7D
$GPRMC,215601.000,A,3748.4492,N,12217.8185,W,2.59,223.91,190712,,,A*74
$GPRMC,215602.000,A,3748.4486,N,12217.8192,W,2.47,213.60,190712,,,A*76
$GPRMC,215603.000,A,3748.4481,N,12217.8196,W,2.59,219.07,190712,,,A*70
$GPRMC,215604.000,A,3748.4479,N,12217.8201,W,2.50,219.20,190712,,,A*71
$GPRMC,215605.000,A,3748.4475,N,12217.8203,W,1.98,201.40,190712,,,A*76
$GPRMC,215606.000,A,3748.4471,N,12217.8208,W,2.43,212.57,190712,,,A*7B
$GPRMC,215607.000,A,3748.4463,N,12217.8219,W,4.53,227.45,190712,,,A*7B
$GPRMC,215608.000,A,3748.4459,N,12217.8227,W,2.46,216.87,190712,,,A*7E
$GPRMC,215609.000,A,3748.4453,N,12217.8237,W,3.15,224.25,190712,,,A*7A
$GPRMC,215610.000,A,3748.4446,N,12217.8245,W,2.86,215.70,190712,,,A*7A
$GPRMC,215611.000,A,3748.4440,N,12217.8256,W,2.90,220.18,190712,,,A*70
$GPRMC,215612.000,A,3748.4432,N,12217.8263,W,2.90,225.57,190712,,,A*7E
$GPRMC,215613.000,A,3748.4426,N,12217.8264,W,2.46,211.22,190712,,,A*73
$GPRMC,215614.000,A,3748.4419,N,12217.8265,W,2.63,203.86,190712,,,A*73
$GPRMC,215615.000,A,3748.4411,N,12217.8269,W,2.55,209.94,190712,,,A*7A
$GPRMC,215616.000,A,3748.4405,N,12217.8275,W,2.62,211.77,190712,,,A*71
$GPRMC,215617.000,A,3748.4399,N,12217.8280,W,2.42,204.40,190712,,,A*7A
$GPRMC,215618.000,A,3748.4392,N,12217.8283,W,2.67,213.30,190712,,,A*7B
$GPRMC,215619.000,A,3748.4384,N,12217.8287,W,2.48,204.76,190712,,,A*70
$GPRMC,215620.000,A,3748.4378,N,12217.8286,W,2.59,201.70,190712,,,A*7B
$GPRMC,215621.000,A,3748.4372,N,12217.8287,W,2.38,207.08,190712,,,A*7F
$GPRMC,215622.000,A,3748.4366,N,12217.8288,W,2.26,205.35,190712,,,A*75
$GPRMC,215623.000,A,3748.4362,N,12217.8287,W,2.14,203.27,190712,,,A*7B
$GPRMC,215624.000,A,3748.4358,N,12217.8291,W,2.67,221.30,190712,,,A*70
$GPRMC,215625.000,A,3748.4353,N,12217.8295,W,2.34,220.11,190712,,,A*7A
$GPRMC,215626.000,A,3748.4349,N,12217.8298,W,2.28,214.72,190712,,,A*70
$GPRMC,215627.000,A,3748.4347,N,12217.8305,W,2.26,222.00,190712,,,A*74
$GPRMC,215628.000,A,3748.4345,N,12217.8310,W,2.11,217.69,190712,,,A*70
$GPRMC,215629.000,A,3748.4342,N,12217.8312,W,2.34,218.97,190712,,,A*7D
$GPRMC,215630.000,A,3748.4338,N,12217.8316,W,2.58,221.86,190712,,,A*7C
$GPRMC,215631.000,A,3748.4333,N,12217.8322,W,2.06,197.84,190712,,,A*76
$GPRMC,215632.000,A,3748.4328,N,12217.8324,W,2.07,207.55,190712,,,A*7E
$GPRMC,215633.000,A,3748.4324,N,12217.8324,W,2.26,214.11,190712,,,A*72
$GPRMC,215634.000,A,3748.4319,N,12217.8325,W,2.33,196.87,190712,,,A*78
$GPRMC,215635.000,A,3748.4315,N,12217.8329,W,1.71,208.00,190712,,,A*77
$GPRMC,215636.000,A,3748.4310,N,12217.8332,W,1.90,211.55,190712,,,A*7C
$GPRMC,215637.000,A,3748.4303,N,12217.8339,W,1.98,219.13,190712,,,A*76
$GPRMC,215638.000,A,3748.4298,N,12217.8345,W,2.11,222.83,190712,,,A*72
$GPRMC,215639.000,A,3748.4292,N,12217.8351,W,2.26,211.93,190712,,,A*79
$GPRMC,215640.000,A,3748.4286,N,12217.8353,W,2.21,203.75,190712,,,A*7C
$GPRMC,215641.000,A,3748.4279,N,12217.8360,W,2.33,208.69,190712,,,A*78
$GPRMC,215642.000,A,3748.4271,N,12217.8366,W,2.48,208.99,190712,,,A*76
$GPRMC,215643.000,A,3748.4266,N,12217.8370,W,2.19,199.40,190712,,,A*7D
$GPRMC,215644.000,A,3748.4263,N,12217.8369,W,1.70,177.90,190712,,,A*76
$GPRMC,215645.000,A,3748.4260,N,12217.8372,W,2.24,202.74,190712,,,A*77
$GPRMC,215646.000,A,3748.4253,N,12217.8374,W,2.26,190.84,190712,,,A*77
$GPRMC,215647.000,A,3748.4246,N,12217.8376,W,1.98,214.47,190712,,,A*76
$GPRMC,215648.000,A,3748.4240,N,12217.8381,W,2.10,219.49,190712,,,A*77
$GPRMC,215649.000,A,3748.4233,N,12217.8385,W,2.35,206.23,190712,,,A*73
$GPRMC,215650.000,A,3748.4229,N,12217.8386,W,2.15,225.99,190712,,,A*71
$GPRMC,215651.000,A,3748.4225,N,12217.8390,W,1.99,214.21,190712,,,A*7D
$GPRMC,215652.000,A,3748.4218,N,12217.8394,W,2.23,209.36,190712,,,A*7C
$GPRMC,215653.000,A,3748.4211,N,12217.8396,W,2.08,200.88,190712,,,A*73
$GPRMC,215654.000,A,3748.4206,N,12217.8400,W,2.31,209.17,190712,,,A*7F
$GPRMC,215655.000,A,3748.4201,N,12217.8403,W,1.48,218.04,190712,,,A*75
$GPRMC,215656.000,A,3748.4197,N,12217.8406,W,2.04,205.31,190712,,,A*7E
$GPRMC,215657.000,A,3748.4194,N,12217.8408,W,1.43,215.67,190712,,,A*70
$GPRMC,215658.000,A,3748.4189,N,12217.8413,W,2.20,198.49,190712,,,A*75
$GPRMC,215659.000,A,3748.4183,N,12217.8418,W,2.28,200.90,190712,,,A*7B
$GPRMC,215700.000,A,3748.4177,N,12217.8424,W,2.12,202.75,190712,,,A*72
$GPRMC,215701.000,A,3748.4171,N,12217.8428,W,2.07,200.03,190712,,,A*7E
$GPRMC,215702.000,A,3748.4161,N,12217.8437,W,2.54,205.96,190712,,,A*7D
$GPRMC,215703.000,A,3748.4154,N,12217.8446,W,2.23,199.95,190712,,,A*79
$GPRMC,215704.000,A,3748.4148,N,12217.8457,W,2.04,202.62,190712,,,A*7F
$GPRMC,215705.000,A,3748.4142,N,12217.8462,W,1.47,183.82,190712,,,A*72
$GPRMC,215706.000,A,3748.4138,N,12217.8467,W,1.99,191.34,190712,,,A*74
$GPRMC,215707.000,A,3748.4134,N,12217.8468,W,1.39,214.21,190712,,,A*76
$GPRMC,215708.000,A,3748.4131,N,12217.8468,W,1.57,216.01,190712,,,A*74
$GPRMC,215709.000,A,3748.4126,N,12217.8470,W,2.18,213.87,190712,,,A*79
$GPRMC,215710.000,A,3748.4121,N,12217.8471,W,2.05,212.34,190712,,,A*72
$GPRMC,215711.000,A,3748.4115,N,12217.8475,W,2.11,201.02,190712,,,A*72
$GPRMC,215712.000,A,3748.4109,N,12217.8481,W,2.03,211.32,190712,,,A*76
$GPRMC,215713.000,A,3748.4107,N,12217.8485,W,2.12,199.35,190712,,,A*79
$GPRMC,215714.000,A,3748.4105,N,12217.8489,W,1.95,213.89,190712,,,A*7A
$GPRMC,215715.000,A,3748.4098,N,12217.8499,W,1.87,213.49,190712,,,A*70
$GPRMC,215716.000,A,3748.4092,N,12217.8504,W,2.26,208.26,190712,,,A*77
$GPRMC,215717.000,A,3748.4085,N,12217.8511,W,2.49,205.41,190712,,,A*71
$GPRMC,215718.000,A,3748.4079,N,12217.8515,W,2.16,213.31,190712,,,A*73
$GPRMC,215719.000,A,3748.4074,N,12217.8520,W,1.91,197.26,190712,,,A*7C
$GPRMC,215720.000,A,3748.4069,N,12217.8523,W,1.78,191.89,190712,,,A*7D
$GPRMC,215721.000,A,3748.4063,N,12217.8529,W,1.86,207.04,190712,,,A*74
$GPRMC,215722.000,A,3748.4059,N,12217.8534,W,2.46,212.70,190712,,,A*7A
$GPRMC,215723.000,A,3748.4054,N,12217.8536,W,1.95,195.52,190712,,,A*75
$GPRMC,215724.000,A,3748.4050,N,12217.8536,W,1.88,199.26,190712,,,A*75
$GPRMC,215725.000,A,3748.4047,N,12217.8536,W,1.53,190.99,190712,,,A*79
$GPRMC,215726.000,A,3748.4043,N,12217.8536,W,1.88,202.75,190712,,,A*72
$GPRMC,215727.000,A,3748.4039,N,12217.8543,W,1.75,197.92,190712,,,A*78
$GPRMC,215728.000,A,3748.4033,N,12217.8549,W,1.50,207.62,190712,,,A*75
$GPRMC,215729.000,A,3748.4031,N,12217.8557,W,1.90,228.80,190712,,,A*74
$GPRMC,215730.000,A,3748.4026,N,12217.8561,W,1.99,204.02,190712,,,A*72
$GPRMC,215731.000,A,3748.4021,N,12217.8567,W,1.59,190.32,190712,,,A*73
$GPRMC,215732.000,A,3748.4015,N,12217.8571,W,1.85,204.16,190712,,,A*79
$GPRMC,215733.000,A,3748.4011,N,12217.8576,W,1.91,212.58,190712,,,A*73
$GPRMC,215734.000,A,3748.4005,N,12217.8584,W,1.57,232.97,190712,,,A*77
$GPRMC,215735.000,A,3748.3999,N,12217.8590,W,1.64,200.96,190712,,,A*78
$GPRMC,215736.000,A,3748.3994,N,12217.8595,W,1.75,202.78,190712,,,A*71
$GPRMC,215737.000,A,3748.3989,N,12217.8600,W,1.12,200.72,190712,,,A*7A
$GPRMC,215738.000,A,3748.3987,N,12217.8608,W,1.75,197.23,190712,,,A*7B
$GPRMC,215739.000,A,3748.3981,N,12217.8615,W,1.66,192.92,190712,,,A*7D
$GPRMC,215740.000,A,3748.3976,N,12217.8616,W,1.57,200.60,190712,,,A*7F
$GPRMC,215741.000,A,3748.3972,N,12217.8615,W,2.01,217.50,190712,,,A*7C
$GPRMC,215742.000,A,3748.3970,N,12217.8625,W,1.86,214.83,190712,,,A*7F
$GPRMC,215743.000,A,3748.3964,N,12217.8626,W,1.90,209.25,190712,,,A*7F
$GPRMC,215744.000,A,3748.3961,N,12217.8632,W,1.57,206.77,190712,,,A*7B
$GPRMC,215745.000,A,3748.3959,N,12217.8640,W,2.01,217.70,190712,,,A*73
$GPRMC,215746.000,A,3748.3955,N,12217.8648,W,1.94,213.41,190712,,,A*7D
$GPRMC,215747.000,A,3748.3953,N,12217.8643,W,0.57,181.84,190712,,,A*7E
$GPRMC,215748.000,A,3748.3952,N,12217.8635,W,0.64,133.33,190712,,,A*74
$GPRMC,215749.000,A,3748.3951,N,12217.8629,W,0.53,111.40,190712,,,A*7B
$GPRMC,215750.000,A,3748.3951,N,12217.8626,W,0.28,164.18,190712,,,A*7F
$GPRMC,215751.000,A,3748.3950,N,12217.8626,W,0.25,236.71,190712,,,A*79
$GPRMC,215752.000,A,3748.3946,N,12217.8625,W,0.34,166.89,190712,,,A*7F
$GPRMC,215753.000,A,3748.3943,N,12217.8622,W,0.39,157.53,190712,,,A*74
$GPRMC,215754.000,A,3748.3941,N,12217.8620,W,0.28,187.38,190712,,,A*73
$GPRMC,215755.000,A,3748.3943,N,12217.8618,W,0.88,194.55,190712,,,A*78
$GPRMC,215756.000,A,3748.3943,N,12217.8622,W,0.72,229.13,190712,,,A*70
$GPRMC,215757.000,A,3748.3942,N,12217.8618,W,0.34,2.78,190712,,,A*7D
$GPRMC,215758.000,A,3748.3942,N,12217.8616,W,0.23,157.77,190712,,,A*74
$GPRMC,215759.000,A,3748.3944,N,12217.8613,W,0.64,51.88,190712,,,A*42
$GPRMC,215800.000,A,3748.3943,N,12217.8611,W,0.70,73.97,190712,,,A*4F
$GPRMC,215801.000,A,3748.3943,N,12217.8609,W,0.72,63.77,190712,,,A*4A
$GPRMC,215802.000,A,3748.3941,N,12217.8608,W,0.07,21.23,190712,,,A*4F
$GPRMC,215803.000,A,3748.3937,N,12217.8609,W,0.15,168.56,190712,,,A*73
$GPRMC,215804.000,A,3748.3937,N,12217.8607,W,0.76,242.88,190712,,,A*77
$GPRMC,215805.000,A,3748.3933,N,12217.8611,W,1.66,227.33,190712,,,A*76
$GPRMC,215806.000,A,3748.3929,N,12217.8623,W,2.14,218.61,190712,,,A*72
$GPRMC,215807.000,A,3748.3928,N,12217.8631,W,1.70,219.50,190712,,,A*73
$GPRMC,215808.000,A,3748.3925,N,12217.8643,W,1.69,215.22,190712,,,A*75
$GPRMC,215809.000,A,3748.3920,N,12217.8652,W,1.86,215.14,190712,,,A*75
$GPRMC,215810.000,A,3748.3916,N,12217.8654,W,1.81,212.71,190712,,,A*7D
$GPRMC,215811.000,A,3748.3914,N,12217.8665,W,1.46,216.51,190712,,,A*71
$GPRMC,215812.000,A,3748.3908,N,12217.8670,W,2.54,209.67,190712,,,A*70
$GPRMC,215813.000,A,3748.3905,N,12217.8677,W,1.53,216.77,190712,,,A*70
$GPRMC,215814.000,A,3748.3897,N,12217.8687,W,1.85,221.56,190712,,,A*7E
$GPRMC,215815.000,A,3748.3893,N,12217.8690,W,1.82,209.40,190712,,,A*77
$GPRMC,215816.000,A,3748.3886,N,12217.8696,W,2.08,214.80,190712,,,A*77
$GPRMC,215817.000,A,3748.3881,N,12217.8709,W,2.14,219.55,190712,,,A*7E
$GPRMC,215818.000,A,3748.3876,N,12217.8723,W,2.03,217.89,190712,,,A*78
$GPRMC,215819.000,A,3748.3871,N,12217.8737,W,2.06,219.44,190712,,,A*71
$GPRMC,215820.000,A,3748.3869,N,12217.8735,W,1.35,202.97,190712,,,A*77
$GPRMC,215821.000,A,3748.3863,N,12217.8746,W,1.45,215.84,190712,,,A*7B
$GPRMC,215822.000,A,3748.3857,N,12217.8757,W,1.81,222.81,190712,,,A*76
$GPRMC,215823.000,A,3748.3852,N,12217.8769,W,2.32,212.12,190712,,,A*7D
$GPRMC,215824.000,A,3748.3845,N,12217.8781,W,2.54,213.69,190712,,,A*77
$GPRMC,215825.000,A,3748.3839,N,12217.8791,W,2.38,208.99,190712,,,A*73
$GPRMC,215826.000,A,3748.3832,N,12217.8800,W,2.31,211.58,190712,,,A*70
$GPRMC,215827.000,A,3748.3825,N,12217.8809,W,1.97,217.71,190712,,,A*7C
$GPRMC,215828.000,A,3748.3820,N,12217.8817,W,1.73,215.16,190712,,,A*70
$GPRMC,215829.000,A,3748.3814,N,12217.8827,W,1.80,208.98,190712,,,A*73
$GPRMC,215830.000,A,3748.3809,N,12217.8833,W,2.12,212.33,190712,,,A*70
$GPRMC,215831.000,A,3748.3805,N,12217.8839,W,2.11,209.25,190712,,,A*79
$GPRMC,215832.000,A,3748.3797,N,12217.8843,W,2.52,214.86,190712,,,A*71
$GPRMC,215833.000,A,3748.3791,N,12217.8852,W,2.44,215.06,190712,,,A*78
$GPRMC,215834.000,A,3748.3782,N,12217.8860,W,2.27,220.05,190712,,,A*7C
$GPRMC,215835.000,A,3748.3775,N,12217.8859,W,1.88,211.26,190712,,,A*7A
$GPRMC,215836.000,A,3748.3765,N,12217.8854,W,1.98,210.56,190712,,,A*72
$GPRMC,215837.000,A,3748.3761,N,12217.8848,W,1.69,206.01,190712,,,A*71
$GPRMC,215838.000,A,3748.3756,N,12217.8842,W,1.69,207.84,190712,,,A*7C
$GPRMC,215839.000,A,3748.3751,N,12217.8840,W,2.13,207.78,190712,,,A*75
$GPRMC,215840.000,A,3748.3745,N,12217.8839,W,2.31,211.48,190712,,,A*74
$GPRMC,215841.000,A,3748.3739,N,12217.8839,W,2.36,211.53,190712,,,A*73
$GPRMC,215842.000,A,3748.3737,N,12217.8836,W,1.77,217.22,190712,,,A*77
$GPRMC,215843.000,A,3748.3734,N,12217.8834,W,2.16,206.24,190712,,,A*75
$GPRMC,215844.000,A,3748.3730,N,12217.8835,W,1.37,217.82,190712,,,A*7B
$GPRMC,215845.000,A,3748.3726,N,12217.8833,W,1.71,220.91,190712,,,A*7F
$GPRMC,215846.000,A,3748.3719,N,12217.8832,W,2.11,216.09,190712,,,A*70
$GPRMC,215847.000,A,3748.3716,N,12217.8831,W,1.54,211.50,190712,,,A*74
$GPRMC,215848.000,A,3748.3712,N,12217.8832,W,1.68,221.52,190712,,,A*72
$GPRMC,215849.000,A,3748.3706,N,12217.8833,W,1.36,206.23,190712,,,A*7F
$GPRMC,215850.000,A,3748.3698,N,12217.8833,W,1.81,190.69,190712,,,A*7F
$GPRMC,215851.000,A,3748.3693,N,12217.8829,W,1.68,193.45,190712,,,A*74
$GPRMC,215852.000,A,3748.3691,N,12217.8827,W,1.90,191.19,190712,,,A*77
$GPRMC,215853.000,A,3748.3689,N,12217.8824,W,2.25,201.20,190712,,,A*71
$GPRMC,215854.000,A,3748.3683,N,12217.8822,W,2.20,173.14,190712,,,A*7E
$GPRMC,215855.000,A,3748.3677,N,12217.8816,W,2.07,141.04,190712,,,A*76
$GPRMC,215856.000,A,3748.3677,N,12217.8802,W,1.89,104.22,190712,,,A*70
$GPRMC,215857.000,A,3748.3678,N,12217.8793,W,1.66,89.61,190712,,,A*4B
$GPRMC,215858.000,A,3748.3677,N,12217.8786,W,0.99,104.82,190712,,,A*77
$GPRMC,215859.000,A,3748.3676,N,12217.8778,W,1.78,85.37,190712,,,A*4E
$GPRMC,215900.000,A,3748.3676,N,12217.8768,W,1.64,93.41,190712,,,A*49
$GPRMC,215901.000,A,3748.3676,N,12217.8759,W,1.13,107.95,190712,,,A*7F
$GPRMC,215902.000,A,3748.3677,N,12217.8753,W,0.46,106.92,190712,,,A*70
$GPRMC,215903.000,A,3748.3678,N,12217.8749,W,0.87,72.86,190712,,,A*4F
$GPRMC,215904.000,A,3748.3675,N,12217.8743,W,1.83,103.60,190712,,,A*75
$GPRMC,215905.000,A,3748.3676,N,12217.8733,W,1.95,104.24,190712,,,A*70
$GPRMC,215906.000,A,3748.3674,N,12217.8726,W,2.23,111.37,190712,,,A*7D
$GPRMC,215907.000,A,3748.3672,N,12217.8718,W,2.33,109.49,190712,,,A*76
$GPRMC,215908.000,A,3748.3669,N,12217.8710,W,2.30,95.47,190712,,,A*42
$GPRMC,215909.000,A,3748.3669,N,12217.8703,W,2.11,69.54,190712,,,A*43
$GPRMC,215910.000,A,3748.3670,N,12217.8695,W,1.93,86.29,190712,,,A*4F
$GPRMC,215911.000,A,3748.3672,N,12217.8686,W,2.20,93.89,190712,,,A*4B
$GPRMC,215912.000,A,3748.3673,N,12217.8678,W,2.42,96.66,190712,,,A*48
$GPRMC,215913.000,A,3748.3674,N,12217.8669,W,2.20,81.39,190712,,,A*46
$GPRMC,215914.000,A,3748.3675,N,12217.8660,W,2.22,91.39,190712,,,A*4A
$GPRMC,215915.000,A,3748.3673,N,12217.8651,W,1.96,96.12,190712,,,A*4D
$GPRMC,215916.000,A,3748.3672,N,12217.8644,W,1.80,73.78,190712,,,A*4B
$GPRMC,215917.000,A,3748.3669,N,12217.8637,W,2.01,97.31,190712,,,A*49
$GPRMC,215918.000,A,3748.3669,N,12217.8631,W,1.66,87.88,190712,,,A*41
$GPRMC,215919.000,A,3748.3667,N,12217.8625,W,1.47,103.97,190712,,,A*7B
$GPRMC,215920.000,A,3748.3663,N,12217.8618,W,2.02,112.39,190712,,,A*7D
$GPRMC,215921.000,A,3748.3654,N,12217.8609,W,1.69,111.57,190712,,,A*7D
$GPRMC,215922.000,A,3748.3648,N,12217.8601,W,1.73,105.68,190712,,,A*79
$GPRMC,215923.000,A,3748.3646,N,12217.8595,W,1.55,125.99,190712,,,A*70
$GPRMC,215924.000,A,3748.3642,N,12217.8589,W,2.04,116.40,190712,,,A*7D
$GPRMC,215925.000,A,3748.3637,N,12217.8581,W,1.98,99.44,190712,,,A*42
$GPRMC,215926.000,A,3748.3632,N,12217.8576,W,2.17,127.34,190712,,,A*7B
$GPRMC,215927.000,A,3748.3626,N,12217.8569,W,2.18,122.06,190712,,,A*7A
$GPRMC,215928.000,A,3748.3621,N,12217.8562,W,2.34,113.90,190712,,,A*7A
$GPRMC,215929.000,A,3748.3615,N,12217.8555,W,2.44,119.58,190712,,,A*71
$GPRMC,215930.000,A,3748.3611,N,12217.8545,W,2.74,110.35,190712,,,A*7D
$GPRMC,215931.000,A,3748.3607,N,12217.8538,W,2.19,107.69,190712,,,A*75
$GPRMC,215932.000,A,3748.3603,N,12217.8531,W,1.82,87.53,190712,,,A*4A
$GPRMC,215933.000,A,3748.3601,N,12217.8525,W,2.23,96.82,190712,,,A*48
$GPRMC,215934.000,A,3748.3603,N,12217.8514,W,1.92,97.87,190712,,,A*42
$GPRMC,215935.000,A,3748.3599,N,12217.8507,W,2.19,98.62,190712,,,A*45
$GPRMC,215936.000,A,3748.3592,N,12217.8501,W,1.92,101.64,190712,,,A*7C
$GPRMC,215937.000,A,3748.3587,N,12217.8495,W,1.85,125.26,190712,,,A*73
$GPRMC,215938.000,A,3748.3579,N,12217.8491,W,2.67,152.66,190712,,,A*72
$GPRMC,215939.000,A,3748.3569,N,12217.8485,W,3.03,153.27,190712,,,A*70
$GPRMC,215940.000,A,3748.3559,N,12217.8479,W,2.46,157.33,190712,,,A*7F
$GPRMC,215941.000,A,3748.3555,N,12217.8472,W,2.53,153.66,190712,,,A*79
$GPRMC,215942.000,A,3748.3550,N,12217.8467,W,2.66,151.88,190712,,,A*7F
$GPRMC,215943.000,A,3748.3552,N,12217.8460,W,2.19,151.96,190712,,,A*7C
$GPRMC,215944.000,A,3748.3549,N,12217.8459,W,1.77,154.11,190712,,,A*7A
$GPRMC,215945.000,A,3748.3546,N,12217.8458,W,1.98,159.61,190712,,,A*7E
$GPRMC,215946.000,A,3748.3543,N,12217.8453,W,2.28,139.81,190712,,,A*73
$GPRMC,215947.000,A,3748.3539,N,12217.8447,W,2.04,160.69,190712,,,A*7E
$GPRMC,215948.000,A,3748.3538,N,12217.8440,W,2.09,150.44,190712,,,A*76
$GPRMC,215949.000,A,3748.3533,N,12217.8435,W,1.91,152.24,190712,,,A*78
$GPRMC,215950.000,A,3748.3527,N,12217.8429,W,2.18,158.37,190712,,,A*72
$GPRMC,215951.000,A,3748.3522,N,12217.8427,W,2.50,171.76,190712,,,A*7A
$GPRMC,215952.000,A,3748.3518,N,12217.8425,W,2.48,157.02,190712,,,A*7C
$GPRMC,215953.000,A,3748.3517,N,12217.8421,W,1.74,139.34,190712,,,A*77
$GPRMC,215954.000,A,3748.3517,N,12217.8415,W,2.10,123.97,190712,,,A*74
$GPRMC,215955.000,A,3748.3521,N,12217.8405,W,1.71,120.26,190712,,,A*7C
$GPRMC,215956.000,A,3748.3514,N,12217.8401,W,2.24,130.40,190712,,,A*7F
$GPRMC,215957.000,A,3748.3508,N,12217.8396,W,2.24,117.87,190712,,,A*74
$GPRMC,215958.000,A,3748.3501,N,12217.8390,W,2.71,136.18,190712,,,A*71
$GPRMC,215959.000,A,3748.3493,N,12217.8385,W,2.10,145.04,190712,,,A*70
$GPRMC,220000.000,A,3748.3482,N,12217.8384,W,2.07,160.92,190712,,,A*7C
$GPRMC,220001.000,A,3748.3473,N,12217.8381,W,2.19,159.13,190712,,,A*7A
$GPRMC,220002.000,A,3748.3465,N,12217.8375,W,2.23,148.66,190712,,,A*7E
$GPRMC,220003.000,A,3748.3458,N,12217.8371,W,1.81,149.37,190712,,,A*7B
$GPRMC,220004.000,A,3748.3453,N,12217.8368,W,1.97,133.08,190712,,,A*79
$GPRMC,220005.000,A,3748.3449,N,12217.8362,W,1.80,125.35,190712,,,A*76
$GPRMC,220006.000,A,3748.3444,N,12217.8355,W,1.48,114.81,190712,,,A*75
$GPRMC,220007.000,A,3748.3439,N,12217.8349,W,2.11,125.83,190712,,,A*7C
$GPRMC,220008.000,A,3748.3436,N,12217.8344,W,1.45,101.69,190712,,,A*71
$GPRMC,220009.000,A,3748.3433,N,12217.8340,W,1.57,140.11,190712,,,A*78
$GPRMC,220010.000,A,3748.3428,N,12217.8332,W,2.16,127.09,190712,,,A*71
$GPRMC,220011.000,A,3748.3424,N,12217.8322,W,2.66,123.20,190712,,,A*75
$GPRMC,220012.000,A,3748.3418,N,12217.8310,W,2.11,118.95,190712,,,A*7E
$GPRMC,220013.000,A,3748.3415,N,12217.8306,W,2.08,120.65,190712,,,A*79
$GPRMC,220014.000,A,3748.3415,N,12217.8304,W,1.74,110.68,190712,,,A*7A
$GPRMC,220015.000,A,3748.3415,N,12217.8302,W,1.78,102.25,190712,,,A*7B
$GPRMC,220016.000,A,3748.3414,N,12217.8293,W,2.20,109.11,190712,,,A*72
$GPRMC,220017.000,A,3748.3412,N,12217.8283,W,2.10,107.70,190712,,,A*7E
$GPRMC,220018.000,A,3748.3410,N,12217.8276,W,1.76,93.01,190712,,,A*40
$GPRMC,220019.000,A,3748.3410,N,12217.8266,W,1.65,97.06,190712,,,A*41
$GPRMC,220020.000,A,3748.3410,N,12217.8258,W,1.72,87.29,190712,,,A*4C
$GPRMC,220021.000,A,3748.3411,N,12217.8257,W,0.60,54.55,190712,,,A*44
$GPRMC,220022.000,A,3748.3412,N,12217.8254,W,0.70,64.28,190712,,,A*4F
$GPRMC,220023.000,A,3748.3412,N,12217.8246,W,1.78,65.96,190712,,,A*40
$GPRMC,220024.000,A,3748.3410,N,12217.8236,W,1.58,97.82,190712,,,A*48
$GPRMC,220025.000,A,3748.3411,N,12217.8225,W,1.98,102.88,190712,,,A*71
$GPRMC,220026.000,A,3748.3412,N,12217.8217,W,1.68,92.68,190712,,,A*49
$GPRMC,220027.000,A,3748.3407,N,12217.8206,W,1.72,113.50,190712,,,A*74
$GPRMC,220028.000,A,3748.3404,N,12217.8194,W,1.28,121.67,190712,,,A*7A
$GPRMC,220029.000,A,3748.3405,N,12217.8190,W,1.33,125.06,190712,,,A*77
$GPRMC,220030.000,A,3748.3402,N,12217.8186,W,1.30,105.09,190712,,,A*71
$GPRMC,220031.000,A,3748.3401,N,12217.8180,W,1.27,99.06,190712,,,A*48
$GPRMC,220032.000,A,3748.3400,N,12217.8175,W,1.14,94.46,190712,,,A*49
$GPRMC,220033.000,A,3748.3395,N,12217.8169,W,1.10,117.42,190712,,,A*74
$GPRMC,220034.000,A,3748.3393,N,12217.8160,W,0.97,103.61,190712,,,A*76
$GPRMC,220035.000,A,3748.3395,N,12217.8148,W,1.81,103.58,190712,,,A*77
$GPRMC,220036.000,A,3748.3393,N,12217.8134,W,2.13,95.17,190712,,,A*44
$GPRMC,220037.000,A,3748.3388,N,12217.8130,W,1.78,115.14,190712,,,A*7F
$GPRMC,220038.000,A,3748.3387,N,12217.8122,W,2.01,111.02,190712,,,A*72
$GPRMC,220039.000,A,3748.3381,N,12217.8114,W,2.25,113.50,190712,,,A*73
$GPRMC,220040.000,A,3748.3377,N,12217.8110,W,1.83,145.55,190712,,,A*79
$GPRMC,220041.000,A,3748.3371,N,12217.8107,W,2.03,139.64,190712,,,A*7A
$GPRMC,220042.000,A,3748.3369,N,12217.8105,W,1.71,145.69,190712,,,A*72
$GPRMC,220043.000,A,3748.3373,N,12217.8098,W,2.10,93.52,190712,,,A*4B
$GPRMC,220044.000,A,3748.3375,N,12217.8092,W,2.09,107.78,190712,,,A*7C
$GPRMC,220045.000,A,3748.3376,N,12217.8083,W,1.65,108.11,190712,,,A*77
$GPRMC,220046.000,A,3748.3379,N,12217.8074,W,1.55,77.40,190712,,,A*4D
$GPRMC,220047.000,A,3748.3377,N,12217.8069,W,1.45,102.45,190712,,,A*79
$GPRMC,220048.000,A,3748.3380,N,12217.8059,W,2.32,99.91,190712,,,A*44
$GPRMC,220049.000,A,3748.3383,N,12217.8046,W,1.94,98.41,190712,,,A*4B
$GPRMC,220050.000,A,3748.3383,N,12217.8035,W,1.91,100.06,190712,,,A*71
$GPRMC,220051.000,A,3748.3389,N,12217.8025,W,2.24,81.42,190712,,,A*4E
$GPRMC,220052.000,A,3748.3392,N,12217.8015,W,2.04,81.44,190712,,,A*40
$GPRMC,220053.000,A,3748.3390,N,12217.8006,W,1.51,114.28,190712,,,A*75
$GPRMC,220054.000,A,3748.3384,N,12217.8000,W,1.55,144.29,190712,,,A*71
$GPRMC,220055.000,A,3748.3375,N,12217.7989,W,2.04,111.65,190712,,,A*76
$GPRMC,220056.000,A,3748.3371,N,12217.7980,W,1.83,102.36,190712,,,A*70
$GPRMC,220057.000,A,3748.3368,N,12217.7969,W,2.16,100.17,190712,,,A*70
$GPRMC,220058.000,A,3748.3364,N,12217.7958,W,2.22,102.60,190712,,,A*74
$GPRMC,220059.000,A,3748.3363,N,12217.7950,W,1.79,115.24,190712,,,A*71
$GPRMC,220100.000,A,3748.3365,N,12217.7940,W,1.84,108.94,190712,,,A*7E
$GPRMC,220101.000,A,3748.3368,N,12217.7931,W,2.22,85.14,190712,,,A*47
$GPRMC,220102.000,A,3748.3374,N,12217.7915,W,1.85,57.74,190712,,,A*48
$GPRMC,220103.000,A,3748.3380,N,12217.7904,W,1.64,69.52,190712,,,A*44
$GPRMC,220104.000,A,3748.3379,N,12217.7894,W,1.20,112.07,190712,,,A*70
$GPRMC,220105.000,A,3748.3374,N,12217.7888,W,2.10,94.13,190712,,,A*4B
$GPRMC,220106.000,A,3748.3372,N,12217.7879,W,2.42,83.31,190712,,,A*41
$GPRMC,220107.000,A,3748.3370,N,12217.7870,W,2.34,89.05,190712,,,A*47
$GPRMC,220108.000,A,3748.3363,N,12217.7866,W,2.00,101.27,190712,,,A*7B
$GPRMC,220109.000,A,3748.3359,N,12217.7861,W,1.83,105.87,190712,,,A*72
$GPRMC,220110.000,A,3748.3359,N,12217.7852,W,1.53,93.10,190712,,,A*47
$GPRMC,220111.000,A,3748.3359,N,12217.7852,W,1.16,90.82,190712,,,A*4F
$GPRMC,220112.000,A,3748.3357,N,12217.7850,W,1.58,84.84,190712,,,A*49
$GPRMC,220113.000,A,3748.3353,N,12217.7842,W,1.93,125.86,190712,,,A*70
$GPRMC,220114.000,A,3748.3346,N,12217.7833,W,1.65,111.19,190712,,,A*7D
$GPRMC,220115.000,A,3748.3344,N,12217.7826,W,1.94,77.19,190712,,,A*45
$GPRMC,220116.000,A,3748.3337,N,12217.7818,W,1.85,110.92,190712,,,A*7C
$GPRMC,220117.000,A,3748.3337,N,12217.7805,W,1.58,103.16,190712,,,A*7F
$GPRMC,220118.000,A,3748.3337,N,12217.7794,W,1.85,116.44,190712,,,A*74
$GPRMC,220119.000,A,3748.3335,N,12217.7786,W,1.76,116.20,190712,,,A*7A
$GPRMC,220120.000,A,3748.3327,N,12217.7774,W,1.57,115.96,190712,,,A*73
$GPRMC,220121.000,A,3748.3321,N,12217.7767,W,1.76,126.82,190712,,,A*70
$GPRMC,220122.000,A,3748.3317,N,12217.7758,W,1.93,103.34,190712,,,A*7B
$GPRMC,220123.000,A,3748.3316,N,12217.7751,W,2.06,121.20,190712,,,A*78
$GPRMC,220124.000,A,3748.3311,N,12217.7746,W,1.47,120.07,190712,,,A*7C
$GPRMC,220125.000,A,3748.3307,N,12217.7738,W,1.83,121.18,190712,,,A*74
