$ADVER,3080,2.3
$GPRMC,214758.885,A,3748.5585,N,12217.8528,W,0.76,64.71,190712,,,A*48
$GPGGA,214759.885,3748.5591,N,12217.8532,W,1,03,3.5,25.1,M,-25.1,M,,0000*54
$GPGSA,A,2,17,04,08,,,,,,,,,,3.7,3.5,1.0*3A
$GPRMC,214759.885,A,3748.5591,N,12217.8532,W,0.09,225.14,190712,,,A*7B
$GPVTG,225.14,T,,M,0.09,N,0.2,K,N*09
$GPGGA,214800.885,3748.5672,N,12217.8387,W,1,03,3.5,25.1,M,-25.1,M,,0000*51
$GPGSA,A,2,17,04,08,,,,,,,,,,3.7,3.5,1.0*3A
$GPRMC,214800.885,A,3748.5672,N,12217.8387,W,0.79,50.34,190712,,,A*4B
$GPVTG,50.34,T,,M,0.79,N,1.5,K,N*3A
$GPGGA,214801.885,3748.5677,N,12217.8429,W,1,03,3.5,25.1,M,-25.1,M,,0000*56
$GPGSA,A,2,17,04,08,,,,,,,,,,3.7,3.5,1.0*3A
$GPRMC,214801.885,A,3748.5677,N,12217.8429,W,1.20,59.52,190712,,,A*48
$GPVTG,59.52,T,,M,1.20,N,2.2,K,N*3A
$GPGGA,214802.885,3748.5651,N,12217.8537,W,1,03,3.5,25.1,M,-25.1,M,,0000*5F
$GPGSA,A,2,17,04,08,,,,,,,,,,3.7,3.5,1.0*3A
$GPGSV,3,1,09,17,80,060,39,08,30,130,31,04,19,161,26,28,49,055,*72
$GPGSV,3,2,09,27,40,315,35,26,35,221,37,09,24,315,,01,16,047,*7B
$GPGSV,3,3,09,11,02,038,*49
$GPRMC,214802.885,A,3748.5651,N,12217.8537,W,4.10,226.30,190712,,,A*79
$GPVTG,226.30,T,,M,4.10,N,7.6,K,N*03
$GPGGA,214803.890,3748.5630,N,12217.8532,W,1,03,3.5,25.1,M,-25.1,M,,0000*58
$GPGSA,A,2,17,04,08,,,,,,,,,,3.7,3.5,1.0*3A
$GPRMC,214803.890,A,3748.5630,N,12217.8532,W,1.97,152.75,190712,,,A*75
$GPVTG,152.75,T,,M,1.97,N,3.6,K,N*0C
$GPGGA,214804.890,3748.5604,N,12217.8586,W,1,03,3.5,25.1,M,-25.1,M,,0000*57
$GPGSA,A,2,17,04,08,,,,,,,,,,3.7,3.5,1.0*3A
$GPRMC,214804.890,A,3748.5604,N,12217.8586,W,1.26,51.54,190712,,,A*41
$GPVTG,51.54,T,,M,1.26,N,2.3,K,N*33
$GPGGA,214806.886,3748.5693,N,12217.8343,W,1,03,3.5,25.1,M,-25.1,M,,0000*53
$GPGSA,A,2,17,04,08,,,,,,,,,,3.7,3.5,1.0*3A
$GPRMC,214806.886,A,3748.5693,N,12217.8343,W,4.85,47.23,190712,,,A*4E
$GPVTG,47.23,T,,M,4.85,N,9.0,K,N*30
$GPGGA,214811.886,3748.5585,N,12217.8557,W,1,03,3.5,25.1,M,-25.1,M,,0000*52
$GPGSA,A,2,17,04,08,,,,,,,,,,3.7,3.5,1.0*3A
$GPRMC,214811.886,A,3748.5585,N,12217.8557,W,0.65,64.40,190712,,,A*41
$GPVTG,64.40,T,,M,0.65,N,1.2,K,N*34
$GPGGA,214812.886,3748.5565,N,12217.8558,W,1,03,3.5,25.1,M,-25.1,M,,0000*50
$GPGSA,A,2,17,04,08,,,,,,,,,,3.7,3.5,1.0*3A
$GPGSV,3,1,10,17,80,060,26,08,30,130,27,04,19,161,33,28,49,055,27*72
$GPGSV,3,2,10,27,40,315,35,26,35,221,36,09,24,315,34,01,16,047,*75
$GPGSV,3,3,10,11,02,038,,48,00,000,27*78
$GPRMC,214812.886,A,3748.5565,N,12217.8558,W,0.49,302.37,190712,,,A*7E
$GPVTG,302.37,T,,M,0.49,N,0.9,K,N*03
$GPGGA,214813.886,3748.5539,N,12217.8629,W,1,03,3.5,25.1,M,-25.1,M,,0000*5D
$GPGSA,A,2,17,04,08,,,,,,,,,,3.7,3.5,1.0*3A
$GPRMC,214813.886,A,3748.5539,N,12217.8629,W,0.83,289.28,190712,,,A*79
$GPVTG,289.28,T,,M,0.83,N,1.5,K,N*04
$GPGGA,214814.890,3748.5528,N,12217.8749,W,1,03,3.5,25.1,M,-25.1,M,,0000*5A
$GPGSA,A,2,17,04,08,,,,,,,,,,3.7,3.5,1.0*3A
$GPRMC,214814.890,A,3748.5528,N,12217.8749,W,1.53,61.41,190712,,,A*49
$GPVTG,61.41,T,,M,1.53,N,2.8,K,N*3D
$GPGGA,214815.886,3748.5556,N,12217.8661,W,1,03,3.5,25.1,M,-25.1,M,,0000*5E
$GPGSA,A,2,17,04,08,,,,,,,,,,3.7,3.5,1.0*3A
$GPRMC,214815.886,A,3748.5556,N,12217.8661,W,1.21,56.30,190712,,,A*4A
$GPVTG,56.30,T,,M,1.21,N,2.2,K,N*30
$GPGGA,214816.886,3748.5569,N,12217.8590,W,1,03,3.5,25.1,M,-25.1,M,,0000*5C
$GPGSA,A,2,17,04,08,,,,,,,,,,3.7,3.5,1.0*3A
$GPRMC,214816.886,A,3748.5569,N,12217.8590,W,2.06,61.39,190712,,,A*43
$GPVTG,61.39,T,,M,2.06,N,3.8,K,N*30
$GPGGA,214817.886,3748.5574,N,12217.8558,W,1,03,3.5,25.1,M,-25.1,M,,0000*55
$GPGSA,A,2,17,04,08,,,,,,,,,,3.7,3.5,1.0*3A
$GPGSV,3,1,10,17,80,060,28,08,30,130,29,04,19,161,29,28,49,055,27*79
$GPGSV,3,2,10,27,40,315,35,26,35,221,36,09,24,315,38,01,16,047,*79
$GPGSV,3,3,10,11,02,038,,48,00,000,28*77
$GPRMC,214817.886,A,3748.5574,N,12217.8558,W,0.62,134.46,190712,,,A*73
$GPVTG,134.46,T,,M,0.62,N,1.1,K,N*02
$GPGGA,214818.886,3748.5561,N,12217.8638,W,1,03,3.5,25.1,M,-25.1,M,,0000*5B
$GPGSA,A,2,17,04,08,,,,,,,,,,3.7,3.5,1.0*3A
$GPRMC,214818.886,A,3748.5561,N,12217.8638,W,1.80,294.31,190712,,,A*79
$GPVTG,294.31,T,,M,1.80,N,3.3,K,N*06
$GPGGA,214819.890,3748.5560,N,12217.8567,W,1,03,3.5,25.1,M,-25.1,M,,0000*55
$GPGSA,A,2,17,04,08,,,,,,,,,,3.7,3.5,1.0*3A
$GPRMC,214819.890,A,3748.5560,N,12217.8567,W,3.08,81.35,190712,,,A*47
$GPVTG,81.35,T,,M,3.08,N,5.7,K,N*34
$GPGGA,214820.890,3748.5558,N,12217.8616,W,1,03,3.5,25.1,M,-25.1,M,,0000*51
$GPGSA,A,2,17,04,08,,,,,,,,,,3.7,3.5,1.0*3A
$GPRMC,214820.890,A,3748.5558,N,12217.8616,W,1.28,79.38,190712,,,A*49
$GPVTG,79.38,T,,M,1.28,N,2.4,K,N*3A
$GPGGA,214821.886,3748.5564,N,12217.8659,W,1,03,3.5,25.1,M,-25.1,M,,0000*53
$GPGSA,A,2,17,04,08,,,,,,,,,,3.7,3.5,1.0*3A
$GPRMC,214821.886,A,3748.5564,N,12217.8659,W,1.43,299.66,190712,,,A*71
$GPVTG,299.66,T,,M,1.43,N,2.7,K,N*03
$GPGGA,214822.886,3748.5569,N,12217.8670,W,1,03,3.5,25.1,M,-25.1,M,,0000*56
$GPGSA,A,2,17,04,08,,,,,,,,,,3.7,3.5,1.0*3A
$GPGSV,3,1,10,17,80,060,27,08,30,130,28,04,19,161,28,28,49,055,25*74
$GPGSV,3,2,10,27,40,315,36,26,35,221,31,09,24,315,36,01,16,047,*73
$GPGSV,3,3,10,11,02,038,,48,00,000,26*79
$GPRMC,214822.886,A,3748.5569,N,12217.8670,W,1.57,296.95,190712,,,A*72
$GPVTG,296.95,T,,M,1.57,N,2.9,K,N*0B
$GPGGA,214823.886,3748.5576,N,12217.8526,W,1,03,3.5,25.1,M,-25.1,M,,0000*59
$GPGSA,A,2,17,04,08,,,,,,,,,,3.7,3.5,1.0*3A
$GPRMC,214823.886,A,3748.5576,N,12217.8526,W,0.18,33.16,190712,,,A*41
$GPVTG,33.16,T,,M,0.18,N,0.3,K,N*3F
$GPGGA,214824.890,3748.5596,N,12217.8467,W,1,03,3.5,25.1,M,-25.1,M,,0000*53
$GPGSA,A,2,17,04,08,,,,,,,,,,3.7,3.5,1.0*3A
$GPRMC,214824.890,A,3748.5596,N,12217.8467,W,0.68,58.14,190712,,,A*43
$GPVTG,58.14,T,,M,0.68,N,1.3,K,N*36
$GPGGA,214825.886,3748.5645,N,12217.8433,W,1,03,3.5,25.1,M,-25.1,M,,0000*59
$GPGSA,A,2,17,04,08,,,,,,,,,,3.7,3.5,1.0*3A
$GPRMC,214825.886,A,3748.5645,N,12217.8433,W,1.01,233.43,190712,,,A*7A
$GPVTG,233.43,T,,M,1.01,N,1.9,K,N*0F
$GPGGA,214826.886,3748.5686,N,12217.8440,W,1,03,3.5,25.1,M,-25.1,M,,0000*51
$GPGSA,A,2,17,04,08,,,,,,,,,,3.7,3.5,1.0*3A
$GPRMC,214826.886,A,3748.5686,N,12217.8440,W,0.60,51.72,190712,,,A*40
$GPVTG,51.72,T,,M,0.60,N,1.1,K,N*35
$GPGGA,214827.886,3748.5685,N,12217.8452,W,1,03,3.5,25.1,M,-25.1,M,,0000*50
$GPGSA,A,2,17,04,08,,,,,,,,,,3.7,3.5,1.0*3A
$GPGSV,3,1,10,17,80,060,19,08,30,130,30,04,19,161,25,28,49,055,26*7E
$GPGSV,3,2,10,27,40,315,32,26,35,221,30,09,24,315,36,01,16,047,*76
$GPGSV,3,3,10,11,02,038,,48,00,000,28*77
$GPVTG,345.16,T,,M,0.78,N,1.4,K,N*0D
$GPGGA,214828.890,3748.5486,N,12217.8505,W,1,04,1.9,55.4,M,-25.1,M,,0000*51
$GPGSA,A,3,17,04,08,26,,,,,,,,,2.2,1.9,1.0*35
$GPRMC,214828.890,A,3748.5486,N,12217.8505,W,1.09,341.37,190712,,,A*76
$GPVTG,341.37,T,,M,1.09,N,2.0,K,A*05
$GPGGA,214829.886,3748.5489,N,12217.8517,W,1,04,1.9,45.1,M,-25.1,M,,0000*5F
$GPGSA,A,3,17,04,08,26,,,,,,,,,2.2,1.9,1.0*35
$GPRMC,214829.886,A,3748.5489,N,12217.8517,W,0.51,175.02,190712,,,A*73
$GPVTG,175.02,T,,M,0.51,N,0.9,K,A*01
$GPGGA,214830.886,3748.5502,N,12217.8542,W,1,04,1.9,38.7,M,-25.1,M,,0000*59
$GPGSA,A,3,17,04,08,26,,,,,,,,,2.2,1.9,1.0*35
$GPRMC,214830.886,A,3748.5502,N,12217.8542,W,1.18,209.66,190712,,,A*7F
$GPVTG,209.66,T,,M,1.18,N,2.2,K,A*0E
$GPGGA,214832.000,3748.5513,N,12217.8543,W,1,04,1.9,33.5,M,-25.1,M,,0000*55
$GPGSA,A,3,17,04,08,26,,,,,,,,,2.2,1.9,1.0*35
$GPRMC,214832.000,A,3748.5513,N,12217.8543,W,1.97,153.92,190712,,,A*7A
$GPVTG,153.92,T,,M,1.97,N,3.6,K,A*0B
$GPGGA,214833.000,3748.5506,N,12217.8543,W,1,04,1.9,34.8,M,-25.1,M,,0000*5A
$GPGSA,A,3,17,04,08,26,,,,,,,,,2.2,1.9,1.0*35
$GPGSV,3,1,10,17,79,059,27,26,35,221,37,08,30,131,30,04,20,161,36*72
$GPGSV,3,2,10,28,49,055,26,27,40,314,32,09,24,316,32,01,16,047,*73
$GPGSV,3,3,10,11,02,038,,48,44,197,33*72
$GPRMC,214833.000,A,3748.5506,N,12217.8543,W,1.95,142.03,190712,,,A*75
$GPVTG,142.03,T,,M,1.95,N,3.6,K,A*01
$GPGGA,214834.000,3748.5511,N,12217.8537,W,1,04,1.9,33.1,M,-25.1,M,,0000*56
$GPGSA,A,3,17,04,08,26,,,,,,,,,2.2,1.9,1.0*35
$GPRMC,214834.000,A,3748.5511,N,12217.8537,W,1.40,150.89,190712,,,A*7E
$GPVTG,150.89,T,,M,1.40,N,2.6,K,A*09
$GPGGA,214835.000,3748.5498,N,12217.8537,W,1,04,1.9,36.5,M,-25.1,M,,0000*56
$GPGSA,A,3,17,04,08,26,,,,,,,,,2.2,1.9,1.0*35
$GPRMC,214835.000,A,3748.5498,N,12217.8537,W,1.96,145.82,190712,,,A*7B
$GPVTG,145.82,T,,M,1.96,N,3.6,K,A*0C
$GPGGA,214836.000,3748.5500,N,12217.8532,W,1,04,1.9,34.5,M,-25.1,M,,0000*52
$GPGSA,A,3,17,04,08,26,,,,,,,,,2.2,1.9,1.0*35
$GPRMC,214836.000,A,3748.5500,N,12217.8532,W,1.11,182.10,190712,,,A*72
$GPVTG,182.10,T,,M,1.11,N,2.0,K,A*04
$GPGGA,214837.000,3748.5500,N,12217.8529,W,1,04,1.9,33.0,M,-25.1,M,,0000*5B
$GPGSA,A,3,17,04,08,26,,,,,,,,,2.2,1.9,1.0*35
$GPRMC,214837.000,A,3748.5500,N,12217.8529,W,1.75,137.21,190712,,,A*77
$GPVTG,137.21,T,,M,1.75,N,3.2,K,A*09
$GPGGA,214838.000,3748.5501,N,12217.8525,W,1,04,1.9,32.5,M,-25.1,M,,0000*5D
$GPGSA,A,3,17,04,08,26,,,,,,,,,2.2,1.9,1.0*35
$GPGSV,3,1,10,17,79,059,26,26,35,221,33,08,30,131,29,04,20,161,28*70
$GPGSV,3,2,10,28,49,055,25,27,40,314,33,09,24,316,33,01,16,047,23*71
$GPGSV,3,3,10,11,02,038,,48,44,197,31*70
$GPRMC,214838.000,A,3748.5501,N,12217.8525,W,0.28,149.81,190712,,,A*7F
$GPVTG,149.81,T,,M,0.28,N,0.5,K,A*07
$GPGGA,214839.000,3748.5501,N,12217.8530,W,1,04,1.9,31.8,M,-25.1,M,,0000*56
$GPGSA,A,3,17,04,08,26,,,,,,,,,2.2,1.9,1.0*35
$GPRMC,214839.000,A,3748.5501,N,12217.8530,W,1.61,307.13,190712,,,A*75
$GPVTG,307.13,T,,M,1.61,N,3.0,K,A*0E
$GPGGA,214840.000,3748.5509,N,12217.8538,W,1,04,1.9,30.7,M,-25.1,M,,0000*56
$GPGSA,A,3,17,04,08,26,,,,,,,,,2.2,1.9,1.0*35
$GPRMC,214840.000,A,3748.5509,N,12217.8538,W,0.56,304.18,190712,,,A*76
$GPVTG,304.18,T,,M,0.56,N,1.0,K,A*01
$GPGGA,214841.000,3748.5525,N,12217.8544,W,1,04,1.9,25.4,M,-25.1,M,,0000*55
$GPGSA,A,3,17,04,08,26,,,,,,,,,2.2,1.9,1.0*35
$GPRMC,214841.000,A,3748.5525,N,12217.8544,W,1.15,256.43,190712,,,A*7C
$GPVTG,256.43,T,,M,1.15,N,2.1,K,A*0D
$GPGGA,214842.000,3748.5533,N,12217.8545,W,1,04,1.9,22.1,M,-25.1,M,,0000*52
$GPGSA,A,3,17,04,08,26,,,,,,,,,2.2,1.9,1.0*35
$GPRMC,214842.000,A,3748.5533,N,12217.8545,W,1.02,219.71,190712,,,A*75
$GPVTG,219.71,T,,M,1.02,N,1.9,K,A*0A
$GPGGA,214843.000,3748.5536,N,12217.8545,W,1,04,1.9,21.3,M,-25.1,M,,0000*57
$GPGSA,A,3,17,04,08,26,,,,,,,,,2.2,1.9,1.0*35
$GPGSV,3,1,10,17,79,059,27,26,35,221,25,08,30,131,30,04,20,161,25*73
$GPGSV,3,2,10,28,49,055,34,27,40,314,34,09,24,316,31,01,16,047,29*7E
$GPGSV,3,3,10,11,02,038,,48,44,197,28*78
$GPRMC,214843.000,A,3748.5536,N,12217.8545,W,1.52,205.26,190712,,,A*7B
$GPVTG,205.26,T,,M,1.52,N,2.8,K,A*02
$GPGGA,214844.000,3748.5545,N,12217.8540,W,1,04,1.9,20.0,M,-25.1,M,,0000*53
$GPGSA,A,3,17,04,08,26,,,,,,,,,2.2,1.9,1.0*35
$GPRMC,214844.000,A,3748.5545,N,12217.8540,W,0.40,137.02,190712,,,A*7B
$GPVTG,137.02,T,,M,0.40,N,0.7,K,A*09
$GPGGA,214845.000,3748.5546,N,12217.8532,W,1,04,1.9,21.6,M,-25.1,M,,0000*53
$GPGSA,A,3,17,04,08,26,,,,,,,,,2.2,1.9,1.0*35
$GPRMC,214845.000,A,3748.5546,N,12217.8532,W,0.35,22.19,190712,,,A*41
$GPVTG,22.19,T,,M,0.35,N,0.7,K,A*34
$GPGGA,214846.000,3748.5547,N,12217.8531,W,1,04,1.9,20.5,M,-25.1,M,,0000*50
$GPGSA,A,3,17,04,08,26,,,,,,,,,2.2,1.9,1.0*35
$GPRMC,214846.000,A,3748.5547,N,12217.8531,W,1.87,96.39,190712,,,A*45
$GPVTG,96.39,T,,M,1.87,N,3.5,K,A*30
$GPGGA,214847.000,3748.5544,N,12217.8525,W,1,04,1.9,22.0,M,-25.1,M,,0000*50
$GPGSA,A,3,17,04,08,26,,,,,,,,,2.2,1.9,1.0*35
$GPRMC,214847.000,A,3748.5544,N,12217.8525,W,0.43,49.48,190712,,,A*4F
$GPVTG,49.48,T,,M,0.43,N,0.8,K,A*33
$GPGGA,214848.000,3748.5553,N,12217.8523,W,1,04,1.9,20.7,M,-25.1,M,,0000*5A
$GPGSA,A,3,17,04,08,26,,,,,,,,,2.2,1.9,1.0*35
$GPGSV,3,1,10,17,79,059,28,26,35,221,30,08,30,131,30,04,20,161,26*7B
$GPGSV,3,2,10,28,49,055,34,27,40,314,29,09,24,316,35,01,16,047,24*7B
$GPGSV,3,3,10,11,02,038,,51,43,156,30*73
$GPRMC,214848.000,A,3748.5553,N,12217.8523,W,0.85,72.43,190712,,,A*49
$GPVTG,72.43,T,,M,0.85,N,1.6,K,A*35
$GPGGA,214849.000,3748.5563,N,12217.8523,W,1,04,1.9,18.9,M,-25.1,M,,0000*5D
$GPGSA,A,3,17,04,08,26,,,,,,,,,2.2,1.9,1.0*35
$GPRMC,214849.000,A,3748.5563,N,12217.8523,W,0.37,76.48,190712,,,A*4D
$GPVTG,76.48,T,,M,0.37,N,0.7,K,A*33
$GPGGA,214850.000,3748.5563,N,12217.8523,W,1,04,1.9,18.6,M,-25.1,M,,0000*5A
$GPGSA,A,3,17,04,08,26,,,,,,,,,2.2,1.9,1.0*35
$GPRMC,214850.000,A,3748.5563,N,12217.8523,W,0.21,81.12,190712,,,A*45
$GPVTG,81.12,T,,M,0.21,N,0.4,K,A*30
$GPGGA,214851.000,3748.5563,N,12217.8524,W,1,04,1.9,18.1,M,-25.1,M,,0000*5B
$GPGSA,A,3,17,04,08,26,,,,,,,,,2.2,1.9,1.0*35
$GPRMC,214851.000,A,3748.5563,N,12217.8524,W,0.34,73.10,190712,,,A*48
$GPVTG,73.10,T,,M,0.34,N,0.6,K,A*39
$GPGGA,214852.000,3748.5565,N,12217.8525,W,1,04,1.9,17.5,M,-25.1,M,,0000*54
$GPGSA,A,3,17,04,08,26,,,,,,,,,2.2,1.9,1.0*35
$GPRMC,214852.000,A,3748.5565,N,12217.8525,W,0.40,28.80,190712,,,A*48
$GPVTG,28.80,T,,M,0.40,N,0.7,K,A*3C
$GPGGA,214853.000,3748.5565,N,12217.8527,W,1,04,1.9,17.0,M,-25.1,M,,0000*52
$GPGSA,A,3,17,04,08,26,,,,,,,,,2.2,1.9,1.0*35
$GPGSV,3,1,10,17,79,059,29,26,35,221,34,08,30,131,37,04,20,161,32*7C
$GPGSV,3,2,10,28,49,055,25,27,40,314,26,09,24,316,25,01,16,047,23*72
$GPGSV,3,3,10,11,02,038,,51,43,156,30*73
$GPVTG,211.12,T,,M,0.45,N,0.8,K,A*05
$GPGGA,214854.000,3748.5564,N,12217.8528,W,1,04,1.9,16.8,M,-25.1,M,,0000*52
$GPGSA,A,3,17,04,08,26,,,,,,,,,2.2,1.9,1.0*35
$GPRMC,214854.000,A,3748.5564,N,12217.8528,W,0.30,335.46,190712,,,A*70
$GPVTG,335.46,T,,M,0.30,N,0.6,K,A*0F
$GPGGA,214855.000,3748.5563,N,12217.8530,W,1,04,1.9,16.9,M,-25.1,M,,0000*5C
$GPGSA,A,3,17,04,08,26,,,,,,,,,2.2,1.9,1.0*35
$GPRMC,214855.000,A,3748.5563,N,12217.8530,W,0.68,266.34,190712,,,A*70
$GPVTG,266.34,T,,M,0.68,N,1.3,K,A*04
$GPGGA,214856.000,3748.5561,N,12217.8525,W,1,04,1.9,17.7,M,-25.1,M,,0000*56
$GPGSA,A,3,17,04,08,26,,,,,,,,,2.2,1.9,1.0*35
$GPRMC,214856.000,A,3748.5561,N,12217.8525,W,0.29,340.02,190712,,,A*70
$GPVTG,340.02,T,,M,0.29,N,0.5,K,A*06
$GPGGA,214857.000,3748.5559,N,12217.8523,W,1,04,1.9,17.7,M,-25.1,M,,0000*5A
$GPGSA,A,3,17,04,08,26,,,,,,,,,2.2,1.9,1.0*35
$GPRMC,214857.000,A,3748.5559,N,12217.8523,W,0.42,56.19,190712,,,A*4F
$GPVTG,56.19,T,,M,0.42,N,0.8,K,A*38
$GPGGA,214858.000,3748.5557,N,12217.8519,W,1,03,2.2,18.4,M,-25.1,M,,0000*51
$GPGSA,A,2,17,04,26,,,,,,,,,,2.4,2.2,1.0*32
$GPGSV,3,1,10,17,79,059,29,26,35,221,27,08,30,131,,04,20,161,33*7B
$GPGSV,3,2,10,28,49,055,26,27,40,314,30,09,24,316,32,01,16,047,23*70
$GPGSV,3,3,10,11,02,038,,51,43,156,29*7B
$GPRMC,214858.000,A,3748.5557,N,12217.8519,W,0.80,55.53,190712,,,A*44
$GPVTG,55.53,T,,M,0.80,N,1.5,K,N*38
$GPGGA,214859.000,3748.5553,N,12217.8519,W,1,04,1.9,19.4,M,-25.1,M,,0000*5A
$GPGSA,A,3,17,04,08,26,,,,,,,,,2.2,1.9,1.0*35
$GPRMC,214859.000,A,3748.5553,N,12217.8519,W,0.71,312.14,190712,,,A*7C
$GPVTG,312.14,T,,M,0.71,N,1.3,K,A*0C
$GPGGA,214900.000,3748.5552,N,12217.8520,W,1,04,1.9,18.9,M,-25.1,M,,0000*50
$GPGSA,A,3,17,04,08,26,,,,,,,,,2.2,1.9,1.0*35
$GPRMC,214900.000,A,3748.5552,N,12217.8520,W,0.16,176.26,190712,,,A*7A
$GPVTG,176.26,T,,M,0.16,N,0.3,K,A*0D
$GPGGA,214901.000,3748.5552,N,12217.8518,W,1,04,1.9,18.0,M,-25.1,M,,0000*53
$GPGSA,A,3,17,04,08,26,,,,,,,,,2.2,1.9,1.0*35
$GPRMC,214901.000,A,3748.5552,N,12217.8518,W,0.24,51.18,190712,,,A*48
$GPVTG,51.18,T,,M,0.24,N,0.4,K,A*32
$GPGGA,214902.000,3748.5551,N,12217.8519,W,1,04,1.9,18.2,M,-25.1,M,,0000*50
$GPGSA,A,3,17,04,08,26,,,,,,,,,2.2,1.9,1.0*35
$GPRMC,214902.000,A,3748.5551,N,12217.8519,W,1.70,324.40,190712,,,A*75
$GPVTG,324.40,T,,M,1.70,N,3.1,K,A*08
$GPGGA,214903.000,3748.5552,N,12217.8521,W,1,03,3.6,18.4,M,-25.1,M,,0000*55
$GPGSA,A,2,17,04,08,,,,,,,,,,3.7,3.6,1.0*39
$GPGSV,3,1,10,17,79,059,28,26,35,221,,08,30,131,34,04,20,161,42*7E
$GPGSV,3,2,10,28,49,055,27,27,40,314,30,09,24,316,35,01,16,047,21*74
$GPGSV,3,3,10,11,02,038,,51,43,156,33*70
$GPRMC,214903.000,A,3748.5552,N,12217.8521,W,0.96,332.81,190712,,,A*7F
$GPVTG,332.81,T,,M,0.96,N,1.8,K,N*0F
$GPGGA,214904.000,3748.5549,N,12217.8523,W,1,04,1.9,19.2,M,-25.1,M,,0000*57
$GPGSA,A,3,17,04,08,26,,,,,,,,,2.2,1.9,1.0*35
$GPRMC,214904.000,A,3748.5549,N,12217.8523,W,0.11,346.05,190712,,,A*70
$GPVTG,346.05,T,,M,0.11,N,0.2,K,A*0B
$GPGGA,214905.000,3748.5548,N,12217.8517,W,1,04,1.9,20.2,M,-25.1,M,,0000*5A
$GPGSA,A,3,17,04,08,26,,,,,,,,,2.2,1.9,1.0*35
$GPRMC,214905.000,A,3748.5548,N,12217.8517,W,0.16,309.35,190712,,,A*78
$GPVTG,309.35,T,,M,0.16,N,0.3,K,A*05
$GPGGA,214906.000,3748.5542,N,12217.8507,W,1,04,1.9,22.2,M,-25.1,M,,0000*50
$GPGSA,A,3,17,04,08,26,,,,,,,,,2.2,1.9,1.0*35
$GPRMC,214906.000,A,3748.5542,N,12217.8507,W,0.67,102.51,190712,,,A*7D
$GPVTG,102.51,T,,M,0.67,N,1.2,K,A*08
$GPGGA,214907.000,3748.5541,N,12217.8500,W,1,04,1.9,23.6,M,-25.1,M,,0000*50
$GPGSA,A,3,17,04,08,26,,,,,,,,,2.2,1.9,1.0*35
$GPRMC,214907.000,A,3748.5541,N,12217.8500,W,0.29,112.51,190712,,,A*73
$GPVTG,112.51,T,,M,0.29,N,0.5,K,A*05
$GPGGA,214908.000,3748.5538,N,12217.8502,W,1,04,1.9,24.0,M,-25.1,M,,0000*52
$GPGSA,A,3,17,04,08,26,,,,,,,,,2.2,1.9,1.0*35
$GPGSV,3,1,09,17,79,059,24,26,35,221,30,08,30,131,30,04,20,161,38*70
$GPGSV,3,2,09,28,49,055,25,27,40,314,30,09,24,316,36,01,16,047,21*7D
$GPGSV,3,3,09,11,02,038,*49
$GPRMC,214908.000,A,3748.5538,N,12217.8502,W,0.93,272.97,190712,,,A*7E
$GPVTG,272.97,T,,M,0.93,N,1.7,K,A*08
$GPGGA,214909.000,3748.5534,N,12217.8512,W,1,04,1.9,23.8,M,-25.1,M,,0000*51
$GPGSA,A,3,17,04,08,26,,,,,,,,,2.2,1.9,1.0*35
$GPRMC,214909.000,A,3748.5534,N,12217.8512,W,2.16,245.42,190712,,,A*71
$GPVTG,245.42,T,,M,2.16,N,4.0,K,A*09
$GPGGA,214910.000,3748.5537,N,12217.8522,W,1,04,1.9,23.1,M,-25.1,M,,0000*50
$GPGSA,A,3,17,04,08,26,,,,,,,,,2.2,1.9,1.0*35
$GPRMC,214910.000,A,3748.5537,N,12217.8522,W,0.84,245.05,190712,,,A*73
$GPVTG,245.05,T,,M,0.84,N,1.5,K,A*03
$GPGGA,214911.000,3748.5542,N,12217.8531,W,1,04,1.9,23.6,M,-25.1,M,,0000*56
$GPGSA,A,3,17,04,08,26,,,,,,,,,2.2,1.9,1.0*35
$GPRMC,214911.000,A,3748.5542,N,12217.8531,W,0.40,248.91,190712,,,A*7A
$GPVTG,248.91,T,,M,0.40,N,0.7,K,A*08
$GPGGA,214912.000,3748.5541,N,12217.8537,W,1,03,4.3,23.8,M,-25.1,M,,0000*56
$GPGSA,A,2,04,08,26,,,,,,,,,,4.4,4.3,1.0*3D
$GPRMC,214912.000,A,3748.5541,N,12217.8537,W,0.30,229.90,190712,,,A*7D
$GPVTG,229.90,T,,M,0.30,N,0.6,K,N*07
$GPGGA,214913.000,3748.5540,N,12217.8547,W,1,03,4.3,24.5,M,-25.1,M,,0000*5B
$GPGSA,A,2,04,08,26,,,,,,,,,,4.4,4.3,1.0*3D
$GPGSV,3,1,10,17,79,059,,26,35,221,33,08,30,131,26,04,20,161,27*74
$GPGSV,3,2,10,28,49,055,22,27,40,314,33,09,24,316,40,01,16,047,21*70
$GPGSV,3,3,10,11,02,038,,51,43,156,29*7B
$GPRMC,214913.000,A,3748.5540,N,12217.8547,W,0.53,319.52,190712,,,A*73
$GPVTG,319.52,T,,M,0.53,N,1.0,K,N*09
$GPGGA,214914.000,3748.5536,N,12217.8551,W,1,04,1.9,26.5,M,-25.1,M,,0000*50
$GPGSA,A,3,17,04,08,26,,,,,,,,,2.2,1.9,1.0*35
$GPRMC,214914.000,A,3748.5536,N,12217.8551,W,0.86,332.22,190712,,,A*74
$GPVTG,332.22,T,,M,0.86,N,1.6,K,A*06
$GPGGA,214915.000,3748.5520,N,12217.8554,W,1,04,1.9,29.0,M,-25.1,M,,0000*59
$GPGSA,A,3,17,04,08,26,,,,,,,,,2.2,1.9,1.0*35
$GPRMC,214915.000,A,3748.5520,N,12217.8554,W,0.79,310.55,190712,,,A*77
$GPVTG,310.55,T,,M,0.79,N,1.5,K,A*05
$GPGGA,214916.000,3748.5516,N,12217.8553,W,1,04,1.9,29.5,M,-25.1,M,,0000*5D
$GPGSA,A,3,17,04,08,26,,,,,,,,,2.2,1.9,1.0*35
$GPRMC,214916.000,A,3748.5516,N,12217.8553,W,0.11,161.01,190712,,,A*7D
$GPVTG,161.01,T,,M,0.11,N,0.2,K,A*08
$GPGGA,214917.000,3748.5518,N,12217.8556,W,1,04,1.9,32.2,M,-25.1,M,,0000*5A
$GPGSA,A,3,17,04,08,26,,,,,,,,,2.2,1.9,1.0*35
$GPRMC,214917.000,A,3748.5518,N,12217.8556,W,0.78,339.86,190712,,,A*78
$GPVTG,339.86,T,,M,0.78,N,1.4,K,A*00
$GPGGA,214918.000,3748.5518,N,12217.8555,W,1,04,1.9,32.8,M,-25.1,M,,0000*5C
$GPGSA,A,3,17,04,08,26,,,,,,,,,2.2,1.9,1.0*35
$GPGSV,3,1,10,17,79,059,25,26,35,221,33,08,30,131,28,04,20,161,38*73
$GPGSV,3,2,10,28,49,055,23,27,40,314,36,09,24,316,32,01,16,047,21*71
$GPGSV,3,3,10,11,02,038,,51,43,156,37*74
$GPVTG,339.14,T,,M,0.99,N,1.8,K,A*08
$GPGGA,214919.000,3748.5516,N,12217.8553,W,1,04,1.9,33.5,M,-25.1,M,,0000*59
$GPGSA,A,3,17,04,08,26,,,,,,,,,2.2,1.9,1.0*35
$GPRMC,214919.000,A,3748.5516,N,12217.8553,W,0.39,323.88,190712,,,A*7D
$GPVTG,323.88,T,,M,0.39,N,0.7,K,A*02
$GPGGA,214920.000,3748.5518,N,12217.8544,W,1,04,1.9,32.7,M,-25.1,M,,0000*58
$GPGSA,A,3,17,04,08,26,,,,,,,,,2.2,1.9,1.0*35
$GPRMC,214920.000,A,3748.5518,N,12217.8544,W,0.64,38.23,190712,,,A*4F
$GPVTG,38.23,T,,M,0.64,N,1.2,K,A*36
$GPGGA,214921.000,3748.5521,N,12217.8536,W,1,04,1.9,32.6,M,-25.1,M,,0000*57
$GPGSA,A,3,17,04,08,26,,,,,,,,,2.2,1.9,1.0*35
$GPRMC,214921.000,A,3748.5521,N,12217.8536,W,0.91,43.05,190712,,,A*43
$GPVTG,43.05,T,,M,0.91,N,1.7,K,A*31
$GPGGA,214922.000,3748.5522,N,12217.8531,W,1,04,1.9,32.8,M,-25.1,M,,0000*5E
$GPGSA,A,3,17,04,08,26,,,,,,,,,2.2,1.9,1.0*35
$GPRMC,214922.000,A,3748.5522,N,12217.8531,W,0.46,19.48,190712,,,A*48
$GPVTG,19.48,T,,M,0.46,N,0.8,K,A*33
$GPGGA,214923.000,3748.5521,N,12217.8528,W,1,04,1.9,32.7,M,-25.1,M,,0000*5B
$GPGSA,A,3,17,04,08,26,,,,,,,,,2.2,1.9,1.0*35
$GPGSV,3,1,10,17,79,059,28,26,35,221,33,08,30,131,35,04,20,161,40*7D
$GPGSV,3,2,10,28,49,055,25,27,40,314,26,09,24,316,33,01,16,047,21*77
$GPGSV,3,3,10,11,02,038,,51,43,156,38*7B
$GPRMC,214923.000,A,3748.5521,N,12217.8528,W,0.07,37.96,190712,,,A*48
$GPVTG,37.96,T,,M,0.07,N,0.1,K,A*30
$GPGGA,214924.000,3748.5518,N,12217.8525,W,1,04,1.9,32.6,M,-25.1,M,,0000*5A
$GPGSA,A,3,17,04,08,26,,,,,,,,,2.2,1.9,1.0*35
$GPRMC,214924.000,A,3748.5518,N,12217.8525,W,0.07,336.57,190712,,,A*77
$GPVTG,336.57,T,,M,0.07,N,0.1,K,A*0F
$GPGGA,214925.000,3748.5516,N,12217.8524,W,1,04,1.9,32.5,M,-25.1,M,,0000*57
$GPGSA,A,3,17,04,08,26,,,,,,,,,2.2,1.9,1.0*35
$GPRMC,214925.000,A,3748.5516,N,12217.8524,W,0.23,359.77,190712,,,A*74
$GPVTG,359.77,T,,M,0.23,N,0.4,K,A*07
$GPGGA,214926.000,3748.5513,N,12217.8523,W,1,04,1.9,32.6,M,-25.1,M,,0000*55
$GPGSA,A,3,17,04,08,26,,,,,,,,,2.2,1.9,1.0*35
$GPRMC,214926.000,A,3748.5513,N,12217.8523,W,0.24,338.42,190712,,,A*73
$GPVTG,338.42,T,,M,0.24,N,0.4,K,A*01
$GPGGA,214927.000,3748.5510,N,12217.8523,W,1,04,1.9,33.2,M,-25.1,M,,0000*52
$GPGSA,A,3,17,04,08,26,,,,,,,,,2.2,1.9,1.0*35
$GPRMC,214927.000,A,3748.5510,N,12217.8523,W,0.32,317.12,190712,,,A*7E
$GPVTG,317.12,T,,M,0.32,N,0.6,K,A*0C
$GPGGA,214928.000,3748.5507,N,12217.8525,W,1,04,1.9,33.9,M,-25.1,M,,0000*56
$GPGSA,A,3,17,04,08,26,,,,,,,,,2.2,1.9,1.0*35
$GPGSV,3,1,10,17,79,059,33,26,35,221,41,08,30,131,26,04,20,161,41*71
$GPGSV,3,2,10,28,49,055,25,27,40,314,29,09,24,316,39,01,16,047,22*71
$GPGSV,3,3,10,11,02,038,,51,43,156,34*77
$GPRMC,214928.000,A,3748.5507,N,12217.8525,W,0.43,331.27,190712,,,A*75
$GPVTG,331.27,T,,M,0.43,N,0.8,K,A*06
$GPGGA,214929.000,3748.5502,N,12217.8529,W,1,04,1.9,35.5,M,-25.1,M,,0000*54
$GPGSA,A,3,17,04,08,26,,,,,,,,,2.2,1.9,1.0*35
$GPRMC,214929.000,A,3748.5502,N,12217.8529,W,0.30,317.25,190712,,,A*7F
$GPVTG,317.25,T,,M,0.30,N,0.6,K,A*0A
$GPGGA,214930.000,3748.5498,N,12217.8530,W,1,04,1.9,36.5,M,-25.1,M,,0000*55
$GPGSA,A,3,17,04,08,26,,,,,,,,,2.2,1.9,1.0*35
$GPRMC,214930.000,A,3748.5498,N,12217.8530,W,0.28,357.80,190712,,,A*7F
$GPVTG,357.80,T,,M,0.28,N,0.5,K,A*0B
$GPGGA,214931.000,3748.5500,N,12217.8529,W,1,04,1.9,35.9,M,-25.1,M,,0000*53
$GPGSA,A,3,17,04,08,26,,,,,,,,,2.2,1.9,1.0*35
$GPRMC,214931.000,A,3748.5500,N,12217.8529,W,1.56,295.95,190712,,,A*75
$GPVTG,295.95,T,,M,1.56,N,2.9,K,A*06
$GPGGA,214932.000,3748.5499,N,12217.8528,W,1,04,1.9,36.5,M,-25.1,M,,0000*5F
$GPGSA,A,3,17,04,08,26,,,,,,,,,2.2,1.9,1.0*35
$GPRMC,214932.000,A,3748.5499,N,12217.8528,W,0.42,343.58,190712,,,A*79
$GPVTG,343.58,T,,M,0.42,N,0.8,K,A*0A
$GPGGA,214933.000,3748.5498,N,12217.8526,W,1,04,1.9,35.8,M,-25.1,M,,0000*5F
$GPGSA,A,3,17,04,08,26,,,,,,,,,2.2,1.9,1.0*35
$GPGSV,3,1,10,17,79,059,24,26,35,221,36,08,30,131,31,04,20,161,39*7E
$GPGSV,3,2,10,28,49,055,25,27,40,314,35,09,24,316,37,01,16,047,22*72
$GPGSV,3,3,10,11,02,038,,51,43,156,31*72
$GPRMC,214933.000,A,3748.5498,N,12217.8526,W,0.77,163.01,190712,,,A*7D
$GPVTG,163.01,T,,M,0.77,N,1.4,K,A*0D
$GPGGA,214934.000,3748.5498,N,12217.8516,W,1,04,1.9,35.1,M,-25.1,M,,0000*52
$GPGSA,A,3,17,04,08,26,,,,,,,,,2.2,1.9,1.0*35
$GPRMC,214934.000,A,3748.5498,N,12217.8516,W,1.89,90.71,190712,,,A*43
$GPVTG,90.71,T,,M,1.89,N,3.5,K,A*34
$GPGGA,214935.000,3748.5501,N,12217.8511,W,1,04,1.9,34.4,M,-25.1,M,,0000*51
$GPGSA,A,3,17,04,08,26,,,,,,,,,2.2,1.9,1.0*35
$GPRMC,214935.000,A,3748.5501,N,12217.8511,W,0.65,77.30,190712,,,A*4B
$GPVTG,77.30,T,,M,0.65,N,1.2,K,A*3E
$GPGGA,214936.000,3748.5502,N,12217.8508,W,1,04,1.9,34.1,M,-25.1,M,,0000*5C
$GPGSA,A,3,17,04,08,26,,,,,,,,,2.2,1.9,1.0*35
$GPRMC,214936.000,A,3748.5502,N,12217.8508,W,1.21,37.78,190712,,,A*4A
$GPVTG,37.78,T,,M,1.21,N,2.2,K,A*34
$GPGGA,214937.000,3748.5494,N,12217.8511,W,1,04,1.9,33.9,M,-25.1,M,,0000*54
$GPGSA,A,3,17,04,08,26,,,,,,,,,2.2,1.9,1.0*35
$GPRMC,214937.000,A,3748.5494,N,12217.8511,W,0.98,133.65,190712,,,A*77
$GPVTG,133.65,T,,M,0.98,N,1.8,K,A*07
$GPGGA,214938.000,3748.5488,N,12217.8511,W,1,04,1.9,34.0,M,-25.1,M,,0000*58
$GPGSA,A,3,17,04,08,26,,,,,,,,,2.2,1.9,1.0*35
$GPGSV,3,1,10,17,79,059,24,26,35,221,35,08,30,131,22,04,20,161,32*74
$GPGSV,3,2,10,28,49,055,27,27,40,314,31,09,24,316,33,01,16,047,23*71
$GPGSV,3,3,10,11,02,038,,51,43,156,30*73
$GPRMC,214938.000,A,3748.5488,N,12217.8511,W,1.12,178.68,190712,,,A*74
$GPVTG,178.68,T,,M,1.12,N,2.1,K,A*0C
$GPGGA,214939.000,3748.5478,N,12217.8515,W,1,04,1.9,33.7,M,-25.1,M,,0000*52
$GPGSA,A,3,17,04,08,26,,,,,,,,,2.2,1.9,1.0*35
$GPRMC,214939.000,A,3748.5478,N,12217.8515,W,1.88,189.81,190712,,,A*74
$GPVTG,189.81,T,,M,1.88,N,3.5,K,A*03
$GPGGA,214940.000,3748.5471,N,12217.8514,W,1,04,1.9,33.8,M,-25.1,M,,0000*5B
$GPGSA,A,3,17,04,08,26,,,,,,,,,2.2,1.9,1.0*35
$GPRMC,214940.000,A,3748.5471,N,12217.8514,W,1.81,159.19,190712,,,A*77
$GPVTG,159.19,T,,M,1.81,N,3.4,K,A*07
$GPGGA,214941.000,3748.5472,N,12217.8514,W,1,04,1.9,33.7,M,-25.1,M,,0000*56
$GPGSA,A,3,17,04,08,26,,,,,,,,,2.2,1.9,1.0*35
$GPRMC,214941.000,A,3748.5472,N,12217.8514,W,1.07,200.16,190712,,,A*7B
$GPVTG,200.16,T,,M,1.07,N,2.0,K,A*0C
$GPGGA,214942.000,3748.5471,N,12217.8510,W,1,04,1.9,34.1,M,-25.1,M,,0000*53
$GPGSA,A,3,17,04,08,26,,,,,,,,,2.2,1.9,1.0*35
$GPRMC,214942.000,A,3748.5471,N,12217.8510,W,1.36,190.98,190712,,,A*71
$GPVTG,190.98,T,,M,1.36,N,2.5,K,A*07
$GPGGA,214943.000,3748.5469,N,12217.8514,W,1,04,1.9,34.1,M,-25.1,M,,0000*5F
$GPGSA,A,3,17,04,08,26,,,,,,,,,2.2,1.9,1.0*35
$GPGSV,3,1,09,17,79,059,32,26,35,221,30,08,30,131,32,04,20,161,32*7F
$GPGSV,3,2,09,28,49,055,24,27,40,314,31,09,24,316,32,01,16,047,24*7C
$GPGSV,3,3,09,11,02,038,*49
$GPVTG,200.40,T,,M,2.22,N,4.1,K,A*0C
$GPGGA,214944.000,3748.5466,N,12217.8520,W,1,04,1.9,34.3,M,-25.1,M,,0000*52
$GPGSA,A,3,17,04,08,26,,,,,,,,,2.2,1.9,1.0*35
$GPRMC,214944.000,A,3748.5466,N,12217.8520,W,1.04,216.99,190712,,,A*7F
$GPVTG,216.99,T,,M,1.04,N,1.9,K,A*05
$GPGGA,214945.000,3748.5463,N,12217.8535,W,1,04,1.9,34.3,M,-25.1,M,,0000*52
$GPGSA,A,3,17,04,08,26,,,,,,,,,2.2,1.9,1.0*35
$GPRMC,214945.000,A,3748.5463,N,12217.8535,W,3.43,229.43,190712,,,A*75
$GPVTG,229.43,T,,M,3.43,N,6.4,K,A*05
$GPGGA,214946.000,3748.5457,N,12217.8543,W,1,04,1.9,34.1,M,-25.1,M,,0000*55
$GPGSA,A,3,17,04,08,26,,,,,,,,,2.2,1.9,1.0*35
$GPRMC,214946.000,A,3748.5457,N,12217.8543,W,1.12,230.72,190712,,,A*7C
$GPVTG,230.72,T,,M,1.12,N,2.1,K,A*08
$GPGGA,214947.000,3748.5452,N,12217.8545,W,1,04,1.9,33.8,M,-25.1,M,,0000*59
$GPGSA,A,3,17,04,08,26,,,,,,,,,2.2,1.9,1.0*35
$GPRMC,214947.000,A,3748.5452,N,12217.8545,W,0.85,201.54,190712,,,A*77
$GPVTG,201.54,T,,M,0.85,N,1.6,K,A*05
$GPGGA,214948.000,3748.5448,N,12217.8547,W,1,04,1.9,33.8,M,-25.1,M,,0000*5F
$GPGSA,A,3,17,04,08,26,,,,,,,,,2.2,1.9,1.0*35
$GPGSV,3,1,10,17,79,059,24,26,35,221,33,08,30,131,32,04,20,161,34*75
$GPGSV,3,2,10,28,49,055,32,27,40,314,29,09,24,316,31,01,16,047,18*76
$GPGSV,3,3,10,11,02,038,,51,43,156,32*71
$GPRMC,214948.000,A,3748.5448,N,12217.8547,W,0.35,163.18,190712,,,A*75
$GPVTG,163.18,T,,M,0.35,N,0.7,K,A*01
$GPGGA,214949.000,3748.5456,N,12217.8548,W,1,04,1.9,33.8,M,-25.1,M,,0000*5E
$GPGSA,A,3,17,04,08,26,,,,,,,,,2.2,1.9,1.0*35
$GPRMC,214949.000,A,3748.5456,N,12217.8548,W,0.87,326.64,190712,,,A*75
$GPVTG,326.64,T,,M,0.87,N,1.6,K,A*00
$GPGGA,214950.000,3748.5457,N,12217.8542,W,1,04,1.9,33.8,M,-25.1,M,,0000*5D
$GPGSA,A,3,17,04,08,26,,,,,,,,,2.2,1.9,1.0*35
$GPRMC,214950.000,A,3748.5457,N,12217.8542,W,0.51,337.12,190712,,,A*7C
$GPVTG,337.12,T,,M,0.51,N,0.9,K,A*04
$GPGGA,214951.000,3748.5455,N,12217.8535,W,1,04,1.9,34.3,M,-25.1,M,,0000*52
$GPGSA,A,3,17,04,08,26,,,,,,,,,2.2,1.9,1.0*35
$GPRMC,214951.000,A,3748.5455,N,12217.8535,W,0.06,147.29,190712,,,A*70
$GPVTG,147.29,T,,M,0.06,N,0.1,K,A*03
$GPGGA,214952.000,3748.5453,N,12217.8536,W,1,04,1.9,33.6,M,-25.1,M,,0000*56
$GPGSA,A,3,17,04,08,26,,,,,,,,,2.2,1.9,1.0*35
$GPRMC,214952.000,A,3748.5453,N,12217.8536,W,0.40,13.29,190712,,,A*44
$GPVTG,13.29,T,,M,0.40,N,0.7,K,A*37
$GPGGA,214953.000,3748.5461,N,12217.8533,W,1,04,1.9,34.4,M,-25.1,M,,0000*56
$GPGSA,A,3,17,04,08,26,,,,,,,,,2.2,1.9,1.0*35
$GPGSV,3,1,10,17,79,059,19,26,35,221,28,08,30,131,31,04,20,161,28*7F
$GPGSV,3,2,10,28,49,055,27,27,40,314,29,09,24,316,27,01,16,047,17*7A
$GPGSV,3,3,10,11,02,038,,51,43,156,28*7A
$GPRMC,214953.000,A,3748.5461,N,12217.8533,W,1.37,2.44,190712,,,A*7B
$GPVTG,2.44,T,,M,1.37,N,2.5,K,A*0D
$GPGGA,214954.000,3748.5460,N,12217.8532,W,1,04,1.9,34.7,M,-25.1,M,,0000*52
$GPGSA,A,3,17,04,08,26,,,,,,,,,2.2,1.9,1.0*35
$GPRMC,214954.000,A,3748.5460,N,12217.8532,W,0.59,352.87,190712,,,A*7C
$GPVTG,352.87,T,,M,0.59,N,1.1,K,A*0A
$GPGGA,214955.000,3748.5454,N,12217.8525,W,1,04,1.9,35.2,M,-25.1,M,,0000*56
$GPGSA,A,3,17,04,08,26,,,,,,,,,2.2,1.9,1.0*35
$GPRMC,214955.000,A,3748.5454,N,12217.8525,W,0.34,137.85,190712,,,A*74
$GPVTG,137.85,T,,M,0.34,N,0.6,K,A*04
$GPGGA,214956.000,3748.5452,N,12217.8519,W,1,04,1.9,36.9,M,-25.1,M,,0000*54
$GPGSA,A,3,17,04,08,26,,,,,,,,,2.2,1.9,1.0*35
$GPRMC,214956.000,A,3748.5452,N,12217.8519,W,0.28,86.51,190712,,,A*41
$GPVTG,86.51,T,,M,0.28,N,0.5,K,A*38
$GPGGA,214957.000,3748.5451,N,12217.8513,W,1,03,4.4,37.2,M,-25.1,M,,0000*59
$GPGSA,A,2,04,08,26,,,,,,,,,,4.5,4.4,1.0*3B
$GPRMC,214957.000,A,3748.5451,N,12217.8513,W,0.33,37.35,190712,,,A*4B
$GPVTG,37.35,T,,M,0.33,N,0.6,K,A*39
$GPGGA,214958.000,3748.5445,N,12217.8505,W,1,03,4.4,37.9,M,-25.1,M,,0000*5F
$GPGSA,A,2,04,08,26,,,,,,,,,,4.5,4.4,1.0*3B
$GPGSV,3,1,10,17,79,059,18,26,35,221,29,08,30,131,32,04,20,161,20*74
$GPGSV,3,2,10,28,49,055,27,27,40,314,34,09,24,316,28,01,16,047,17*79
$GPGSV,3,3,10,11,02,038,,51,43,156,31*72
$GPRMC,214958.000,A,3748.5445,N,12217.8505,W,0.52,151.32,190712,,,A*77
$GPVTG,151.32,T,,M,0.52,N,1.0,K,A*0F
$GPGGA,214959.000,3748.5445,N,12217.8499,W,1,03,4.4,37.9,M,-25.1,M,,0000*5A
$GPGSA,A,2,04,08,26,,,,,,,,,,4.5,4.4,1.0*3B
$GPRMC,214959.000,A,3748.5445,N,12217.8499,W,0.02,141.44,190712,,,A*77
$GPVTG,141.44,T,,M,0.02,N,0.0,K,A*0B
$GPGGA,215000.000,3748.5446,N,12217.8495,W,1,03,4.4,37.7,M,-25.1,M,,0000*5F
$GPGSA,A,2,04,08,26,,,,,,,,,,4.5,4.4,1.0*3B
$GPRMC,215000.000,A,3748.5446,N,12217.8495,W,0.27,19.31,190712,,,A*45
$GPVTG,19.31,T,,M,0.27,N,0.5,K,A*37
$GPGGA,215001.000,3748.5449,N,12217.8492,W,1,03,4.4,37.6,M,-25.1,M,,0000*57
$GPGSA,A,2,04,08,26,,,,,,,,,,4.5,4.4,1.0*3B
$GPRMC,215001.000,A,3748.5449,N,12217.8492,W,0.82,4.93,190712,,,A*77
$GPVTG,4.93,T,,M,0.82,N,1.5,K,A*0D
$GPGGA,215002.000,3748.5452,N,12217.8489,W,1,03,4.4,37.7,M,-25.1,M,,0000*55
$GPGSA,A,2,04,08,26,,,,,,,,,,4.5,4.4,1.0*3B
$GPRMC,215002.000,A,3748.5452,N,12217.8489,W,1.35,5.76,190712,,,A*73
$GPVTG,5.76,T,,M,1.35,N,2.5,K,A*09
$GPGGA,215003.000,3748.5453,N,12217.8488,W,1,03,4.4,37.8,M,-25.1,M,,0000*5B
$GPGSA,A,2,04,08,26,,,,,,,,,,4.5,4.4,1.0*3B
$GPGSV,3,1,10,17,79,059,17,26,35,221,28,08,30,131,32,04,20,161,29*73
$GPGSV,3,2,10,28,49,055,28,27,40,314,33,09,24,316,29,01,16,047,17*70
$GPGSV,3,3,10,11,02,038,,51,43,156,31*72
$GPRMC,215003.000,A,3748.5453,N,12217.8488,W,0.87,0.06,190712,,,A*78
$GPVTG,0.06,T,,M,0.87,N,1.6,K,A*03
$GPGGA,215004.000,3748.5453,N,12217.8487,W,1,04,1.9,38.0,M,-25.1,M,,0000*5B
$GPGSA,A,3,17,04,08,26,,,,,,,,,2.2,1.9,1.0*35
$GPRMC,215004.000,A,3748.5453,N,12217.8487,W,1.12,1.69,190712,,,A*75
$GPVTG,1.69,T,,M,1.12,N,2.1,K,A*02
$GPGGA,215005.000,3748.5447,N,12217.8487,W,1,04,1.9,37.5,M,-25.1,M,,0000*55
$GPGSA,A,3,17,04,08,26,,,,,,,,,2.2,1.9,1.0*35
$GPRMC,215005.000,A,3748.5447,N,12217.8487,W,1.31,359.79,190712,,,A*7F
$GPVTG,359.79,T,,M,1.31,N,2.4,K,A*09
$GPGGA,215006.000,3748.5441,N,12217.8487,W,1,04,1.9,37.2,M,-25.1,M,,0000*57
$GPGSA,A,3,17,04,08,26,,,,,,,,,2.2,1.9,1.0*35
$GPRMC,215006.000,A,3748.5441,N,12217.8487,W,0.48,354.00,190712,,,A*76
$GPVTG,354.00,T,,M,0.48,N,0.9,K,A*0A
$GPGGA,215007.000,3748.5446,N,12217.8487,W,1,04,1.9,37.6,M,-25.1,M,,0000*55
$GPGSA,A,3,17,04,08,26,,,,,,,,,2.2,1.9,1.0*35
$GPRMC,215007.000,A,3748.5446,N,12217.8487,W,0.62,357.36,190712,,,A*7E
$GPVTG,357.36,T,,M,0.62,N,1.1,K,A*0D
$GPGGA,215008.000,3748.5452,N,12217.8487,W,1,04,1.9,38.2,M,-25.1,M,,0000*54
$GPGSA,A,3,17,04,08,26,,,,,,,,,2.2,1.9,1.0*35
$GPGSV,3,1,10,17,79,059,21,26,35,221,28,08,30,131,32,04,20,161,30*7E
$GPGSV,3,2,10,28,49,055,28,27,40,314,33,09,24,316,28,01,16,047,17*71
$GPGSV,3,3,10,11,02,038,,51,43,156,27*75
$GPVTG,356.83,T,,M,0.98,N,1.8,K,A*0E
$GPGGA,215009.000,3748.5463,N,12217.8486,W,1,04,1.9,39.1,M,-25.1,M,,0000*54
$GPGSA,A,3,17,04,08,26,,,,,,,,,2.2,1.9,1.0*35
$GPRMC,215009.000,A,3748.5463,N,12217.8486,W,1.76,2.99,190712,,,A*74
$GPVTG,2.99,T,,M,1.76,N,3.3,K,A*0F
$GPGGA,215010.000,3748.5469,N,12217.8482,W,1,04,1.9,39.7,M,-25.1,M,,0000*54
$GPGSA,A,3,17,04,08,26,,,,,,,,,2.2,1.9,1.0*35
$GPRMC,215010.000,A,3748.5469,N,12217.8482,W,1.29,4.10,190712,,,A*7F
$GPVTG,4.10,T,,M,1.29,N,2.4,K,A*04
$GPGGA,215011.000,3748.5461,N,12217.8477,W,1,04,1.9,39.6,M,-25.1,M,,0000*56
$GPGSA,A,3,17,04,08,26,,,,,,,,,2.2,1.9,1.0*35
$GPRMC,215011.000,A,3748.5461,N,12217.8477,W,0.46,83.53,190712,,,A*4C
$GPVTG,83.53,T,,M,0.46,N,0.9,K,A*3B
$GPGGA,215012.000,3748.5454,N,12217.8474,W,1,04,1.9,39.4,M,-25.1,M,,0000*52
$GPGSA,A,3,17,04,08,26,,,,,,,,,2.2,1.9,1.0*35
$GPRMC,215012.000,A,3748.5454,N,12217.8474,W,0.40,110.18,190712,,,A*78
$GPVTG,110.18,T,,M,0.40,N,0.7,K,A*07
$GPGGA,215013.000,3748.5448,N,12217.8477,W,1,04,1.9,38.9,M,-25.1,M,,0000*51
$GPGSA,A,3,17,04,08,26,,,,,,,,,2.2,1.9,1.0*35
$GPGSV,3,1,10,17,79,059,30,26,35,221,24,08,30,131,32,04,20,161,31*73
$GPGSV,3,2,10,28,49,055,29,27,40,314,30,09,24,316,31,01,16,047,18*74
$GPGSV,3,3,10,11,02,038,,51,43,156,26*74
$GPRMC,215013.000,A,3748.5448,N,12217.8477,W,0.42,246.47,190712,,,A*7F
$GPVTG,246.47,T,,M,0.42,N,0.8,K,A*00
$GPGGA,215014.000,3748.5445,N,12217.8480,W,1,04,1.9,38.4,M,-25.1,M,,0000*5E
$GPGSA,A,3,17,04,08,26,,,,,,,,,2.2,1.9,1.0*35
$GPRMC,215014.000,A,3748.5445,N,12217.8480,W,0.25,213.11,190712,,,A*7F
$GPVTG,213.11,T,,M,0.25,N,0.5,K,A*0F
$GPGGA,215015.000,3748.5446,N,12217.8479,W,1,04,1.9,38.3,M,-25.1,M,,0000*5D
$GPGSA,A,3,17,04,08,26,,,,,,,,,2.2,1.9,1.0*35
$GPRMC,215015.000,A,3748.5446,N,12217.8479,W,0.44,310.11,190712,,,A*7E
$GPVTG,310.11,T,,M,0.44,N,0.8,K,A*07
$GPGGA,215016.000,3748.5444,N,12217.8489,W,1,04,1.9,38.1,M,-25.1,M,,0000*51
$GPGSA,A,3,17,04,08,26,,,,,,,,,2.2,1.9,1.0*35
$GPRMC,215016.000,A,3748.5444,N,12217.8489,W,0.29,302.38,190712,,,A*73
$GPVTG,302.38,T,,M,0.29,N,0.5,K,A*09
$GPGGA,215017.000,3748.5444,N,12217.8494,W,1,04,1.9,38.0,M,-25.1,M,,0000*5D
$GPGSA,A,3,17,04,08,26,,,,,,,,,2.2,1.9,1.0*35
$GPRMC,215017.000,A,3748.5444,N,12217.8494,W,0.50,39.15,190712,,,A*44
$GPVTG,39.15,T,,M,0.50,N,0.9,K,A*3F
$GPGGA,215018.000,3748.5441,N,12217.8493,W,1,04,1.9,38.3,M,-25.1,M,,0000*53
$GPGSA,A,3,17,04,08,26,,,,,,,,,2.2,1.9,1.0*35
$GPGSV,3,1,10,17,79,057,30,28,49,056,31,27,41,314,30,26,34,220,24*75
$GPGSV,3,2,10,08,29,131,31,09,25,316,32,04,20,160,28,01,16,046,17*79
$GPGSV,3,3,10,11,02,037,,51,43,156,24*79
$GPRMC,215018.000,A,3748.5441,N,12217.8493,W,0.42,196.87,190712,,,A*75
$GPVTG,196.87,T,,M,0.42,N,0.8,K,A*02
$GPGGA,215019.000,3748.5438,N,12217.8495,W,1,04,1.9,38.9,M,-25.1,M,,0000*50
$GPGSA,A,3,17,04,08,26,,,,,,,,,2.2,1.9,1.0*35
$GPRMC,215019.000,A,3748.5438,N,12217.8495,W,0.43,153.25,190712,,,A*7C
$GPVTG,153.25,T,,M,0.43,N,0.8,K,A*02
$GPGGA,215020.000,3748.5438,N,12217.8496,W,1,04,1.9,39.6,M,-25.1,M,,0000*57
$GPGSA,A,3,17,04,08,26,,,,,,,,,2.2,1.9,1.0*35
$GPRMC,215020.000,A,3748.5438,N,12217.8496,W,0.35,325.79,190712,,,A*7E
$GPVTG,325.79,T,,M,0.35,N,0.6,K,A*07
$GPGGA,215021.000,3748.5439,N,12217.8498,W,1,04,1.9,40.3,M,-25.1,M,,0000*52
$GPGSA,A,3,17,04,08,26,,,,,,,,,2.2,1.9,1.0*35
$GPRMC,215021.000,A,3748.5439,N,12217.8498,W,0.31,284.23,190712,,,A*71
$GPVTG,284.23,T,,M,0.31,N,0.6,K,A*06
$GPGGA,215022.000,3748.5438,N,12217.8504,W,1,04,1.9,40.2,M,-25.1,M,,0000*55
$GPGSA,A,3,17,04,08,26,,,,,,,,,2.2,1.9,1.0*35
$GPRMC,215022.000,A,3748.5438,N,12217.8504,W,0.59,216.63,190712,,,A*76
$GPVTG,216.63,T,,M,0.59,N,1.1,K,A*01
$GPGGA,215023.000,3748.5433,N,12217.8501,W,1,04,1.9,40.2,M,-25.1,M,,0000*5A
$GPGSA,A,3,17,04,08,26,,,,,,,,,2.2,1.9,1.0*35
$GPGSV,3,1,10,17,79,057,23,28,49,056,30,27,41,314,27,26,34,220,27*73
$GPGSV,3,2,10,08,29,131,27,09,25,316,27,04,20,160,29,01,16,046,20*7F
$GPGSV,3,3,10,11,02,037,,51,43,156,29*74
$GPRMC,215023.000,A,3748.5433,N,12217.8501,W,0.63,160.53,190712,,,A*71
$GPVTG,160.53,T,,M,0.63,N,1.2,K,A*0A
$GPGGA,215024.000,3748.5434,N,12217.8504,W,1,04,1.9,40.2,M,-25.1,M,,0000*5F
$GPGSA,A,3,17,04,08,26,,,,,,,,,2.2,1.9,1.0*35
$GPRMC,215024.000,A,3748.5434,N,12217.8504,W,0.16,284.81,190712,,,A*70
$GPVTG,284.81,T,,M,0.16,N,0.3,K,A*0E
$GPGGA,215025.000,3748.5431,N,12217.8509,W,1,04,1.9,40.2,M,-25.1,M,,0000*56
$GPGSA,A,3,17,04,08,26,,,,,,,,,2.2,1.9,1.0*35
$GPRMC,215025.000,A,3748.5431,N,12217.8509,W,0.67,217.50,190712,,,A*79
$GPVTG,217.50,T,,M,0.67,N,1.2,K,A*0E
$GPGGA,215026.000,3748.5434,N,12217.8512,W,1,04,1.9,40.0,M,-25.1,M,,0000*58
$GPGSA,A,3,17,04,08,26,,,,,,,,,2.2,1.9,1.0*35
$GPRMC,215026.000,A,3748.5434,N,12217.8512,W,0.87,337.35,190712,,,A*7B
$GPVTG,337.35,T,,M,0.87,N,1.6,K,A*04
$GPGGA,215027.000,3748.5430,N,12217.8515,W,1,04,1.9,40.1,M,-25.1,M,,0000*5B
$GPGSA,A,3,17,04,08,26,,,,,,,,,2.2,1.9,1.0*35
$GPRMC,215027.000,A,3748.5430,N,12217.8515,W,0.96,192.63,190712,,,A*77
$GPVTG,192.63,T,,M,0.96,N,1.8,K,A*04
$GPGGA,215028.000,3748.5428,N,12217.8515,W,1,04,1.9,39.9,M,-25.1,M,,0000*5B
$GPGSA,A,3,17,04,08,26,,,,,,,,,2.2,1.9,1.0*35
$GPGSV,3,1,09,17,79,057,23,28,49,056,27,27,41,314,29,26,34,220,28*7C
$GPGSV,3,2,09,08,29,131,34,09,25,316,28,04,20,160,36,01,16,046,19*7E
$GPGSV,3,3,09,11,02,037,*46
$GPRMC,215028.000,A,3748.5428,N,12217.8515,W,0.96,24.06,190712,,,A*4E
$GPVTG,24.06,T,,M,0.96,N,1.8,K,A*3B
$GPGGA,215029.000,3748.5429,N,12217.8514,W,1,04,1.9,39.7,M,-25.1,M,,0000*54
$GPGSA,A,3,17,04,08,26,,,,,,,,,2.2,1.9,1.0*35
$GPRMC,215029.000,A,3748.5429,N,12217.8514,W,1.33,2.05,190712,,,A*76
$GPVTG,2.05,T,,M,1.33,N,2.5,K,A*0C
$GPGGA,215030.000,3748.5428,N,12217.8517,W,1,04,1.9,39.4,M,-25.1,M,,0000*5D
$GPGSA,A,3,17,04,08,26,,,,,,,,,2.2,1.9,1.0*35
$GPRMC,215030.000,A,3748.5428,N,12217.8517,W,0.38,254.79,190712,,,A*7C
$GPVTG,254.79,T,,M,0.38,N,0.7,K,A*0C
$GPGGA,215031.000,3748.5427,N,12217.8519,W,1,04,1.9,39.5,M,-25.1,M,,0000*5C
$GPGSA,A,3,17,04,08,26,,,,,,,,,2.2,1.9,1.0*35
$GPRMC,215031.000,A,3748.5427,N,12217.8519,W,0.66,256.48,190712,,,A*77
$GPVTG,256.48,T,,M,0.66,N,1.2,K,A*03
$GPGGA,215032.000,3748.5429,N,12217.8520,W,1,04,1.9,40.0,M,-25.1,M,,0000*50
$GPGSA,A,3,17,04,08,26,,,,,,,,,2.2,1.9,1.0*35
$GPRMC,215032.000,A,3748.5429,N,12217.8520,W,0.28,291.57,190712,,,A*7F
$GPVTG,291.57,T,,M,0.28,N,0.5,K,A*0A
$GPGGA,215033.000,3748.5427,N,12217.8521,W,1,04,1.9,40.4,M,-25.1,M,,0000*5A
$GPGSA,A,3,17,04,08,26,,,,,,,,,2.2,1.9,1.0*35
$GPGSV,3,1,09,17,79,057,26,28,49,056,30,27,41,314,32,26,34,220,26*7B
$GPGSV,3,2,09,08,29,131,27,09,25,316,29,04,20,160,26,01,16,046,18*7D
$GPGSV,3,3,09,11,02,037,*46
$GPRMC,215033.000,A,3748.5427,N,12217.8521,W,0.21,275.87,190712,,,A*7F
$GPGGA,215034.000,3748.5421,N,12217.8523,W,1,04,1.9,40.6,M,-25.1,M,,0000*5B
$GPGSA,A,3,17,04,08,26,,,,,,,,,2.2,1.9,1.0*35
$GPRMC,215034.000,A,3748.5421,N,12217.8523,W,0.18,287.77,190712,,,A*74
$GPVTG,287.77,T,,M,0.18,N,0.3,K,A*0A
$GPGGA,215035.000,3748.5422,N,12217.8521,W,1,04,1.9,41.3,M,-25.1,M,,0000*5F
$GPGSA,A,3,17,04,08,26,,,,,,,,,2.2,1.9,1.0*35
$GPRMC,215035.000,A,3748.5422,N,12217.8521,W,0.54,325.74,190712,,,A*76
$GPVTG,325.74,T,,M,0.54,N,1.0,K,A*0A
$GPGGA,215036.000,3748.5418,N,12217.8520,W,1,04,1.9,41.1,M,-25.1,M,,0000*56
$GPGSA,A,3,17,04,08,26,,,,,,,,,2.2,1.9,1.0*35
$GPRMC,215036.000,A,3748.5418,N,12217.8520,W,0.05,229.58,190712,,,A*7A
$GPVTG,229.58,T,,M,0.05,N,0.1,K,A*0D
$GPGGA,215037.000,3748.5417,N,12217.8522,W,1,04,1.9,40.9,M,-25.1,M,,0000*53
$GPGSA,A,3,17,04,08,26,,,,,,,,,2.2,1.9,1.0*35
$GPRMC,215037.000,A,3748.5417,N,12217.8522,W,0.37,65.62,190712,,,A*44
$GPVTG,65.62,T,,M,0.37,N,0.7,K,A*39
$GPGGA,215038.000,3748.5416,N,12217.8522,W,1,04,1.9,40.8,M,-25.1,M,,0000*5C
$GPGSA,A,3,17,04,08,26,,,,,,,,,2.2,1.9,1.0*35
$GPGSV,3,1,09,17,79,057,25,28,49,056,30,27,41,314,33,26,34,220,26*79
$GPGSV,3,2,09,08,29,131,31,09,25,316,35,04,20,160,30,01,16,046,17*7F
$GPGSV,3,3,09,11,02,037,*46
$GPRMC,215038.000,A,3748.5416,N,12217.8522,W,0.46,171.57,190712,,,A*7E
$GPVTG,171.57,T,,M,0.46,N,0.9,K,A*03
$GPGGA,215039.000,3748.5418,N,12217.8525,W,1,04,1.9,40.8,M,-25.1,M,,0000*54
$GPGSA,A,3,17,04,08,26,,,,,,,,,2.2,1.9,1.0*35
$GPRMC,215039.000,A,3748.5418,N,12217.8525,W,0.34,110.71,190712,,,A*70
$GPVTG,110.71,T,,M,0.34,N,0.6,K,A*0A
$GPGGA,215040.000,3748.5425,N,12217.8521,W,1,04,1.9,40.7,M,-25.1,M,,0000*5F
$GPGSA,A,3,17,04,08,26,,,,,,,,,2.2,1.9,1.0*35
$GPRMC,215040.000,A,3748.5425,N,12217.8521,W,0.37,245.99,190712,,,A*72
$GPVTG,245.99,T,,M,0.37,N,0.7,K,A*0D
$GPGGA,215041.000,3748.5427,N,12217.8519,W,1,04,1.9,40.4,M,-25.1,M,,0000*54
$GPGSA,A,3,17,04,08,26,,,,,,,,,2.2,1.9,1.0*35
$GPRMC,215041.000,A,3748.5427,N,12217.8519,W,0.13,255.92,190712,,,A*76
$GPVTG,255.92,T,,M,0.13,N,0.2,K,A*04
$GPGGA,215042.000,3748.5427,N,12217.8512,W,1,04,1.9,40.7,M,-25.1,M,,0000*5F
$GPGSA,A,3,17,04,08,26,,,,,,,,,2.2,1.9,1.0*35
$GPRMC,215042.000,A,3748.5427,N,12217.8512,W,1.11,78.19,190712,,,A*43
$GPVTG,78.19,T,,M,1.11,N,2.1,K,A*38
$GPGGA,215043.000,3748.5431,N,12217.8505,W,1,04,1.9,40.6,M,-25.1,M,,0000*5E
$GPGSA,A,3,17,04,08,26,,,,,,,,,2.2,1.9,1.0*35
$GPGSV,3,1,09,17,79,057,20,28,49,056,26,27,41,314,28,26,34,220,19*7D
$GPGSV,3,2,09,08,29,131,25,09,25,316,31,04,20,160,36,01,16,046,17*78
$GPGSV,3,3,09,11,02,037,*46
$GPRMC,215043.000,A,3748.5431,N,12217.8505,W,1.65,53.17,190712,,,A*47
$GPVTG,53.17,T,,M,1.65,N,3.1,K,A*3D
$GPGGA,215044.000,3748.5431,N,12217.8491,W,1,04,1.9,41.0,M,-25.1,M,,0000*52
$GPGSA,A,3,17,04,08,26,,,,,,,,,2.2,1.9,1.0*35
$GPRMC,215044.000,A,3748.5431,N,12217.8491,W,1.07,52.01,190712,,,A*4E
$GPVTG,52.01,T,,M,1.07,N,2.0,K,A*3F
$GPGGA,215045.000,3748.5429,N,12217.8478,W,1,04,1.9,41.5,M,-25.1,M,,0000*58
$GPGSA,A,3,17,04,08,26,,,,,,,,,2.2,1.9,1.0*35
$GPRMC,215045.000,A,3748.5429,N,12217.8478,W,0.78,83.11,190712,,,A*45
$GPVTG,83.11,T,,M,0.78,N,1.5,K,A*3D
$GPGGA,215046.000,3748.5419,N,12217.8476,W,1,04,1.9,40.7,M,-25.1,M,,0000*55
$GPGSA,A,3,17,04,08,26,,,,,,,,,2.2,1.9,1.0*35
$GPRMC,215046.000,A,3748.5419,N,12217.8476,W,0.54,99.08,190712,,,A*46
$GPVTG,99.08,T,,M,0.54,N,1.0,K,A*35
$GPGGA,215047.000,3748.5413,N,12217.8480,W,1,04,1.9,40.3,M,-25.1,M,,0000*53
$GPGSA,A,3,17,04,08,26,,,,,,,,,2.2,1.9,1.0*35
$GPRMC,215047.000,A,3748.5413,N,12217.8480,W,0.35,141.22,190712,,,A*7F
$GPVTG,141.22,T,,M,0.35,N,0.6,K,A*09
$GPGGA,215048.000,3748.5409,N,12217.8485,W,1,04,1.9,40.2,M,-25.1,M,,0000*53
$GPGSA,A,3,17,04,08,26,,,,,,,,,2.2,1.9,1.0*35
$GPGSV,3,1,09,17,79,057,25,28,49,056,32,27,41,314,30,26,34,220,20*7E
$GPGSV,3,2,09,08,29,131,27,09,25,316,25,04,20,160,36,01,16,046,18*70
$GPGSV,3,3,09,11,02,037,*46
$GPRMC,215048.000,A,3748.5409,N,12217.8485,W,0.44,83.22,190712,,,A*47
$GPVTG,83.22,T,,M,0.44,N,0.8,K,A*3E
$GPGGA,215049.000,3748.5406,N,12217.8492,W,1,04,1.9,40.0,M,-25.1,M,,0000*59
$GPGSA,A,3,17,04,08,26,,,,,,,,,2.2,1.9,1.0*35
$GPRMC,215049.000,A,3748.5406,N,12217.8492,W,0.07,25.54,190712,,,A*45
$GPVTG,25.54,T,,M,0.07,N,0.1,K,A*3D
$GPGGA,215050.000,3748.5403,N,12217.8500,W,1,04,1.9,39.8,M,-25.1,M,,0000*58
$GPGSA,A,3,17,04,08,26,,,,,,,,,2.2,1.9,1.0*35
$GPRMC,215050.000,A,3748.5403,N,12217.8500,W,0.38,120.96,190712,,,A*74
$GPVTG,120.96,T,,M,0.38,N,0.7,K,A*0D
$GPGGA,215051.000,3748.5400,N,12217.8503,W,1,04,1.9,39.6,M,-25.1,M,,0000*57
$GPGSA,A,3,17,04,08,26,,,,,,,,,2.2,1.9,1.0*35
$GPRMC,215051.000,A,3748.5400,N,12217.8503,W,0.34,318.89,190712,,,A*7E
$GPVTG,318.89,T,,M,0.34,N,0.6,K,A*07
$GPGGA,215052.000,3748.5402,N,12217.8505,W,1,03,3.6,40.0,M,-25.1,M,,0000*52
$GPGSA,A,2,17,04,08,,,,,,,,,,3.8,3.6,1.0*36
$GPRMC,215052.000,A,3748.5402,N,12217.8505,W,0.31,230.34,190712,,,A*71
$GPVTG,230.34,T,,M,0.31,N,0.6,K,N*00
$GPGGA,215053.000,3748.5402,N,12217.8496,W,1,04,1.9,40.5,M,-25.1,M,,0000*57
$GPGSA,A,3,17,04,08,26,,,,,,,,,2.2,1.9,1.0*35
$GPGSV,3,1,09,17,79,057,25,28,49,056,32,27,41,314,30,26,34,220,16*7B
$GPGSV,3,2,09,08,29,131,27,09,25,316,27,04,20,160,36,01,16,046,18*72
$GPGSV,3,3,09,11,02,037,*46
$GPRMC,215053.000,A,3748.5402,N,12217.8496,W,1.19,103.34,190712,,,A*73
$GPVTG,103.34,T,,M,1.19,N,2.2,K,A*01
$GPGGA,215054.000,3748.5401,N,12217.8484,W,1,04,1.9,41.2,M,-25.1,M,,0000*56
$GPGSA,A,3,17,04,08,26,,,,,,,,,2.2,1.9,1.0*35
$GPRMC,215054.000,A,3748.5401,N,12217.8484,W,0.87,69.16,190712,,,A*4F
$GPVTG,69.16,T,,M,0.87,N,1.6,K,A*3D
$GPGGA,215055.000,3748.5402,N,12217.8470,W,1,04,1.9,42.1,M,-25.1,M,,0000*5F
$GPGSA,A,3,17,04,08,26,,,,,,,,,2.2,1.9,1.0*35
$GPRMC,215055.000,A,3748.5402,N,12217.8470,W,0.91,58.38,190712,,,A*4F
$GPVTG,58.38,T,,M,0.91,N,1.7,K,A*35
$GPGGA,215056.000,3748.5401,N,12217.8467,W,1,04,1.9,43.7,M,-25.1,M,,0000*5E
$GPGSA,A,3,17,04,08,26,,,,,,,,,2.2,1.9,1.0*35
$GPRMC,215056.000,A,3748.5401,N,12217.8467,W,0.24,156.26,190712,,,A*77
$GPVTG,156.26,T,,M,0.24,N,0.4,K,A*09
$GPGGA,215057.000,3748.5404,N,12217.8466,W,1,04,1.9,44.9,M,-25.1,M,,0000*52
$GPGSA,A,3,17,04,08,26,,,,,,,,,2.2,1.9,1.0*35
$GPRMC,215057.000,A,3748.5404,N,12217.8466,W,1.33,54.20,190712,,,A*40
$GPVTG,54.20,T,,M,1.33,N,2.5,K,A*38
$GPGGA,215058.000,3748.5408,N,12217.8469,W,1,04,1.9,46.3,M,-25.1,M,,0000*56
$GPGSA,A,3,17,04,08,26,,,,,,,,,2.2,1.9,1.0*35
$GPGSV,3,1,09,17,79,057,23,28,49,056,32,27,41,314,30,26,34,220,20*78
$GPGSV,3,2,09,08,29,131,25,09,25,316,26,04,20,160,37,01,16,046,19*71
$GPGSV,3,3,09,11,02,037,*46
$GPRMC,215058.000,A,3748.5408,N,12217.8469,W,0.68,349.81,190712,,,A*77
$GPGGA,215059.000,3748.5413,N,12217.8463,W,1,03,2.2,46.5,M,-25.1,M,,0000*5E
$GPGSA,A,2,17,04,26,,,,,,,,,,2.4,2.2,1.0*32
$GPRMC,215059.000,A,3748.5413,N,12217.8463,W,0.60,36.57,190712,,,A*4E
$GPVTG,36.57,T,,M,0.60,N,1.1,K,A*3C
$GPGGA,215100.000,3748.5414,N,12217.8465,W,1,03,2.2,46.2,M,-25.1,M,,0000*55
$GPGSA,A,2,17,04,26,,,,,,,,,,2.4,2.2,1.0*32
$GPRMC,215100.000,A,3748.5414,N,12217.8465,W,0.29,256.86,190712,,,A*77
$GPVTG,256.86,T,,M,0.29,N,0.5,K,A*0C
$GPGGA,215101.000,3748.5415,N,12217.8467,W,1,04,1.9,46.4,M,-25.1,M,,0000*5E
$GPGSA,A,3,17,04,08,26,,,,,,,,,2.2,1.9,1.0*35
$GPRMC,215101.000,A,3748.5415,N,12217.8467,W,0.30,35.93,190712,,,A*4E
$GPVTG,35.93,T,,M,0.30,N,0.5,K,A*37
$GPGGA,215102.000,3748.5415,N,12217.8467,W,1,04,1.9,47.1,M,-25.1,M,,0000*59
$GPGSA,A,3,17,04,08,26,,,,,,,,,2.2,1.9,1.0*35
$GPRMC,215102.000,A,3748.5415,N,12217.8467,W,0.32,346.03,190712,,,A*71
$GPVTG,346.03,T,,M,0.32,N,0.6,K,A*08
$GPGGA,215103.000,3748.5413,N,12217.8479,W,1,04,1.9,46.8,M,-25.1,M,,0000*59
$GPGSA,A,3,17,04,08,26,,,,,,,,,2.2,1.9,1.0*35
$GPGSV,3,1,09,17,79,057,29,28,49,056,32,27,41,314,30,26,34,220,22*70
$GPGSV,3,2,09,08,29,131,24,09,25,316,27,04,20,160,37,01,16,046,22*79
$GPGSV,3,3,09,11,02,037,*46
$GPRMC,215103.000,A,3748.5413,N,12217.8479,W,0.60,278.51,190712,,,A*75
$GPVTG,278.51,T,,M,0.60,N,1.1,K,A*02
$GPGGA,215104.000,3748.5415,N,12217.8487,W,1,04,1.9,46.5,M,-25.1,M,,0000*54
$GPGSA,A,3,17,04,08,26,,,,,,,,,2.2,1.9,1.0*35
$GPRMC,215104.000,A,3748.5415,N,12217.8487,W,0.80,346.55,190712,,,A*73
$GPVTG,346.55,T,,M,0.80,N,1.5,K,A*00
$GPGGA,215105.000,3748.5415,N,12217.8493,W,1,04,1.9,46.3,M,-25.1,M,,0000*56
$GPGSA,A,3,17,04,08,26,,,,,,,,,2.2,1.9,1.0*35
$GPRMC,215105.000,A,3748.5415,N,12217.8493,W,0.25,331.92,190712,,,A*73
$GPVTG,331.92,T,,M,0.25,N,0.5,K,A*05
$GPGGA,215106.000,3748.5416,N,12217.8493,W,1,04,1.9,46.3,M,-25.1,M,,0000*56
$GPGSA,A,3,17,04,08,26,,,,,,,,,2.2,1.9,1.0*35
$GPRMC,215106.000,A,3748.5416,N,12217.8493,W,0.17,29.92,190712,,,A*48
$GPVTG,29.92,T,,M,0.17,N,0.3,K,A*38
$GPGGA,215107.000,3748.5416,N,12217.8495,W,1,04,1.9,46.7,M,-25.1,M,,0000*55
$GPGSA,A,3,17,04,08,26,,,,,,,,,2.2,1.9,1.0*35
$GPRMC,215107.000,A,3748.5416,N,12217.8495,W,0.83,76.93,190712,,,A*49
$GPVTG,76.93,T,,M,0.83,N,1.5,K,A*39
$GPGGA,215108.000,3748.5414,N,12217.8496,W,1,04,1.9,46.9,M,-25.1,M,,0000*55
$GPGSA,A,3,17,04,08,26,,,,,,,,,2.2,1.9,1.0*35
$GPGSV,3,1,09,17,79,057,26,28,49,056,28,27,41,314,30,26,34,220,23*75
$GPGSV,3,2,09,08,29,131,25,09,25,316,30,04,20,160,32,01,16,046,21*78
$GPGSV,3,3,09,11,02,037,*46
$GPRMC,215108.000,A,3748.5414,N,12217.8496,W,0.74,81.78,190712,,,A*42
$GPVTG,81.78,T,,M,0.74,N,1.4,K,A*3D
$GPGGA,215109.000,3748.5413,N,12217.8499,W,1,04,1.9,47.4,M,-25.1,M,,0000*50
$GPGSA,A,3,17,04,08,26,,,,,,,,,2.2,1.9,1.0*35
$GPRMC,215109.000,A,3748.5413,N,12217.8499,W,0.29,352.70,190712,,,A*76
$GPVTG,352.70,T,,M,0.29,N,0.5,K,A*00
$GPGGA,215108.000,3748.5413,N,12217.8508,W,1,04,1.9,48.2,M,-25.1,M,,0000*51
$GPGSA,A,3,17,04,08,26,,,,,,,,,2.2,1.9,1.0*35
$GPRMC,215108.000,A,3748.5413,N,12217.8508,W,0.71,277.66,190712,,,A*72
$GPVTG,277.66,T,,M,0.71,N,1.3,K,A*0B
$GPGGA,215109.000,3748.5413,N,12217.8504,W,1,04,1.9,48.4,M,-25.1,M,,0000*5A
$GPGSA,A,3,17,04,08,26,,,,,,,,,2.2,1.9,1.0*35
$GPRMC,215109.000,A,3748.5413,N,12217.8504,W,0.35,354.83,190712,,,A*74
$GPVTG,354.83,T,,M,0.35,N,0.6,K,A*04
$GPGGA,215110.000,3748.5412,N,12217.8498,W,1,04,1.9,48.1,M,-25.1,M,,0000*52
$GPGSA,A,3,17,04,08,26,,,,,,,,,2.2,1.9,1.0*35
$GPRMC,215110.000,A,3748.5412,N,12217.8498,W,0.36,20.53,190712,,,A*47
$GPVTG,20.53,T,,M,0.36,N,0.7,K,A*3B
$GPGGA,215111.000,3748.5408,N,12217.8499,W,1,04,1.9,47.1,M,-25.1,M,,0000*56
$GPGSA,A,3,17,04,08,26,,,,,,,,,2.2,1.9,1.0*35
$GPGSV,3,1,09,17,79,057,24,28,49,056,23,27,41,314,27,26,34,220,24*7D
$GPGSV,3,2,09,08,29,131,20,09,25,316,28,04,20,160,33,01,16,046,17*70
$GPGSV,3,3,09,11,02,037,*46
$GPRMC,215111.000,A,3748.5408,N,12217.8499,W,0.99,298.47,190712,,,A*7D
$GPVTG,298.47,T,,M,0.99,N,1.8,K,A*04
$GPGGA,215112.000,3748.5403,N,12217.8505,W,1,04,1.9,47.4,M,-25.1,M,,0000*5F
$GPGSA,A,3,17,04,08,26,,,,,,,,,2.1,1.9,1.0*36
$GPRMC,215112.000,A,3748.5403,N,12217.8505,W,1.04,249.02,190712,,,A*79
$GPVTG,249.02,T,,M,1.04,N,1.9,K,A*0D
$GPGGA,215113.000,3748.5404,N,12217.8512,W,1,04,1.9,48.2,M,-25.1,M,,0000*56
$GPGSA,A,3,17,04,08,26,,,,,,,,,2.1,1.9,1.0*36
$GPRMC,215113.000,A,3748.5404,N,12217.8512,W,0.80,239.30,190712,,,A*72
$GPVTG,239.30,T,,M,0.80,N,1.5,K,A*0A
$GPGGA,215114.000,3748.5407,N,12217.8511,W,1,04,1.9,48.8,M,-25.1,M,,0000*5B
$GPGSA,A,3,17,04,08,26,,,,,,,,,2.1,1.9,1.0*36
$GPRMC,215114.000,A,3748.5407,N,12217.8511,W,0.33,23.93,190712,,,A*4D
$GPVTG,23.93,T,,M,0.33,N,0.6,K,A*30
$GPGGA,215115.000,3748.5405,N,12217.8509,W,1,04,1.9,49.0,M,-25.1,M,,0000*58
$GPGSA,A,3,17,04,08,26,,,,,,,,,2.1,1.9,1.0*36
$GPRMC,215115.000,A,3748.5405,N,12217.8509,W,0.32,164.17,190712,,,A*78
$GPVTG,164.17,T,,M,0.32,N,0.6,K,A*0F
$GPGGA,215116.000,3748.5403,N,12217.8510,W,1,04,1.9,48.9,M,-25.1,M,,0000*5D
$GPGSA,A,3,17,04,08,26,,,,,,,,,2.1,1.9,1.0*36
$GPGSV,3,1,09,17,79,057,25,28,49,056,31,27,41,314,27,26,34,220,28*73
$GPGSV,3,2,09,08,29,131,27,09,25,316,29,04,20,160,32,01,16,046,18*78
$GPGSV,3,3,09,11,02,037,*46
$GPRMC,215116.000,A,3748.5403,N,12217.8510,W,0.28,161.67,190712,,,A*7C
$GPVTG,161.67,T,,M,0.28,N,0.5,K,A*05
$GPGGA,215117.000,3748.5397,N,12217.8515,W,1,04,1.9,48.8,M,-25.1,M,,0000*52
$GPGSA,A,3,17,04,08,26,,,,,,,,,2.1,1.9,1.0*36
$GPRMC,215117.000,A,3748.5397,N,12217.8515,W,0.49,234.90,190712,,,A*7E
$GPVTG,234.90,T,,M,0.49,N,0.9,K,A*05
$GPGGA,215118.000,3748.5394,N,12217.8517,W,1,04,1.9,48.7,M,-25.1,M,,0000*53
$GPGSA,A,3,17,04,08,26,,,,,,,,,2.1,1.9,1.0*36
$GPRMC,215118.000,A,3748.5394,N,12217.8517,W,0.19,53.58,190712,,,A*42
$GPVTG,53.58,T,,M,0.19,N,0.4,K,A*3A
$GPGGA,215119.000,3748.5391,N,12217.8519,W,1,04,1.9,48.5,M,-25.1,M,,0000*5B
$GPGSA,A,3,17,04,08,26,,,,,,,,,2.1,1.9,1.0*36
$GPRMC,215119.000,A,3748.5391,N,12217.8519,W,0.01,200.26,190712,,,A*7C
$GPVTG,200.26,T,,M,0.01,N,0.0,K,A*0A
$GPGGA,215120.000,3748.5390,N,12217.8520,W,1,04,1.9,48.2,M,-25.1,M,,0000*5D
$GPGSA,A,3,17,04,08,26,,,,,,,,,2.1,1.9,1.0*36
$GPRMC,215120.000,A,3748.5390,N,12217.8520,W,0.26,334.64,190712,,,A*78
$GPVTG,334.64,T,,M,0.26,N,0.5,K,A*0A
$GPGGA,215121.000,3748.5392,N,12217.8518,W,1,04,1.9,48.2,M,-25.1,M,,0000*55
$GPGSA,A,3,17,04,08,26,,,,,,,,,2.1,1.9,1.0*36
$GPGSV,3,1,09,17,79,057,26,28,49,056,25,27,41,314,27,26,34,220,31*7D
$GPGSV,3,2,09,08,29,131,27,09,25,316,27,04,20,160,32,01,16,046,17*79
$GPGSV,3,3,09,11,02,037,*46
$GPRMC,215121.000,A,3748.5392,N,12217.8518,W,0.16,304.21,190712,,,A*71
$GPGGA,215122.000,3748.5393,N,12217.8515,W,1,04,1.9,47.9,M,-25.1,M,,0000*5E
$GPGSA,A,3,17,04,08,26,,,,,,,,,2.1,1.9,1.0*36
$GPRMC,215122.000,A,3748.5393,N,12217.8515,W,0.15,344.50,190712,,,A*7F
$GPVTG,344.50,T,,M,0.15,N,0.3,K,A*0C
$GPGGA,215123.000,3748.5393,N,12217.8514,W,1,04,1.9,47.6,M,-25.1,M,,0000*51
$GPGSA,A,3,17,04,08,26,,,,,,,,,2.1,1.9,1.0*36
$GPRMC,215123.000,A,3748.5393,N,12217.8514,W,0.23,325.66,190712,,,A*78
$GPVTG,325.66,T,,M,0.23,N,0.4,K,A*0C
$GPGGA,215124.000,3748.5393,N,12217.8512,W,1,04,1.9,47.3,M,-25.1,M,,0000*55
$GPGSA,A,3,17,04,08,26,,,,,,,,,2.1,1.9,1.0*36
$GPRMC,215124.000,A,3748.5393,N,12217.8512,W,0.11,129.55,190712,,,A*76
$GPVTG,129.55,T,,M,0.11,N,0.2,K,A*05
$GPGGA,215125.000,3748.5392,N,12217.8511,W,1,04,1.9,47.1,M,-25.1,M,,0000*54
$GPGSA,A,3,17,04,08,26,,,,,,,,,2.1,1.9,1.0*36
$GPRMC,215125.000,A,3748.5392,N,12217.8511,W,0.02,312.69,190712,,,A*72
$GPVTG,312.69,T,,M,0.02,N,0.0,K,A*00
$GPGGA,215126.000,3748.5393,N,12217.8509,W,1,04,1.9,46.6,M,-25.1,M,,0000*59
$GPGSA,A,3,17,04,08,26,,,,,,,,,2.1,1.9,1.0*36
$GPGSV,3,1,09,17,79,057,27,28,49,056,25,27,41,314,26,26,34,220,31*7D
$GPGSV,3,2,09,08,29,131,28,09,25,316,28,04,20,160,33,01,16,046,19*76
$GPGSV,3,3,09,11,02,037,*46
$GPRMC,215126.000,A,3748.5393,N,12217.8509,W,0.20,19.77,190712,,,A*4E
$GPVTG,19.77,T,,M,0.20,N,0.4,K,A*33
$GPGGA,215127.000,3748.5393,N,12217.8509,W,1,04,1.9,46.4,M,-25.1,M,,0000*5A
$GPGSA,A,3,17,04,08,26,,,,,,,,,2.1,1.9,1.0*36
$GPRMC,215127.000,A,3748.5393,N,12217.8509,W,0.17,287.89,190712,,,A*7F
$GPVTG,287.89,T,,M,0.17,N,0.3,K,A*04
$GPGGA,215128.000,3748.5395,N,12217.8509,W,1,04,1.9,46.4,M,-25.1,M,,0000*53
$GPGSA,A,3,17,04,08,26,,,,,,,,,2.1,1.9,1.0*36
$GPRMC,215128.000,A,3748.5395,N,12217.8509,W,0.31,180.24,190712,,,A*71
$GPVTG,180.24,T,,M,0.31,N,0.6,K,A*06
$GPGGA,215129.000,3748.5400,N,12217.8509,W,1,04,1.9,46.5,M,-25.1,M,,0000*58
$GPGSA,A,3,17,04,08,26,,,,,,,,,2.1,1.9,1.0*36
$GPRMC,215129.000,A,3748.5400,N,12217.8509,W,0.58,59.63,190712,,,A*42
$GPVTG,59.63,T,,M,0.58,N,1.1,K,A*39
$GPGGA,215130.000,3748.5405,N,12217.8509,W,1,04,1.9,46.5,M,-25.1,M,,0000*55
$GPGSA,A,3,17,04,08,26,,,,,,,,,2.1,1.9,1.0*36
$GPRMC,215130.000,A,3748.5405,N,12217.8509,W,0.26,7.86,190712,,,A*76
$GPVTG,7.86,T,,M,0.26,N,0.5,K,A*05
$GPGGA,215131.000,3748.5410,N,12217.8509,W,1,04,1.9,46.7,M,-25.1,M,,0000*52
$GPGSA,A,3,17,04,08,26,,,,,,,,,2.1,1.9,1.0*36
$GPGSV,3,1,09,17,79,057,27,28,49,056,25,27,41,314,26,26,34,220,34*78
$GPGSV,3,2,09,08,29,131,32,09,25,316,29,04,20,160,26,01,16,046,*70
$GPGSV,3,3,09,11,02,037,*46
$GPVTG,342.20,T,,M,0.27,N,0.5,K,A*0A
$GPGGA,215132.000,3748.5412,N,12217.8506,W,1,04,1.9,47.2,M,-25.1,M,,0000*58
$GPGSA,A,3,17,04,08,26,,,,,,,,,2.1,1.9,1.0*36
$GPRMC,215132.000,A,3748.5412,N,12217.8506,W,0.33,24.24,190712,,,A*40
$GPVTG,24.24,T,,M,0.33,N,0.6,K,A*3B
$GPGGA,215133.000,3748.5419,N,12217.8506,W,1,04,1.9,47.0,M,-25.1,M,,0000*50
$GPGSA,A,3,17,04,08,26,,,,,,,,,2.1,1.9,1.0*36
$GPRMC,215133.000,A,3748.5419,N,12217.8506,W,0.82,38.81,190712,,,A*42
$GPVTG,38.81,T,,M,0.82,N,1.5,K,A*31
$GPGGA,215134.000,3748.5424,N,12217.8508,W,1,04,1.9,46.6,M,-25.1,M,,0000*50
$GPGSA,A,3,17,04,08,26,,,,,,,,,2.1,1.9,1.0*36
$GPRMC,215134.000,A,3748.5424,N,12217.8508,W,0.40,7.46,190712,,,A*7C
$GPVTG,7.46,T,,M,0.40,N,0.7,K,A*0B
$GPGGA,215135.000,3748.5434,N,12217.8509,W,1,04,1.9,45.6,M,-25.1,M,,0000*52
$GPGSA,A,3,17,04,08,26,,,,,,,,,2.1,1.9,1.0*36
$GPRMC,215135.000,A,3748.5434,N,12217.8509,W,1.06,43.19,190712,,,A*44
$GPVTG,43.19,T,,M,1.06,N,2.0,K,A*37
$GPGGA,215136.000,3748.5437,N,12217.8510,W,1,04,1.9,45.4,M,-25.1,M,,0000*58
$GPGSA,A,3,17,04,08,26,,,,,,,,,2.1,1.9,1.0*36
$GPGSV,3,1,09,17,79,057,27,28,49,056,33,27,41,314,25,26,34,220,29*70
$GPGSV,3,2,09,08,29,131,30,09,25,316,24,04,20,160,25,01,16,046,18*75
$GPGSV,3,3,09,11,02,037,*46
$GPRMC,215136.000,A,3748.5437,N,12217.8510,W,0.59,4.61,190712,,,A*7B
$GPVTG,4.61,T,,M,0.59,N,1.1,K,A*02
$GPGGA,215137.000,3748.5438,N,12217.8513,W,1,04,1.9,45.2,M,-25.1,M,,0000*53
$GPGSA,A,3,17,04,08,26,,,,,,,,,2.1,1.9,1.0*36
$GPRMC,215137.000,A,3748.5438,N,12217.8513,W,0.13,325.70,190712,,,A*78
$GPVTG,325.70,T,,M,0.13,N,0.2,K,A*0E
$GPGGA,215138.000,3748.5433,N,12217.8516,W,1,04,1.9,44.5,M,-25.1,M,,0000*54
$GPGSA,A,3,17,04,08,26,,,,,,,,,2.1,1.9,1.0*36
$GPRMC,215138.000,A,3748.5433,N,12217.8516,W,0.25,205.54,190712,,,A*79
$GPVTG,205.54,T,,M,0.25,N,0.5,K,A*09
$GPGGA,215139.000,3748.5430,N,12217.8516,W,1,04,1.9,44.7,M,-25.1,M,,0000*54
$GPGSA,A,3,17,04,08,26,,,,,,,,,2.1,1.9,1.0*36
$GPRMC,215139.000,A,3748.5430,N,12217.8516,W,0.13,296.65,190712,,,A*76
$GPVTG,296.65,T,,M,0.13,N,0.2,K,A*03
$GPGGA,215140.000,3748.5432,N,12217.8520,W,1,03,3.7,45.5,M,-25.1,M,,0000*55
$GPGSA,A,2,17,04,08,,,,,,,,,,3.8,3.7,1.0*37
$GPRMC,215140.000,A,3748.5432,N,12217.8520,W,0.89,281.97,190712,,,A*77
$GPVTG,281.97,T,,M,0.89,N,1.7,K,N*00
$GPGGA,215141.000,3748.5428,N,12217.8523,W,1,03,3.7,45.3,M,-25.1,M,,0000*5A
$GPGSA,A,2,17,04,08,,,,,,,,,,3.8,3.7,1.0*37
$GPGSV,3,1,09,17,79,057,20,28,49,056,18,27,41,314,24,26,34,220,11*74
$GPGSV,3,2,09,08,29,131,17,09,25,316,21,04,20,160,34,01,16,046,*7C
$GPGSV,3,3,09,11,02,037,*46
$GPRMC,215141.000,A,3748.5428,N,12217.8523,W,1.04,284.41,190712,,,A*74
$GPVTG,284.41,T,,M,1.04,N,1.9,K,N*04
$GPGGA,215142.000,3748.5429,N,12217.8526,W,6,00,50.0,45.3,M,-25.1,M,,0000*68
$GPGSA,A,2,,,,,,,,,,,,,50.0,50.0,50.0*06
$GPRMC,215142.000,A,3748.5429,N,12217.8526,W,1.04,284.41,190712,,,E*77
$GPVTG,284.41,T,,M,1.04,N,1.9,K,N*04
$GPGGA,215143.000,3748.5420,N,12217.8519,W,1,04,1.9,44.8,M,-25.1,M,,0000*58
$GPGSA,A,3,17,04,08,26,,,,,,,,,2.1,1.9,1.0*36
$GPRMC,215143.000,A,3748.5420,N,12217.8519,W,1.75,161.63,190712,,,A*79
$GPVTG,161.63,T,,M,1.75,N,3.2,K,N*03
$GPGGA,215144.000,3748.5427,N,12217.8526,W,1,04,1.9,44.8,M,-25.1,M,,0000*54
$GPGSA,A,3,17,04,08,26,,,,,,,,,2.1,1.9,1.0*36
$GPRMC,215144.000,A,3748.5427,N,12217.8526,W,0.48,349.71,190712,,,A*71
$GPVTG,349.71,T,,M,0.48,N,0.9,K,A*00
$GPGGA,215145.000,3748.5438,N,12217.8523,W,1,04,1.9,45.4,M,-25.1,M,,0000*53
$GPGSA,A,3,17,04,08,26,,,,,,,,,2.1,1.9,1.0*36
$GPRMC,215145.000,A,3748.5438,N,12217.8523,W,0.72,325.02,190712,,,A*7C
$GPVTG,325.02,T,,M,0.72,N,1.3,K,A*0C
$GPGGA,215146.000,3748.5439,N,12217.8516,W,1,04,1.9,45.4,M,-25.1,M,,0000*57
$GPGSA,A,3,17,04,08,26,,,,,,,,,2.1,1.9,1.0*36
$GPGSV,3,1,09,17,79,057,20,28,49,056,18,27,41,314,24,26,34,220,22*74
$GPGSV,3,2,09,08,29,131,28,09,25,316,22,04,20,160,31,01,16,046,*76
$GPGSV,3,3,09,11,02,037,*46
$GPRMC,215146.000,A,3748.5439,N,12217.8516,W,0.34,296.66,190712,,,A*71
$GPVTG,296.66,T,,M,0.34,N,0.6,K,A*01
$GPGGA,215147.000,3748.5438,N,12217.8500,W,1,04,1.9,44.8,M,-25.1,M,,0000*5D
$GPGSA,A,3,17,04,08,26,,,,,,,,,2.1,1.9,1.0*36
$GPRMC,215147.000,A,3748.5438,N,12217.8500,W,1.01,53.55,190712,,,A*4A
$GPVTG,53.55,T,,M,1.01,N,1.9,K,A*33
$GPGGA,215148.000,3748.5430,N,12217.8503,W,1,04,1.9,44.5,M,-25.1,M,,0000*54
$GPGSA,A,3,17,04,08,26,,,,,,,,,2.1,1.9,1.0*36
$GPRMC,215148.000,A,3748.5430,N,12217.8503,W,0.74,93.83,190712,,,A*4A
$GPVTG,93.83,T,,M,0.74,N,1.4,K,A*3A
$GPGGA,215149.000,3748.5423,N,12217.8501,W,1,04,1.9,43.8,M,-25.1,M,,0000*5F
$GPGSA,A,3,17,04,08,26,,,,,,,,,2.1,1.9,1.0*36
$GPRMC,215149.000,A,3748.5423,N,12217.8501,W,0.63,81.06,190712,,,A*43
$GPVTG,81.06,T,,M,0.63,N,1.2,K,A*34
$GPGGA,215150.000,3748.5421,N,12217.8495,W,1,04,1.9,43.7,M,-25.1,M,,0000*56
$GPGSA,A,3,17,04,08,26,,,,,,,,,2.1,1.9,1.0*36
$GPRMC,215150.000,A,3748.5421,N,12217.8495,W,0.61,55.65,190712,,,A*4B
$GPVTG,55.65,T,,M,0.61,N,1.1,K,A*39
$GPGGA,215151.000,3748.5424,N,12217.8492,W,1,04,1.9,44.0,M,-25.1,M,,0000*55
$GPGSA,A,3,17,04,08,26,,,,,,,,,2.1,1.9,1.0*36
$GPGSV,3,1,09,17,79,057,20,28,49,056,26,27,41,314,28,26,34,220,23*74
$GPGSV,3,2,09,08,29,131,27,09,25,316,28,04,20,160,36,01,16,046,*74
$GPGSV,3,3,09,11,02,037,*46
$GPRMC,215151.000,A,3748.5424,N,12217.8492,W,0.91,19.80,190712,,,A*44
$GPVTG,19.80,T,,M,0.91,N,1.7,K,A*33
$GPGGA,215152.000,3748.5428,N,12217.8493,W,1,04,1.9,44.3,M,-25.1,M,,0000*58
