$ADVER,3080,2.3
$GPRMC,214859.641,A,3748.5697,N,12217.8511,W,3.76,355.80,190712,,,A*76
$GPGGA,214900.641,3748.5875,N,12217.8510,W,1,03,4.2,0.1,M,-25.1,M,,0000*60
$GPGSA,A,2,26,08,04,,,,,,,,,,4.4,4.2,1.0*3C
$GPRMC,214900.641,A,3748.5875,N,12217.8510,W,2.65,357.74,190712,,,A*72
$GPVTG,357.74,T,,M,2.65,N,4.9,K,N*0C
$GPGGA,214902.641,3748.5559,N,12217.8508,W,1,03,4.2,0.1,M,-25.1,M,,0000*68
$GPGSA,A,2,26,08,04,,,,,,,,,,4.4,4.2,1.0*3C
$GPRMC,214902.641,A,3748.5559,N,12217.8508,W,13.29,177.54,190712,,,A*40
$GPVTG,177.54,T,,M,13.29,N,24.6,K,N*0B
$GPGGA,214906.641,3748.5345,N,12217.8497,W,1,03,4.3,0.1,M,-25.1,M,,0000*61
$GPGSA,A,2,26,08,04,,,,,,,,,,4.4,4.3,1.0*3D
$GPRMC,214906.641,A,3748.5345,N,12217.8497,W,16.53,176.58,190712,,,A*4D
$GPVTG,176.58,T,,M,16.53,N,30.6,K,N*0B
$GPGGA,214907.641,3748.5386,N,12217.8496,W,1,03,4.3,0.1,M,-25.1,M,,0000*6E
$GPGSA,A,2,26,08,04,,,,,,,,,,4.4,4.3,1.0*3D
$GPRMC,214907.641,A,3748.5386,N,12217.8496,W,0.57,2.43,190712,,,A*79
$GPVTG,2.43,T,,M,0.57,N,1.1,K,N*05
$GPGGA,214908.641,3748.5525,N,12217.8506,W,1,03,4.3,0.1,M,-25.1,M,,0000*66
$GPGSA,A,2,26,08,04,,,,,,,,,,4.4,4.3,1.0*3D
$GPRMC,214908.641,A,3748.5525,N,12217.8506,W,2.34,188.35,190712,,,A*74
$GPVTG,188.35,T,,M,2.34,N,4.3,K,N*07
$GPGGA,214909.641,3748.5662,N,12217.8472,W,1,03,4.3,0.1,M,-25.1,M,,0000*65
$GPGSA,A,2,26,08,04,,,,,,,,,,4.4,4.3,1.0*3D
$GPGSV,3,1,10,26,34,221,35,08,29,131,24,04,20,161,20,17,79,058,22*7F
$GPGSV,3,2,10,28,49,055,18,27,40,314,23,15,32,273,25,09,24,316,17*78
$GPGSV,3,3,10,01,16,046,,11,02,037,*7A
$GPRMC,214909.641,A,3748.5662,N,12217.8472,W,3.52,11.74,190712,,,A*42
$GPVTG,11.74,T,,M,3.52,N,6.5,K,N*36
$GPGGA,214910.641,3748.5699,N,12217.8472,W,1,03,4.3,0.1,M,-25.1,M,,0000*69
$GPGSA,A,2,26,08,04,,,,,,,,,,4.4,4.3,1.0*3D
$GPRMC,214910.641,A,3748.5699,N,12217.8472,W,7.00,1.61,190712,,,A*78
$GPVTG,1.61,T,,M,7.00,N,13.0,K,N*31
$GPGGA,214911.641,3748.5720,N,12217.8463,W,1,03,4.3,0.1,M,-25.1,M,,0000*6B
$GPGSA,A,2,26,08,04,,,,,,,,,,4.4,4.3,1.0*3D
$GPRMC,214911.641,A,3748.5720,N,12217.8463,W,1.50,169.42,190712,,,A*77
$GPVTG,169.42,T,,M,1.50,N,2.8,K,N*04
$GPGGA,214914.641,3748.5516,N,12217.8544,W,1,03,4.3,0.1,M,-25.1,M,,0000*6D
$GPGSA,A,2,26,08,04,,,,,,,,,,4.4,4.3,1.0*3D
$GPGSV,3,1,10,26,34,221,33,08,29,131,31,04,20,161,29,17,79,058,22*74
$GPGSV,3,2,10,28,49,055,24,27,40,314,26,15,32,273,30,09,24,316,20*72
$GPGSV,3,3,10,01,16,046,16,11,02,037,*7D
$GPRMC,214914.641,A,3748.5516,N,12217.8544,W,0.11,248.82,190712,,,A*79
$GPVTG,248.82,T,,M,0.11,N,0.2,K,N*04
$GPGGA,214915.641,3748.5474,N,12217.8511,W,1,03,4.3,0.1,M,-25.1,M,,0000*69
$GPGSA,A,2,26,08,04,,,,,,,,,,4.4,4.3,1.0*3D
$GPRMC,214915.641,A,3748.5474,N,12217.8511,W,0.66,351.41,190712,,,A*7B
$GPVTG,351.41,T,,M,0.66,N,1.2,K,N*03
$GPGGA,214916.641,3748.5517,N,12217.8499,W,1,03,4.3,0.1,M,-25.1,M,,0000*6F
$GPGSA,A,2,26,08,04,,,,,,,,,,4.4,4.3,1.0*3D
$GPRMC,214916.641,A,3748.5517,N,12217.8499,W,0.77,4.61,190712,,,A*7C
$GPVTG,4.61,T,,M,0.77,N,1.4,K,N*04
$GPGGA,214917.641,3748.5567,N,12217.8488,W,1,03,4.3,0.1,M,-25.1,M,,0000*69
$GPGSA,A,2,26,08,04,,,,,,,,,,4.4,4.3,1.0*3D
$GPRMC,214917.641,A,3748.5567,N,12217.8488,W,0.40,8.18,190712,,,A*7C
$GPVTG,8.18,T,,M,0.40,N,0.7,K,N*00
$GPGGA,214918.641,3748.5520,N,12217.8517,W,1,03,4.3,0.1,M,-25.1,M,,0000*62
$GPGSA,A,2,26,08,04,,,,,,,,,,4.4,4.3,1.0*3D
$GPRMC,214918.641,A,3748.5520,N,12217.8517,W,0.46,359.82,190712,,,A*75
$GPVTG,359.82,T,,M,0.46,N,0.9,K,N*0C
$GPGGA,214919.641,3748.5543,N,12217.8511,W,1,03,4.3,0.1,M,-25.1,M,,0000*60
$GPGSA,A,2,26,08,04,,,,,,,,,,4.4,4.3,1.0*3D
$GPGSV,3,1,11,26,34,221,37,08,29,131,32,04,20,161,34,17,79,058,28*74
$GPGSV,3,2,11,28,49,055,23,27,40,314,26,15,32,273,32,09,24,316,25*73
$GPGSV,3,3,11,01,16,046,16,11,02,037,,46,00,000,31*4C
$GPRMC,214919.641,A,3748.5543,N,12217.8511,W,0.82,4.34,190712,,,A*79
$GPVTG,4.34,T,,M,0.82,N,1.5,K,N*0F
$GPGGA,214920.641,3748.5563,N,12217.8498,W,1,03,4.3,0.1,M,-25.1,M,,0000*68
$GPGSA,A,2,26,08,04,,,,,,,,,,4.4,4.3,1.0*3D
$GPRMC,214920.641,A,3748.5563,N,12217.8498,W,0.43,345.11,190712,,,A*7D
$GPVTG,345.11,T,,M,0.43,N,0.8,K,N*0F
$GPGGA,214921.641,3748.5545,N,12217.8500,W,1,03,4.3,0.1,M,-25.1,M,,0000*6D
$GPGSA,A,2,26,08,04,,,,,,,,,,4.4,4.3,1.0*3D
$GPRMC,214921.641,A,3748.5545,N,12217.8500,W,0.80,18.68,190712,,,A*42
$GPVTG,18.68,T,,M,0.80,N,1.5,K,N*39
$GPGGA,214922.641,3748.5542,N,12217.8499,W,1,03,4.3,0.1,M,-25.1,M,,0000*68
$GPGSA,A,2,26,08,04,,,,,,,,,,4.4,4.3,1.0*3D
$GPRMC,214922.641,A,3748.5542,N,12217.8499,W,1.33,40.80,190712,,,A*45
$GPVTG,40.80,T,,M,1.33,N,2.5,K,N*38
$GPGGA,214923.641,3748.5559,N,12217.8522,W,1,03,4.3,0.1,M,-25.1,M,,0000*62
$GPGSA,A,2,26,08,04,,,,,,,,,,4.4,4.3,1.0*3D
$GPRMC,214923.641,A,3748.5559,N,12217.8522,W,1.90,355.74,190712,,,A*7A
$GPVTG,355.74,T,,M,1.90,N,3.5,K,N*0C
$GPGGA,214924.641,3748.5582,N,12217.8542,W,1,03,4.3,0.1,M,-25.1,M,,0000*65
$GPGSA,A,2,26,08,04,,,,,,,,,,4.4,4.3,1.0*3D
$GPGSV,3,1,11,26,34,221,17,08,29,131,32,04,20,161,32,17,79,058,24*7C
$GPGSV,3,2,11,28,49,055,21,27,40,314,27,15,32,273,26,09,24,316,26*76
$GPGSV,3,3,11,01,16,046,,11,02,037,,46,00,000,27*4C
$GPRMC,214924.641,A,3748.5582,N,12217.8542,W,3.18,338.44,190712,,,A*77
$GPVTG,338.44,T,,M,3.18,N,5.9,K,N*0C
$GPGGA,214925.641,3748.5573,N,12217.8540,W,1,03,4.3,0.1,M,-25.1,M,,0000*68
$GPGSA,A,2,26,08,04,,,,,,,,,,4.4,4.3,1.0*3D
$GPRMC,214925.641,A,3748.5573,N,12217.8540,W,1.20,335.16,190712,,,A*79
$GPVTG,335.16,T,,M,1.20,N,2.2,K,N*03
$GPGGA,214926.641,3748.5547,N,12217.8506,W,1,03,4.3,0.1,M,-25.1,M,,0000*6E
$GPGSA,A,2,26,08,04,,,,,,,,,,4.4,4.3,1.0*3D
$GPRMC,214926.641,A,3748.5547,N,12217.8506,W,0.87,343.84,190712,,,A*79
$GPVTG,343.84,T,,M,0.87,N,1.6,K,N*02
$GPGGA,214927.641,3748.5519,N,12217.8473,W,1,03,4.3,0.1,M,-25.1,M,,0000*67
$GPGSA,A,2,26,08,04,,,,,,,,,,4.4,4.3,1.0*3D
$GPRMC,214927.641,A,3748.5519,N,12217.8473,W,1.72,325.16,190712,,,A*70
$GPVTG,325.16,T,,M,1.72,N,3.2,K,N*04
$GPGGA,214928.641,3748.5435,N,12217.8468,W,1,03,4.3,0.1,M,-25.1,M,,0000*6D
$GPGSA,A,2,26,08,04,,,,,,,,,,4.4,4.3,1.0*3D
$GPRMC,214928.641,A,3748.5435,N,12217.8468,W,4.23,332.43,190712,,,A*7D
$GPVTG,332.43,T,,M,4.23,N,7.8,K,N*0D
$GPGGA,214929.641,3748.5577,N,12217.8568,W,1,03,4.3,0.1,M,-25.1,M,,0000*6A
$GPGSA,A,2,26,08,04,,,,,,,,,,4.4,4.3,1.0*3D
$GPGSV,3,1,11,26,34,221,20,08,29,131,32,04,20,161,26,17,79,058,21*78
$GPGSV,3,2,11,28,49,055,18,27,40,314,24,15,32,273,24,09,24,316,26*7D
$GPGSV,3,3,11,01,16,046,,11,02,037,,46,00,000,28*43
$GPVTG,327.44,T,,M,4.55,N,8.4,K,N*0C
$GPGGA,214930.641,3748.5550,N,12217.8508,W,1,03,4.3,0.1,M,-25.1,M,,0000*61
$GPGSA,A,2,26,08,04,,,,,,,,,,4.4,4.3,1.0*3D
$GPRMC,214930.641,A,3748.5550,N,12217.8508,W,5.59,353.74,190712,,,A*7E
$GPVTG,353.74,T,,M,5.59,N,10.4,K,N*38
$GPGGA,214934.641,3748.5692,N,12217.8594,W,1,03,4.3,0.1,M,-25.1,M,,0000*6D
$GPGSA,A,2,26,08,04,,,,,,,,,,4.4,4.3,1.0*3D
$GPGSV,3,1,11,26,34,221,25,08,29,131,27,04,20,161,17,17,79,058,21*7B
$GPGSV,3,2,11,28,49,055,18,27,40,314,14,15,32,273,30,09,24,316,21*7C
$GPGSV,3,3,11,01,16,046,,11,02,037,,46,00,000,23*48
$GPRMC,214934.641,A,3748.5692,N,12217.8594,W,6.07,358.54,190712,,,A*73
$GPVTG,358.54,T,,M,6.07,N,11.2,K,N*3E
$GPGGA,214935.641,3748.5497,N,12217.8573,W,1,03,4.3,0.1,M,-25.1,M,,0000*62
$GPGSA,A,2,26,08,04,,,,,,,,,,4.4,4.3,1.0*3D
$GPRMC,214935.641,A,3748.5497,N,12217.8573,W,5.45,6.61,190712,,,A*77
$GPVTG,6.61,T,,M,5.45,N,10.1,K,N*37
$GPGGA,214950.641,3748.5481,N,12217.8547,W,1,03,4.3,0.1,M,-25.1,M,,0000*61
$GPGSA,A,2,26,08,04,,,,,,,,,,4.5,4.3,1.0*3C
$GPRMC,214950.641,A,3748.5481,N,12217.8547,W,0.83,350.48,190712,,,A*70
$GPVTG,350.48,T,,M,0.83,N,1.5,K,N*07
$GPGGA,214951.641,3748.5575,N,12217.8516,W,1,03,4.3,0.1,M,-25.1,M,,0000*6E
$GPGSA,A,2,26,08,04,,,,,,,,,,4.5,4.3,1.0*3C
$GPRMC,214951.641,A,3748.5575,N,12217.8516,W,0.65,0.93,190712,,,A*77
$GPVTG,0.93,T,,M,0.65,N,1.2,K,N*08
$GPGGA,214952.641,3748.5505,N,12217.8550,W,1,03,4.3,0.1,M,-25.1,M,,0000*68
$GPGSA,A,2,26,08,04,,,,,,,,,,4.5,4.3,1.0*3C
$GPRMC,214952.641,A,3748.5505,N,12217.8550,W,0.28,220.07,190712,,,A*75
$GPVTG,220.07,T,,M,0.28,N,0.5,K,N*0A
$GPGGA,214953.641,3748.5570,N,12217.8483,W,1,03,4.3,0.1,M,-25.1,M,,0000*64
$GPGSA,A,2,26,08,04,,,,,,,,,,4.5,4.3,1.0*3C
$GPRMC,214953.641,A,3748.5570,N,12217.8483,W,1.51,8.92,190712,,,A*72
$GPVTG,8.92,T,,M,1.51,N,2.8,K,N*0E
$GPGGA,214954.639,3748.5515,N,12217.8507,W,1,03,4.3,0.1,M,-25.1,M,,0000*62
$GPGSA,A,2,26,08,04,,,,,,,,,,4.5,4.3,1.0*3C
$GPGSV,3,1,11,26,34,221,26,08,29,131,29,04,20,161,31,17,79,058,24*77
$GPGSV,3,2,11,28,49,055,19,27,40,314,28,15,32,273,31,09,24,316,26*74
$GPGSV,3,3,11,01,16,046,27,11,02,037,,46,00,000,33*4C
$GPRMC,214954.639,A,3748.5515,N,12217.8507,W,1.18,356.37,190712,,,A*7E
$GPVTG,356.37,T,,M,1.18,N,2.2,K,N*0E
$GPGGA,214955.641,3748.5527,N,12217.8508,W,1,03,4.4,0.1,M,-25.1,M,,0000*65
$GPGSA,A,2,26,08,04,,,,,,,,,,4.5,4.4,1.0*3B
$GPRMC,214955.641,A,3748.5527,N,12217.8508,W,0.96,260.74,190712,,,A*7A
$GPVTG,260.74,T,,M,0.96,N,1.8,K,N*03
$GPGGA,214956.639,3748.5375,N,12217.8504,W,1,03,4.4,0.1,M,-25.1,M,,0000*64
$GPGSA,A,2,26,08,04,,,,,,,,,,4.5,4.4,1.0*3B
$GPRMC,214956.639,A,3748.5375,N,12217.8504,W,0.67,216.98,190712,,,A*76
$GPVTG,216.98,T,,M,0.67,N,1.2,K,N*04
$GPGGA,214957.639,3748.5467,N,12217.8504,W,1,03,4.4,0.1,M,-25.1,M,,0000*61
$GPGSA,A,2,26,08,04,,,,,,,,,,4.5,4.4,1.0*3B
$GPRMC,214957.639,A,3748.5467,N,12217.8504,W,3.22,358.45,190712,,,A*7A
$GPVTG,358.45,T,,M,3.22,N,6.0,K,N*08
$GPGGA,214958.639,3748.5492,N,12217.8510,W,1,03,4.4,0.1,M,-25.1,M,,0000*61
$GPGSA,A,2,26,08,04,,,,,,,,,,4.5,4.4,1.0*3B
$GPRMC,214958.639,A,3748.5492,N,12217.8510,W,3.44,353.69,190712,,,A*7F
$GPVTG,353.69,T,,M,3.44,N,6.4,K,N*09
$GPGGA,215006.639,3748.5556,N,12217.8549,W,1,03,4.4,0.1,M,-25.1,M,,0000*67
$GPGSA,A,2,26,04,08,,,,,,,,,,4.5,4.4,1.0*3B
$GPRMC,215006.639,A,3748.5556,N,12217.8549,W,0.28,177.17,190712,,,A*7D
$GPVTG,177.17,T,,M,0.28,N,0.5,K,N*0A
$GPGGA,215007.639,3748.5713,N,12217.8544,W,1,03,4.4,0.1,M,-25.1,M,,0000*68
$GPGSA,A,2,26,04,08,,,,,,,,,,4.5,4.4,1.0*3B
$GPRMC,215007.639,A,3748.5713,N,12217.8544,W,3.84,182.61,190712,,,A*7C
$GPVTG,182.61,T,,M,3.84,N,7.1,K,N*07
$GPGGA,215008.641,3748.5438,N,12217.8597,W,1,03,4.4,0.1,M,-25.1,M,,0000*6C
$GPGSA,A,2,26,04,08,,,,,,,,,,4.5,4.4,1.0*3B
$GPRMC,215008.641,A,3748.5438,N,12217.8597,W,3.44,201.34,190712,,,A*7C
$GPVTG,201.34,T,,M,3.44,N,6.4,K,N*07
$GPGGA,215009.639,3748.5533,N,12217.8616,W,1,03,4.4,0.1,M,-25.1,M,,0000*62
$GPGSA,A,2,26,04,08,,,,,,,,,,4.5,4.4,1.0*3B
$GPGSV,3,1,10,26,34,221,25,08,29,131,25,04,20,161,18,17,79,058,25*73
$GPGSV,3,2,10,28,49,055,19,27,40,314,30,15,32,273,31,09,24,316,29*73
$GPGSV,3,3,10,01,16,046,18,11,02,037,*73
$GPRMC,215009.639,A,3748.5533,N,12217.8616,W,2.10,348.33,190712,,,A*79
$GPVTG,348.33,T,,M,2.10,N,3.9,K,N*04
$GPGGA,215010.639,3748.5538,N,12217.8569,W,1,03,4.4,0.1,M,-25.1,M,,0000*6A
$GPGSA,A,2,26,04,08,,,,,,,,,,4.5,4.4,1.0*3B
$GPRMC,215010.639,A,3748.5538,N,12217.8569,W,0.79,348.50,190712,,,A*79
$GPVTG,348.50,T,,M,0.79,N,1.5,K,N*02
$GPGGA,215011.641,3748.5537,N,12217.8569,W,1,03,4.4,0.1,M,-25.1,M,,0000*6B
$GPGSA,A,2,26,04,08,,,,,,,,,,4.5,4.4,1.0*3B
$GPRMC,215011.641,A,3748.5537,N,12217.8569,W,3.48,1.83,190712,,,A*79
$GPVTG,1.83,T,,M,3.48,N,6.4,K,N*05
$GPGGA,215012.641,3748.5577,N,12217.8520,W,1,03,4.4,0.1,M,-25.1,M,,0000*61
$GPGSA,A,2,26,04,08,,,,,,,,,,4.5,4.4,1.0*3B
$GPRMC,215012.641,A,3748.5577,N,12217.8520,W,2.02,7.31,190712,,,A*73
$GPVTG,7.31,T,,M,2.02,N,3.8,K,N*0C
$GPGGA,215013.641,3748.5718,N,12217.8513,W,1,03,4.4,0.1,M,-25.1,M,,0000*6B
$GPGSA,A,2,26,04,08,,,,,,,,,,4.5,4.4,1.0*3B
$GPRMC,215013.641,A,3748.5718,N,12217.8513,W,1.71,5.89,190712,,,A*7F
$GPVTG,5.89,T,,M,1.71,N,3.2,K,N*00
$GPGGA,215014.639,3748.5728,N,12217.8501,W,1,03,4.4,0.1,M,-25.1,M,,0000*63
$GPGSA,A,2,26,04,08,,,,,,,,,,4.5,4.4,1.0*3B
$GPGSV,3,1,10,26,34,221,21,08,29,131,24,04,20,161,23,17,79,058,22*79
$GPGSV,3,2,10,28,49,055,10,27,40,314,33,15,32,273,38,09,24,316,34*7C
$GPGSV,3,3,10,01,16,046,,11,02,037,*7A
$GPRMC,215014.639,A,3748.5728,N,12217.8501,W,10.61,354.11,190712,,,A*40
$GPVTG,354.11,T,,M,10.61,N,19.7,K,N*09
$GPGGA,215015.639,3748.6003,N,12217.8543,W,1,03,4.4,0.1,M,-25.1,M,,0000*69
$GPGSA,A,2,26,04,08,,,,,,,,,,4.5,4.4,1.0*3B
$GPRMC,215015.639,A,3748.6003,N,12217.8543,W,6.81,354.18,190712,,,A*7A
$GPVTG,354.18,T,,M,6.81,N,12.6,K,N*33
$GPGGA,215016.639,3748.5825,N,12217.8578,W,1,03,4.4,0.1,M,-25.1,M,,0000*6D
$GPGSA,A,2,26,04,08,,,,,,,,,,4.5,4.4,1.0*3B
$GPRMC,215016.639,A,3748.5825,N,12217.8578,W,0.70,19.82,190712,,,A*4F
$GPVTG,19.82,T,,M,0.70,N,1.3,K,N*35
$GPGGA,215017.641,3748.5635,N,12217.8556,W,1,03,4.4,0.1,M,-25.1,M,,0000*60
$GPGSA,A,2,26,04,08,,,,,,,,,,4.5,4.4,1.0*3B
$GPRMC,215017.641,A,3748.5635,N,12217.8556,W,2.11,20.73,190712,,,A*43
$GPVTG,20.73,T,,M,2.11,N,3.9,K,N*3C
$GPGGA,215018.639,3748.5358,N,12217.8530,W,1,03,4.4,0.1,M,-25.1,M,,0000*6E
$GPGSA,A,2,26,04,08,,,,,,,,,,4.5,4.4,1.0*3B
$GPRMC,215018.639,A,3748.5358,N,12217.8530,W,5.72,181.18,190712,,,A*78
$GPVTG,181.18,T,,M,5.72,N,10.6,K,N*34
$GPGGA,215019.639,3748.5428,N,12217.8517,W,1,03,4.4,0.1,M,-25.1,M,,0000*6A
$GPGSA,A,2,26,04,08,,,,,,,,,,4.5,4.4,1.0*3B
$GPGSV,3,1,10,26,34,221,22,08,29,131,22,04,20,161,21,17,79,058,21*7D
$GPGSV,3,2,10,28,49,055,17,27,40,314,28,15,32,273,28,09,24,316,37*73
$GPGSV,3,3,10,01,16,046,,11,02,037,*7A
$GPRMC,215019.639,A,3748.5428,N,12217.8517,W,2.37,343.10,190712,,,A*7E
$GPVTG,343.10,T,,M,2.37,N,4.4,K,N*01
$GPGGA,215020.641,3748.5558,N,12217.8534,W,1,04,2.4,-40.6,M,-25.1,M,,0000*77
$GPGSA,A,3,15,26,04,08,,,,,,,,,8.2,2.4,7.8*3D
$GPRMC,215020.641,A,3748.5558,N,12217.8534,W,2.26,40.63,190712,,,A*48
$GPVTG,40.63,T,,M,2.26,N,4.2,K,A*3C
$GPGGA,215021.639,3748.5640,N,12217.8522,W,1,04,2.4,-72.5,M,-25.1,M,,0000*76
$GPGSA,A,3,15,26,04,08,,,,,,,,,8.2,2.4,7.8*3D
$GPRMC,215021.639,A,3748.5640,N,12217.8522,W,0.50,67.30,190712,,,A*4B
$GPVTG,67.30,T,,M,0.50,N,0.9,K,A*33
$GPGGA,215022.639,3748.5660,N,12217.8483,W,1,04,2.4,-49.7,M,-25.1,M,,0000*77
$GPGSA,A,3,15,26,04,08,,,,,,,,,8.2,2.4,7.8*3D
$GPRMC,215022.639,A,3748.5660,N,12217.8483,W,0.34,95.74,190712,,,A*4F
$GPVTG,95.74,T,,M,0.34,N,0.6,K,A*33
$GPGGA,215023.000,3748.5659,N,12217.8485,W,1,04,2.4,-45.8,M,-25.1,M,,0000*75
$GPGSA,A,3,15,26,04,08,,,,,,,,,8.2,2.4,7.8*3D
$GPRMC,215023.000,A,3748.5659,N,12217.8485,W,0.18,10.14,190712,,,A*4B
$GPVTG,10.14,T,,M,0.18,N,0.3,K,A*33
$GPGGA,215024.000,3748.5641,N,12217.8484,W,1,04,2.4,-39.0,M,-25.1,M,,0000*79
$GPGSA,A,3,15,26,04,08,,,,,,,,,8.2,2.4,7.8*3D
$GPGSV,3,1,10,26,34,220,17,15,32,272,22,08,29,131,27,04,20,160,18*70
$GPGSV,3,2,10,17,79,056,22,28,49,056,22,27,41,314,24,09,25,316,23*7D
$GPRMC,215024.000,A,3748.5641,N,12217.8484,W,0.20,173.96,190712,,,A*71
$GPVTG,173.96,T,,M,0.20,N,0.4,K,A*01
$GPGGA,215025.000,3748.5649,N,12217.8481,W,1,04,2.4,-29.1,M,-25.1,M,,0000*75
$GPGSA,A,3,15,26,04,08,,,,,,,,,8.2,2.4,7.9*3C
$GPRMC,215025.000,A,3748.5649,N,12217.8481,W,0.38,152.28,190712,,,A*72
$GPVTG,152.28,T,,M,0.38,N,0.7,K,A*0D
$GPGGA,215026.000,3748.5647,N,12217.8483,W,1,04,2.4,-27.2,M,-25.1,M,,0000*77
$GPGSA,A,3,15,26,04,08,,,,,,,,,8.2,2.4,7.9*3C
$GPRMC,215026.000,A,3748.5647,N,12217.8483,W,0.16,151.74,190712,,,A*7B
$GPVTG,151.74,T,,M,0.16,N,0.3,K,A*0F
$GPGGA,215027.000,3748.5630,N,12217.8482,W,1,04,2.4,-19.8,M,-25.1,M,,0000*70
$GPGSA,A,3,15,26,04,08,,,,,,,,,8.2,2.4,7.9*3C
$GPRMC,215027.000,A,3748.5630,N,12217.8482,W,1.23,151.85,190712,,,A*72
$GPVTG,151.85,T,,M,1.23,N,2.3,K,A*04
$GPGGA,215028.000,3748.5633,N,12217.8463,W,1,04,2.4,-13.0,M,-25.1,M,,0000*71
$GPGSA,A,3,15,26,04,08,,,,,,,,,8.2,2.4,7.9*3C
$GPRMC,215028.000,A,3748.5633,N,12217.8463,W,1.80,135.76,190712,,,A*76
$GPVTG,135.76,T,,M,1.80,N,3.3,K,A*02
$GPGGA,215029.000,3748.5636,N,12217.8453,W,1,04,2.4,-18.0,M,-25.1,M,,0000*7D
$GPGSA,A,3,15,26,04,08,,,,,,,,,8.3,2.4,7.9*3D
$GPGSV,3,1,10,26,34,220,22,15,32,272,20,08,29,131,28,04,20,160,24*74
$GPGSV,3,2,10,17,79,056,21,28,49,056,24,27,41,314,30,09,25,316,27*79
$GPGSV,3,3,10,01,16,046,30,11,02,037,*79
$GPRMC,215029.000,A,3748.5636,N,12217.8453,W,1.50,137.13,190712,,,A*7D
$GPVTG,137.13,T,,M,1.50,N,2.8,K,A*04
$GPGGA,215030.000,3748.5635,N,12217.8446,W,1,04,2.4,-19.4,M,-25.1,M,,0000*77
$GPGSA,A,3,15,26,04,08,,,,,,,,,8.3,2.4,7.9*3D
$GPRMC,215030.000,A,3748.5635,N,12217.8446,W,1.56,166.99,190712,,,A*72
$GPVTG,166.99,T,,M,1.56,N,2.9,K,A*05
$GPGGA,215031.000,3748.5623,N,12217.8449,W,1,03,2.7,-16.1,M,-25.1,M,,0000*70
$GPGSA,A,2,15,26,08,,,,,,,,,,2.8,2.7,1.0*35
$GPRMC,215031.000,A,3748.5623,N,12217.8449,W,2.37,192.72,190712,,,A*71
$GPVTG,192.72,T,,M,2.37,N,4.4,K,A*04
$GPGGA,215032.000,3748.5603,N,12217.8450,W,1,04,2.4,-18.4,M,-25.1,M,,0000*76
$GPGSA,A,3,15,26,04,08,,,,,,,,,8.3,2.4,7.9*3D
$GPRMC,215032.000,A,3748.5603,N,12217.8450,W,3.26,181.07,190712,,,A*79
$GPVTG,181.07,T,,M,3.26,N,6.0,K,A*03
$GPGGA,215033.000,3748.5605,N,12217.8443,W,1,04,2.4,-21.3,M,-25.1,M,,0000*7E
$GPGSA,A,3,15,26,04,08,,,,,,,,,8.3,2.4,7.9*3D
$GPRMC,215033.000,A,3748.5605,N,12217.8443,W,1.71,169.35,190712,,,A*7B
$GPVTG,169.35,T,,M,1.71,N,3.2,K,A*03
$GPGGA,215034.000,3748.5606,N,12217.8438,W,1,04,2.4,-25.0,M,-25.1,M,,0000*71
$GPGSA,A,3,15,26,04,08,,,,,,,,,8.3,2.4,7.9*3D
$GPGSV,3,1,10,26,34,220,25,15,32,272,26,08,29,131,30,04,20,160,19*72
$GPGSV,3,2,10,17,79,056,26,28,49,056,28,27,41,314,27,09,25,316,28*7B
$GPGSV,3,3,10,01,16,046,31,11,02,037,*78
$GPRMC,215034.000,A,3748.5606,N,12217.8438,W,1.37,177.78,190712,,,A*77
$GPVTG,177.78,T,,M,1.37,N,2.5,K,A*01
$GPGGA,215035.000,3748.5618,N,12217.8433,W,1,04,2.4,-32.2,M,-25.1,M,,0000*70
$GPGSA,A,3,15,26,04,08,,,,,,,,,8.3,2.4,8.0*3B
$GPRMC,215035.000,A,3748.5618,N,12217.8433,W,0.39,100.96,190712,,,A*7D
$GPVTG,100.96,T,,M,0.39,N,0.7,K,A*0E
$GPGGA,215036.000,3748.5618,N,12217.8436,W,1,04,2.4,-31.1,M,-25.1,M,,0000*76
$GPGSA,A,3,15,26,04,08,,,,,,,,,8.3,2.4,8.0*3B
$GPRMC,215036.000,A,3748.5618,N,12217.8436,W,0.17,318.57,190712,,,A*71
$GPVTG,318.57,T,,M,0.17,N,0.3,K,A*00
$GPGGA,215037.000,3748.5630,N,12217.8436,W,1,04,2.4,-31.7,M,-25.1,M,,0000*7B
$GPGSA,A,3,15,26,04,08,,,,,,,,,8.3,2.4,8.0*3B
$GPRMC,215037.000,A,3748.5630,N,12217.8436,W,0.84,22.20,190712,,,A*4A
$GPVTG,22.20,T,,M,0.84,N,1.6,K,A*34
$GPGGA,215038.000,3748.5642,N,12217.8433,W,1,04,2.4,-33.3,M,-25.1,M,,0000*72
$GPGSA,A,3,15,26,04,08,,,,,,,,,8.3,2.4,8.0*3B
$GPRMC,215038.000,A,3748.5642,N,12217.8433,W,0.57,45.56,190712,,,A*4B
$GPVTG,45.56,T,,M,0.57,N,1.1,K,A*3D
$GPGGA,215039.000,3748.5650,N,12217.8435,W,1,03,3.3,-35.9,M,-25.1,M,,0000*7B
$GPGSA,A,2,15,04,08,,,,,,,,,,3.5,3.3,1.0*3C
$GPGSV,3,1,10,26,34,220,19,15,32,272,26,08,29,131,31,04,20,160,23*75
$GPGSV,3,2,10,17,79,056,23,28,49,056,28,27,41,314,27,09,25,316,34*73
$GPGSV,3,3,10,01,16,046,31,11,02,037,*78
$GPRMC,215039.000,A,3748.5650,N,12217.8435,W,0.44,27.04,190712,,,A*4E
$GPGGA,215040.000,3748.5642,N,12217.8438,W,1,04,2.4,-34.8,M,-25.1,M,,0000*7A
$GPGSA,A,3,15,26,04,08,,,,,,,,,8.4,2.4,8.0*3C
$GPRMC,215040.000,A,3748.5642,N,12217.8438,W,0.58,202.51,190712,,,A*76
$GPVTG,202.51,T,,M,0.58,N,1.1,K,A*04
$GPGGA,215041.000,3748.5630,N,12217.8440,W,1,04,2.4,-26.7,M,-25.1,M,,0000*7D
$GPGSA,A,3,15,26,04,08,,,,,,,,,8.4,2.4,8.0*3C
$GPRMC,215041.000,A,3748.5630,N,12217.8440,W,1.21,219.67,190712,,,A*7D
$GPVTG,219.67,T,,M,1.21,N,2.2,K,A*04
$GPGGA,215042.000,3748.5623,N,12217.8439,W,1,04,2.4,-23.9,M,-25.1,M,,0000*79
$GPGSA,A,3,15,26,04,08,,,,,,,,,8.4,2.4,8.0*3C
$GPRMC,215042.000,A,3748.5623,N,12217.8439,W,1.25,160.72,190712,,,A*7F
$GPVTG,160.72,T,,M,1.25,N,2.3,K,A*08
$GPGGA,215043.000,3748.5615,N,12217.8435,W,1,04,2.4,-21.3,M,-25.1,M,,0000*79
$GPGSA,A,3,15,26,04,08,,,,,,,,,8.4,2.4,8.0*3C
$GPRMC,215043.000,A,3748.5615,N,12217.8435,W,1.50,167.35,190712,,,A*71
$GPVTG,167.35,T,,M,1.50,N,2.8,K,A*05
$GPGGA,215044.000,3748.5613,N,12217.8435,W,1,04,2.4,-19.2,M,-25.1,M,,0000*72
$GPGSA,A,3,15,26,04,08,,,,,,,,,8.4,2.4,8.0*3C
$GPGSV,3,1,11,26,34,220,13,15,32,272,18,08,29,131,31,04,20,160,27*77
$GPGSV,3,2,11,17,79,056,23,28,49,056,14,27,41,314,29,09,25,316,33*74
$GPGSV,3,3,11,01,16,046,31,11,02,037,,48,44,197,26*4E
$GPRMC,215044.000,A,3748.5613,N,12217.8435,W,1.05,206.13,190712,,,A*70
$GPVTG,206.13,T,,M,1.05,N,1.9,K,A*07
$GPGGA,215045.000,3748.5608,N,12217.8442,W,1,03,4.5,-17.7,M,-25.1,M,,0000*72
$GPGSA,A,2,26,04,08,,,,,,,,,,4.6,4.5,1.0*39
$GPRMC,215045.000,A,3748.5608,N,12217.8442,W,1.52,237.14,190712,,,A*7C
$GPVTG,237.14,T,,M,1.52,N,2.8,K,A*02
$GPGGA,215046.000,3748.5604,N,12217.8447,W,1,04,2.4,-15.0,M,-25.1,M,,0000*7D
$GPGSA,A,3,15,26,04,08,,,,,,,,,8.4,2.4,8.1*3D
$GPRMC,215046.000,A,3748.5604,N,12217.8447,W,1.29,209.98,190712,,,A*73
$GPVTG,209.98,T,,M,1.29,N,2.4,K,A*0B
$GPGGA,215047.000,3748.5621,N,12217.8442,W,1,04,2.4,-19.1,M,-25.1,M,,0000*73
$GPGSA,A,3,15,26,04,08,,,,,,,,,8.4,2.4,8.1*3D
$GPRMC,215047.000,A,3748.5621,N,12217.8442,W,0.33,167.61,190712,,,A*77
$GPVTG,167.61,T,,M,0.33,N,0.6,K,A*0C
$GPGGA,215048.000,3748.5626,N,12217.8436,W,1,04,2.4,-21.0,M,-25.1,M,,0000*72
$GPGSA,A,3,15,26,04,08,,,,,,,,,8.4,2.4,8.1*3D
$GPRMC,215048.000,A,3748.5626,N,12217.8436,W,0.37,165.20,190712,,,A*7F
$GPVTG,165.20,T,,M,0.37,N,0.7,K,A*0E
$GPGGA,215049.000,3748.5621,N,12217.8435,W,1,03,3.3,-22.0,M,-25.1,M,,0000*75
$GPGSA,A,2,15,04,08,,,,,,,,,,3.5,3.3,1.0*3C
$GPGSV,3,1,11,17,78,056,28,28,49,056,21,27,41,314,24,26,34,220,16*78
$GPGSV,3,2,11,15,32,272,20,08,29,131,31,09,25,316,24,04,21,160,27*73
$GPGSV,3,3,11,01,16,046,25,11,02,037,,12,00,274,*4E
$GPRMC,215049.000,A,3748.5621,N,12217.8435,W,0.99,203.32,190712,,,A*7E
$GPVTG,203.32,T,,M,0.99,N,1.8,K,A*04
$GPGGA,215050.000,3748.5612,N,12217.8435,W,1,04,2.4,-21.0,M,-25.1,M,,0000*7F
$GPGSA,A,3,15,26,04,08,,,,,,,,,8.5,2.4,8.1*3C
$GPRMC,215050.000,A,3748.5612,N,12217.8435,W,1.27,217.67,190712,,,A*77
$GPVTG,217.67,T,,M,1.27,N,2.4,K,A*0A
$GPGGA,215051.000,3748.5596,N,12217.8442,W,1,04,2.4,-17.4,M,-25.1,M,,0000*70
$GPGSA,A,3,15,26,04,08,,,,,,,,,8.5,2.4,8.1*3C
$GPRMC,215051.000,A,3748.5596,N,12217.8442,W,1.52,210.14,190712,,,A*78
$GPVTG,210.14,T,,M,1.52,N,2.8,K,A*07
$GPGGA,215052.000,3748.5589,N,12217.8442,W,1,03,3.3,-17.6,M,-25.1,M,,0000*7E
$GPGSA,A,2,15,04,08,,,,,,,,,,3.5,3.3,1.0*3C
$GPRMC,215052.000,A,3748.5589,N,12217.8442,W,1.35,218.53,190712,,,A*7F
$GPVTG,218.53,T,,M,1.35,N,2.5,K,A*00
$GPGGA,215053.000,3748.5582,N,12217.8449,W,1,04,2.4,-15.2,M,-25.1,M,,0000*78
$GPGSA,A,3,15,26,04,08,,,,,,,,,8.5,2.4,8.1*3C
$GPRMC,215053.000,A,3748.5582,N,12217.8449,W,1.17,195.83,190712,,,A*75
$GPVTG,195.83,T,,M,1.17,N,2.2,K,A*0C
$GPGGA,215054.000,3748.5584,N,12217.8442,W,1,04,2.4,-16.4,M,-25.1,M,,0000*77
$GPGSA,A,3,15,26,04,08,,,,,,,,,8.5,2.4,8.1*3C
$GPGSV,3,1,12,17,78,056,24,28,49,056,19,27,41,314,24,26,34,220,23*7A
$GPGSV,3,2,12,15,32,272,20,08,29,131,25,09,25,316,23,04,21,160,27*72
$GPGSV,3,3,12,01,16,046,28,11,02,037,,12,00,274,,48,44,197,27*76
$GPRMC,215054.000,A,3748.5584,N,12217.8442,W,0.84,161.81,190712,,,A*7D
$GPGGA,215055.000,3748.5591,N,12217.8438,W,1,04,2.4,-12.5,M,-25.1,M,,0000*7A
$GPGSA,A,3,15,26,04,08,,,,,,,,,8.5,2.4,8.1*3C
$GPRMC,215055.000,A,3748.5591,N,12217.8438,W,0.66,229.00,190712,,,A*7F
$GPVTG,229.00,T,,M,0.66,N,1.2,K,A*07
$GPGGA,215056.000,3748.5595,N,12217.8446,W,1,03,3.3,-15.2,M,-25.1,M,,0000*75
$GPGSA,A,2,15,04,08,,,,,,,,,,3.5,3.3,1.0*3C
$GPRMC,215056.000,A,3748.5595,N,12217.8446,W,0.49,215.75,190712,,,A*71
$GPVTG,215.75,T,,M,0.49,N,0.9,K,N*02
$GPGGA,215057.000,3748.5598,N,12217.8448,W,1,04,2.4,-12.9,M,-25.1,M,,0000*7A
$GPGSA,A,3,15,26,04,08,,,,,,,,,8.5,2.4,8.2*3F
$GPRMC,215057.000,A,3748.5598,N,12217.8448,W,0.09,274.21,190712,,,A*71
$GPVTG,274.21,T,,M,0.09,N,0.2,K,A*04
$GPGGA,215058.000,3748.5601,N,12217.8453,W,1,03,3.3,-14.1,M,-25.1,M,,0000*73
$GPGSA,A,2,15,04,08,,,,,,,,,,3.5,3.3,1.0*3C
$GPRMC,215058.000,A,3748.5601,N,12217.8453,W,0.63,303.00,190712,,,A*79
$GPVTG,303.00,T,,M,0.63,N,1.2,K,A*0B
$GPGGA,215059.000,3748.5588,N,12217.8463,W,1,04,2.4,-9.7,M,-25.1,M,,0000*48
$GPGSA,A,3,15,26,04,08,,,,,,,,,8.5,2.4,8.2*3F
$GPGSV,3,1,11,17,78,056,25,28,49,056,19,27,41,314,33,26,34,220,25*78
$GPGSV,3,2,11,15,32,272,33,08,29,131,26,09,25,316,38,04,21,160,23*7E
$GPGSV,3,3,11,01,16,046,14,11,02,037,,12,00,274,*4C
$GPRMC,215059.000,A,3748.5588,N,12217.8463,W,0.35,305.06,190712,,,A*7A
$GPVTG,305.06,T,,M,0.35,N,0.7,K,A*0C
$GPGGA,215100.000,3748.5581,N,12217.8472,W,1,04,2.4,-6.0,M,-25.1,M,,0000*44
$GPGSA,A,3,15,26,04,08,,,,,,,,,8.6,2.4,8.2*3C
$GPRMC,215100.000,A,3748.5581,N,12217.8472,W,0.97,237.37,190712,,,A*74
$GPVTG,237.37,T,,M,0.97,N,1.8,K,A*08
$GPGGA,215101.000,3748.5563,N,12217.8499,W,1,04,2.4,-2.4,M,-25.1,M,,0000*4C
$GPGSA,A,3,15,26,04,08,,,,,,,,,8.6,2.4,8.2*3C
$GPRMC,215101.000,A,3748.5563,N,12217.8499,W,1.95,247.09,190712,,,A*75
$GPVTG,247.09,T,,M,1.95,N,3.6,K,A*0D
$GPGGA,215102.000,3748.5562,N,12217.8510,W,1,04,2.4,1.1,M,-25.1,M,,0000*65
$GPGSA,A,3,15,26,04,08,,,,,,,,,8.6,2.4,8.2*3C
$GPRMC,215102.000,A,3748.5562,N,12217.8510,W,1.91,244.32,190712,,,A*78
$GPVTG,244.32,T,,M,1.91,N,3.5,K,A*01
$GPGGA,215103.000,3748.5557,N,12217.8519,W,1,03,2.7,0.7,M,-25.1,M,,0000*68
$GPGSA,A,2,15,26,08,,,,,,,,,,2.9,2.7,1.0*34
$GPRMC,215103.000,A,3748.5557,N,12217.8519,W,1.63,235.85,190712,,,A*71
$GPVTG,235.85,T,,M,1.63,N,3.0,K,N*0C
$GPGGA,215104.000,3748.5542,N,12217.8548,W,1,04,2.4,1.1,M,-25.1,M,,0000*6C
$GPGSA,A,3,15,26,04,08,,,,,,,,,8.6,2.4,8.2*3C
$GPGSV,3,1,11,17,78,056,25,28,49,056,19,27,41,314,33,26,34,220,25*78
$GPGSV,3,2,11,15,32,272,33,08,29,131,23,09,25,316,38,04,21,160,14*7F
$GPGSV,3,3,11,01,16,046,13,11,02,037,,12,00,274,*4B
$GPRMC,215104.000,A,3748.5542,N,12217.8548,W,2.18,224.25,190712,,,A*73
$GPVTG,224.25,T,,M,2.18,N,4.0,K,A*01
$GPGGA,215105.000,3748.5531,N,12217.8567,W,1,03,2.7,-0.5,M,-25.1,M,,0000*48
$GPGSA,A,2,15,26,08,,,,,,,,,,2.9,2.7,1.0*34
$GPRMC,215105.000,A,3748.5531,N,12217.8567,W,2.19,213.28,190712,,,A*73
$GPVTG,213.28,T,,M,2.19,N,4.1,K,A*08
$GPGGA,215106.000,3748.5527,N,12217.8578,W,1,04,2.4,1.3,M,-25.1,M,,0000*6C
$GPGSA,A,3,15,26,04,08,,,,,,,,,8.6,2.4,8.3*3D
$GPRMC,215106.000,A,3748.5527,N,12217.8578,W,1.99,225.82,190712,,,A*77
$GPVTG,225.82,T,,M,1.99,N,3.7,K,A*07
$GPGGA,215107.000,3748.5529,N,12217.8580,W,1,04,2.4,0.5,M,-25.1,M,,0000*63
$GPGSA,A,3,15,26,04,08,,,,,,,,,8.6,2.4,8.3*3D
$GPRMC,215107.000,A,3748.5529,N,12217.8580,W,1.62,227.75,190712,,,A*71
$GPVTG,227.75,T,,M,1.62,N,3.0,K,A*0E
$GPGGA,215108.000,3748.5529,N,12217.8586,W,1,04,2.4,-0.8,M,-25.1,M,,0000*4A
$GPGSA,A,3,15,26,04,08,,,,,,,,,8.6,2.4,8.3*3D
$GPRMC,215108.000,A,3748.5529,N,12217.8586,W,1.54,249.00,190712,,,A*77
$GPVTG,249.00,T,,M,1.54,N,2.8,K,A*08
$GPGGA,215109.000,3748.5537,N,12217.8580,W,1,04,2.4,-0.2,M,-25.1,M,,0000*48
$GPGSA,A,3,15,26,04,08,,,,,,,,,8.6,2.4,8.3*3D
$GPGSV,3,1,11,17,78,056,28,28,49,056,21,27,41,314,33,26,34,220,28*73
$GPGSV,3,2,11,15,32,272,28,08,29,131,25,09,25,316,36,04,21,160,22*78
$GPGSV,3,3,11,01,16,046,14,11,02,037,,12,00,274,*4C
$GPRMC,215109.000,A,3748.5537,N,12217.8580,W,0.94,255.98,190712,,,A*7E
$GPVTG,255.98,T,,M,0.94,N,1.7,K,A*05
$GPGGA,215110.000,3748.5543,N,12217.8569,W,1,04,2.4,-0.0,M,-25.1,M,,0000*46
$GPGSA,A,3,15,26,04,08,,,,,,,,,8.7,2.4,8.3*3C
$GPRMC,215110.000,A,3748.5543,N,12217.8569,W,0.24,142.74,190712,,,A*7E
$GPVTG,142.74,T,,M,0.24,N,0.4,K,A*0B
$GPGGA,215111.000,3748.5548,N,12217.8561,W,1,04,2.4,-0.5,M,-25.1,M,,0000*41
$GPGSA,A,3,15,26,04,08,,,,,,,,,8.7,2.4,8.3*3C
$GPRMC,215111.000,A,3748.5548,N,12217.8561,W,0.28,58.86,190712,,,A*47
$GPVTG,58.86,T,,M,0.28,N,0.5,K,A*31
$GPGGA,215112.000,3748.5554,N,12217.8555,W,1,04,2.4,-1.0,M,-25.1,M,,0000*4C
$GPGSA,A,3,15,26,04,08,,,,,,,,,8.7,2.4,8.3*3C
$GPRMC,215112.000,A,3748.5554,N,12217.8555,W,0.59,0.55,190712,,,A*7B
$GPVTG,0.55,T,,M,0.59,N,1.1,K,A*01
$GPGGA,215113.000,3748.5560,N,12217.8550,W,1,04,2.4,-1.9,M,-25.1,M,,0000*46
$GPGSA,A,3,15,26,04,08,,,,,,,,,8.7,2.4,8.3*3C
$GPRMC,215113.000,A,3748.5560,N,12217.8550,W,1.06,356.49,190712,,,A*7E
$GPVTG,356.49,T,,M,1.06,N,2.0,K,A*05
$GPGGA,215114.000,3748.5567,N,12217.8546,W,1,04,2.4,-2.9,M,-25.1,M,,0000*42
$GPGSA,A,3,15,26,04,08,,,,,,,,,8.7,2.4,8.3*3C
$GPGSV,3,1,11,17,78,056,25,28,49,056,20,27,41,314,17,26,34,220,28*79
$GPGSV,3,2,11,15,32,272,21,08,29,131,37,09,25,316,18,04,21,160,32*7F
$GPGSV,3,3,11,01,16,046,22,11,02,037,,12,00,274,*49
$GPRMC,215114.000,A,3748.5567,N,12217.8546,W,1.40,352.97,190712,,,A*7C
$GPVTG,352.97,T,,M,1.40,N,2.6,K,A*06
$GPGGA,215115.000,3748.5572,N,12217.8542,W,1,04,2.4,-3.8,M,-25.1,M,,0000*43
$GPGSA,A,3,15,26,04,08,,,,,,,,,8.7,2.4,8.4*3B
$GPRMC,215115.000,A,3748.5572,N,12217.8542,W,1.59,344.46,190712,,,A*7E
$GPVTG,344.46,T,,M,1.59,N,2.9,K,A*0A
$GPGGA,215116.000,3748.5572,N,12217.8541,W,1,04,2.4,-3.5,M,-25.1,M,,0000*4E
$GPGSA,A,3,15,26,04,08,,,,,,,,,8.7,2.4,8.4*3B
$GPRMC,215116.000,A,3748.5572,N,12217.8541,W,1.04,349.18,190712,,,A*70
$GPVTG,349.18,T,,M,1.04,N,1.9,K,A*07
$GPGGA,215117.000,3748.5572,N,12217.8537,W,1,04,2.4,-3.8,M,-25.1,M,,0000*43
$GPGSA,A,3,15,26,04,08,,,,,,,,,8.7,2.4,8.4*3B
$GPRMC,215117.000,A,3748.5572,N,12217.8537,W,0.51,16.13,190712,,,A*43
$GPVTG,16.13,T,,M,0.51,N,0.9,K,A*35
$GPGGA,215118.000,3748.5576,N,12217.8534,W,1,04,2.4,-5.0,M,-25.1,M,,0000*45
$GPGSA,A,3,15,26,04,08,,,,,,,,,8.7,2.4,8.4*3B
$GPRMC,215118.000,A,3748.5576,N,12217.8534,W,0.36,61.45,190712,,,A*49
$GPVTG,61.45,T,,M,0.36,N,0.7,K,A*39
$GPGGA,215119.000,3748.5571,N,12217.8529,W,1,04,2.4,-4.5,M,-25.1,M,,0000*4B
$GPGSA,A,3,15,26,04,08,,,,,,,,,8.7,2.4,8.4*3B
$GPGSV,3,1,12,17,78,056,27,28,49,056,20,27,41,314,17,26,34,220,30*71
$GPGSV,3,2,12,15,32,272,28,08,29,131,37,09,25,316,18,04,21,160,38*7F
$GPRMC,215119.000,A,3748.5571,N,12217.8529,W,0.29,76.43,190712,,,A*4D
$GPVTG,76.43,T,,M,0.29,N,0.5,K,A*35
$GPGGA,215120.000,3748.5559,N,12217.8524,W,1,04,2.4,-2.5,M,-25.1,M,,0000*40
$GPGSA,A,3,15,26,04,08,,,,,,,,,8.8,2.4,8.4*34
$GPRMC,215120.000,A,3748.5559,N,12217.8524,W,0.24,130.13,190712,,,A*7B
$GPVTG,130.13,T,,M,0.24,N,0.4,K,A*0F
$GPGGA,215121.000,3748.5556,N,12217.8521,W,1,04,2.4,-2.0,M,-25.1,M,,0000*4E
$GPGSA,A,3,15,26,04,08,,,,,,,,,8.8,2.4,8.4*34
$GPRMC,215121.000,A,3748.5556,N,12217.8521,W,0.62,153.54,190712,,,A*74
$GPVTG,153.54,T,,M,0.62,N,1.2,K,A*0C
$GPGGA,215122.000,3748.5554,N,12217.8518,W,1,04,2.4,-1.9,M,-25.1,M,,0000*4F
$GPGSA,A,3,15,26,04,08,,,,,,,,,8.8,2.4,8.4*34
$GPRMC,215122.000,A,3748.5554,N,12217.8518,W,0.86,157.13,190712,,,A*72
$GPVTG,157.13,T,,M,0.86,N,1.6,K,A*05
$GPGGA,215123.000,3748.5546,N,12217.8514,W,1,04,2.4,-0.7,M,-25.1,M,,0000*4E
$GPGSA,A,3,15,26,04,08,,,,,,,,,8.8,2.4,8.4*34
$GPRMC,215123.000,A,3748.5546,N,12217.8514,W,1.30,158.99,190712,,,A*7D
$GPVTG,158.99,T,,M,1.30,N,2.4,K,A*05
$GPGGA,215124.000,3748.5548,N,12217.8508,W,1,04,2.4,-2.0,M,-25.1,M,,0000*4F
$GPGSA,A,3,15,26,04,08,,,,,,,,,8.8,2.4,8.5*35
$GPGSV,3,1,11,17,78,056,27,28,49,056,21,27,41,314,17,26,34,220,24*76
$GPGSV,3,2,11,15,32,272,17,08,29,131,37,09,25,316,22,04,21,160,36*77
$GPGSV,3,3,11,01,16,046,21,11,02,037,,12,00,274,*4A
$GPRMC,215124.000,A,3748.5548,N,12217.8508,W,1.37,134.78,190712,,,A*7B
$GPVTG,134.78,T,,M,1.37,N,2.5,K,A*06
$GPGGA,215125.000,3748.5558,N,12217.8500,W,1,04,2.4,-5.9,M,-25.1,M,,0000*49
$GPGSA,A,3,15,26,04,08,,,,,,,,,8.8,2.4,8.5*35
$GPRMC,215125.000,A,3748.5558,N,12217.8500,W,0.93,93.02,190712,,,A*4D
$GPVTG,93.02,T,,M,0.93,N,1.7,K,A*39
$GPGGA,215126.000,3748.5560,N,12217.8492,W,1,04,2.4,-3.6,M,-25.1,M,,0000*42
$GPGSA,A,3,15,26,04,08,,,,,,,,,8.8,2.4,8.5*35
$GPRMC,215126.000,A,3748.5560,N,12217.8492,W,1.05,55.76,190712,,,A*48
$GPVTG,55.76,T,,M,1.05,N,1.9,K,A*30
$GPGGA,215127.000,3748.5553,N,12217.8490,W,1,04,2.5,-1.1,M,-25.1,M,,0000*45
$GPGSA,A,3,15,26,04,08,,,,,,,,,8.8,2.5,8.5*34
$GPRMC,215127.000,A,3748.5553,N,12217.8490,W,0.21,155.35,190712,,,A*7A
$GPVTG,155.35,T,,M,0.21,N,0.4,K,A*0D
$GPGGA,215128.000,3748.5551,N,12217.8488,W,1,04,2.5,-0.4,M,-25.1,M,,0000*45
$GPGSA,A,3,15,26,04,08,,,,,,,,,8.8,2.5,8.5*34
$GPRMC,215128.000,A,3748.5551,N,12217.8488,W,0.22,188.24,190712,,,A*7D
$GPVTG,188.24,T,,M,0.22,N,0.4,K,A*0E
$GPGGA,215129.000,3748.5552,N,12217.8491,W,1,04,2.5,-0.3,M,-25.1,M,,0000*48
$GPGSA,A,3,15,26,04,08,,,,,,,,,8.9,2.5,8.5*35
$GPGSV,3,1,11,17,78,056,17,28,49,056,21,27,41,314,20,26,34,220,31*75
$GPGSV,3,2,11,15,32,272,24,08,29,131,33,09,25,316,17,04,21,160,35*76
$GPGSV,3,3,11,01,16,046,07,11,02,037,,12,00,274,*4E
$GPRMC,215129.000,A,3748.5552,N,12217.8491,W,0.53,242.44,190712,,,A*72
$GPVTG,242.44,T,,M,0.53,N,1.0,K,A*0E
$GPGGA,215130.000,3748.5549,N,12217.8495,W,1,04,2.5,0.8,M,-25.1,M,,0000*68
$GPGSA,A,3,15,26,04,08,,,,,,,,,8.9,2.5,8.5*35
$GPRMC,215130.000,A,3748.5549,N,12217.8495,W,0.35,197.91,190712,,,A*77
$GPVTG,197.91,T,,M,0.35,N,0.6,K,A*0A
$GPGGA,215131.000,3748.5552,N,12217.8498,W,1,04,2.5,0.6,M,-25.1,M,,0000*60
$GPGSA,A,3,15,26,04,08,,,,,,,,,8.9,2.5,8.5*35
$GPRMC,215131.000,A,3748.5552,N,12217.8498,W,0.44,303.79,190712,,,A*7E
$GPVTG,303.79,T,,M,0.44,N,0.8,K,A*0B
$GPGGA,215132.000,3748.5557,N,12217.8498,W,1,04,2.5,1.3,M,-25.1,M,,0000*62
$GPGSA,A,3,15,26,04,08,,,,,,,,,8.9,2.5,8.5*35
$GPRMC,215132.000,A,3748.5557,N,12217.8498,W,0.55,333.84,190712,,,A*79
$GPVTG,333.84,T,,M,0.55,N,1.0,K,A*03
$GPGGA,215133.000,3748.5557,N,12217.8502,W,1,04,2.5,1.1,M,-25.1,M,,0000*63
$GPGSA,A,3,15,26,04,08,,,,,,,,,8.9,2.5,8.6*36
$GPRMC,215133.000,A,3748.5557,N,12217.8502,W,0.16,4.24,190712,,,A*70
$GPVTG,4.24,T,,M,0.16,N,0.3,K,A*0B
$GPGGA,215134.000,3748.5557,N,12217.8506,W,1,04,2.5,-0.3,M,-25.1,M,,0000*4E
$GPGSA,A,3,15,26,04,08,,,,,,,,,8.9,2.5,8.6*36
$GPGSV,3,1,11,17,78,056,25,28,49,056,14,27,41,314,31,26,34,220,21*73
$GPGSV,3,2,11,15,32,272,30,08,29,131,30,09,25,316,25,04,21,160,29*7C
$GPGSV,3,3,11,01,16,046,,11,02,037,,12,00,274,*49
$GPRMC,215134.000,A,3748.5557,N,12217.8506,W,0.23,229.66,190712,,,A*7E
$GPGGA,215135.000,3748.5552,N,12217.8511,W,1,04,2.5,0.1,M,-25.1,M,,0000*63
$GPGSA,A,3,15,26,04,08,,,,,,,,,8.9,2.5,8.6*36
$GPRMC,215135.000,A,3748.5552,N,12217.8511,W,0.06,158.94,190712,,,A*73
$GPVTG,158.94,T,,M,0.06,N,0.1,K,A*0B
$GPGGA,215136.000,3748.5555,N,12217.8514,W,1,04,2.5,-1.1,M,-25.1,M,,0000*4E
$GPGSA,A,3,15,26,04,08,,,,,,,,,8.9,2.5,8.6*36
$GPRMC,215136.000,A,3748.5555,N,12217.8514,W,0.29,326.22,190712,,,A*79
$GPVTG,326.22,T,,M,0.29,N,0.5,K,A*04
$GPGGA,215137.000,3748.5564,N,12217.8511,W,1,04,2.5,-2.2,M,-25.1,M,,0000*48
$GPGSA,A,3,15,26,04,08,,,,,,,,,8.9,2.5,8.6*36
$GPRMC,215137.000,A,3748.5564,N,12217.8511,W,0.22,37.15,190712,,,A*43
$GPVTG,37.15,T,,M,0.22,N,0.4,K,A*39
$GPGGA,215138.000,3748.5561,N,12217.8518,W,1,04,2.5,-5.0,M,-25.1,M,,0000*4E
$GPGSA,A,3,15,26,04,08,,,,,,,,,9.0,2.5,8.6*3E
$GPRMC,215138.000,A,3748.5561,N,12217.8518,W,0.71,269.80,190712,,,A*73
$GPVTG,269.80,T,,M,0.71,N,1.3,K,A*0C
$GPGGA,215139.000,3748.5554,N,12217.8519,W,1,04,2.5,-3.9,M,-25.1,M,,0000*47
$GPGSA,A,3,15,26,04,08,,,,,,,,,9.0,2.5,8.6*3E
$GPGSV,3,1,11,17,78,056,21,28,49,056,18,27,41,314,27,26,34,220,22*7F
$GPGSV,3,2,11,15,32,272,24,08,29,131,27,09,25,316,26,04,21,160,38*7C
$GPGSV,3,3,11,01,16,046,20,11,02,037,,12,00,274,*4B
$GPRMC,215139.000,A,3748.5554,N,12217.8519,W,0.54,252.66,190712,,,A*72
$GPVTG,252.66,T,,M,0.54,N,1.0,K,A*08
$GPGGA,215140.000,3748.5561,N,12217.8515,W,1,04,2.5,-5.3,M,-25.1,M,,0000*4F
$GPGSA,A,3,15,26,04,08,,,,,,,,,9.0,2.5,8.6*3E
$GPRMC,215140.000,A,3748.5561,N,12217.8515,W,0.71,16.28,190712,,,A*49
$GPVTG,16.28,T,,M,0.71,N,1.3,K,A*34
$GPGGA,215141.000,3748.5568,N,12217.8516,W,1,04,2.5,-7.1,M,-25.1,M,,0000*44
$GPGSA,A,3,15,26,04,08,,,,,,,,,9.0,2.5,8.6*3E
$GPRMC,215141.000,A,3748.5568,N,12217.8516,W,0.91,17.00,190712,,,A*47
$GPVTG,17.00,T,,M,0.91,N,1.7,K,A*35
$GPGGA,215142.000,3748.5573,N,12217.8518,W,1,04,2.5,-8.4,M,-25.1,M,,0000*49
$GPGSA,A,3,15,26,04,08,,,,,,,,,9.0,2.5,8.7*3F
$GPRMC,215142.000,A,3748.5573,N,12217.8518,W,0.52,34.33,190712,,,A*4E
$GPVTG,34.33,T,,M,0.52,N,1.0,K,A*3C
$GPGGA,215143.000,3748.5574,N,12217.8517,W,1,04,2.5,-8.8,M,-25.1,M,,0000*4C
$GPGSA,A,3,15,26,04,08,,,,,,,,,9.0,2.5,8.7*3F
$GPRMC,215143.000,A,3748.5574,N,12217.8517,W,0.52,79.17,190712,,,A*48
$GPVTG,79.17,T,,M,0.52,N,1.0,K,A*33
$GPGGA,215144.000,3748.5574,N,12217.8517,W,1,04,2.5,-9.0,M,-25.1,M,,0000*42
$GPGSA,A,3,15,26,04,08,,,,,,,,,9.0,2.5,8.7*3F
$GPGSV,3,1,11,17,78,056,27,28,49,056,18,27,41,314,17,26,34,220,29*71
$GPGSV,3,2,11,15,32,272,21,08,29,131,37,09,25,316,26,04,21,160,36*76
$GPGSV,3,3,11,01,16,046,17,11,02,037,,12,00,274,*4F
$GPRMC,215144.000,A,3748.5574,N,12217.8517,W,0.28,68.29,190712,,,A*4F
$GPVTG,68.29,T,,M,0.28,N,0.5,K,A*37
$GPGGA,215145.000,3748.5571,N,12217.8519,W,1,04,2.5,-7.9,M,-25.1,M,,0000*4F
$GPGSA,A,3,15,26,04,08,,,,,,,,,9.0,2.5,8.7*3F
$GPRMC,215145.000,A,3748.5571,N,12217.8519,W,0.20,86.73,190712,,,A*42
$GPVTG,86.73,T,,M,0.20,N,0.4,K,A*31
$GPGGA,215146.000,3748.5572,N,12217.8520,W,1,04,2.5,-8.2,M,-25.1,M,,0000*41
$GPGSA,A,3,15,26,04,08,,,,,,,,,9.0,2.5,8.7*3F
$GPRMC,215146.000,A,3748.5572,N,12217.8520,W,0.54,325.84,190712,,,A*79
$GPVTG,325.84,T,,M,0.54,N,1.0,K,A*05
$GPGGA,215147.000,3748.5573,N,12217.8521,W,1,04,2.5,-8.5,M,-25.1,M,,0000*47
$GPGSA,A,3,15,26,04,08,,,,,,,,,9.1,2.5,8.7*3E
$GPRMC,215147.000,A,3748.5573,N,12217.8521,W,0.40,340.29,190712,,,A*79
$GPVTG,340.29,T,,M,0.40,N,0.7,K,A*02
$GPGGA,215148.000,3748.5574,N,12217.8522,W,1,04,2.5,-8.7,M,-25.1,M,,0000*4E
$GPGSA,A,3,15,26,04,08,,,,,,,,,9.1,2.5,8.7*3E
$GPRMC,215148.000,A,3748.5574,N,12217.8522,W,0.26,356.84,190712,,,A*72
$GPVTG,356.84,T,,M,0.26,N,0.5,K,A*00
$GPGGA,215149.000,3748.5574,N,12217.8524,W,1,04,2.5,-9.2,M,-25.1,M,,0000*4D
$GPGSA,A,3,15,26,04,08,,,,,,,,,9.1,2.5,8.7*3E
$GPGSV,3,1,11,17,78,056,25,28,49,056,18,27,41,314,29,26,34,220,36*70
$GPGSV,3,2,11,15,32,272,33,08,29,131,30,09,25,316,32,04,21,160,36*77
$GPGSV,3,3,11,01,16,046,,11,02,037,,12,00,274,*49
$GPRMC,215149.000,A,3748.5574,N,12217.8524,W,0.17,350.25,190712,,,A*7A
$GPVTG,350.25,T,,M,0.17,N,0.3,K,A*09
$GPGGA,215150.000,3748.5575,N,12217.8525,W,1,04,2.5,-9.7,M,-25.1,M,,0000*40
$GPGSA,A,3,15,26,04,08,,,,,,,,,9.1,2.5,8.7*3E
$GPRMC,215150.000,A,3748.5575,N,12217.8525,W,0.17,347.73,190712,,,A*77
$GPVTG,347.73,T,,M,0.17,N,0.3,K,A*0C
$GPGGA,215151.000,3748.5575,N,12217.8525,W,1,04,2.5,-10.2,M,-25.1,M,,0000*7C
$GPGSA,A,3,15,26,04,08,,,,,,,,,9.1,2.5,8.8*31
$GPRMC,215151.000,A,3748.5575,N,12217.8525,W,0.16,357.23,190712,,,A*73
$GPVTG,357.23,T,,M,0.16,N,0.3,K,A*09
$GPGGA,215152.000,3748.5576,N,12217.8526,W,1,04,2.5,-10.4,M,-25.1,M,,0000*79
$GPGSA,A,3,15,26,04,08,,,,,,,,,9.1,2.5,8.8*31
$GPRMC,215152.000,A,3748.5576,N,12217.8526,W,0.15,340.62,190712,,,A*70
$GPVTG,340.62,T,,M,0.15,N,0.3,K,A*09
$GPGGA,215153.000,3748.5576,N,12217.8526,W,1,04,2.5,-10.4,M,-25.1,M,,0000*78
$GPGSA,A,3,15,26,04,08,,,,,,,,,9.1,2.5,8.8*31
$GPRMC,215153.000,A,3748.5576,N,12217.8526,W,0.16,5.90,190712,,,A*7D
$GPVTG,5.90,T,,M,0.16,N,0.3,K,A*05
$GPGGA,215154.000,3748.5576,N,12217.8526,W,1,04,2.5,-10.5,M,-25.1,M,,0000*7E
$GPGSA,A,3,15,26,04,08,,,,,,,,,9.1,2.5,8.8*31
$GPGSV,3,1,11,17,78,056,24,28,49,056,21,27,41,314,28,26,34,220,37*7B
$GPGSV,3,2,11,15,32,272,34,08,29,131,29,09,25,316,31,04,21,160,36*7B
$GPGSV,3,3,11,01,16,046,,11,02,037,,12,00,274,*49
$GPRMC,215154.000,A,3748.5576,N,12217.8526,W,0.18,354.08,190712,,,A*72
$GPVTG,354.08,T,,M,0.18,N,0.3,K,A*0D
$GPGGA,215155.000,3748.5576,N,12217.8526,W,1,04,2.5,-10.5,M,-25.1,M,,0000*7F
$GPGSA,A,3,15,26,04,08,,,,,,,,,9.1,2.5,8.8*31
$GPRMC,215155.000,A,3748.5576,N,12217.8526,W,0.10,358.58,190712,,,A*72
$GPVTG,358.58,T,,M,0.10,N,0.2,K,A*0D
$GPGGA,215156.000,3748.5576,N,12217.8526,W,1,04,2.5,-10.7,M,-25.1,M,,0000*7E
$GPGSA,A,3,15,26,04,08,,,,,,,,,9.2,2.5,8.8*32
$GPRMC,215156.000,A,3748.5576,N,12217.8526,W,0.13,349.77,190712,,,A*7F
$GPVTG,349.77,T,,M,0.13,N,0.2,K,A*03
$GPGGA,215157.000,3748.5576,N,12217.8525,W,1,04,2.5,-10.8,M,-25.1,M,,0000*73
$GPGSA,A,3,15,26,04,08,,,,,,,,,9.2,2.5,8.8*32
$GPRMC,215157.000,A,3748.5576,N,12217.8525,W,0.14,3.11,190712,,,A*77
$GPVTG,3.11,T,,M,0.14,N,0.3,K,A*08
$GPGGA,215158.000,3748.5577,N,12217.8525,W,1,04,2.5,-10.9,M,-25.1,M,,0000*7C
$GPGSA,A,3,15,26,04,08,,,,,,,,,9.2,2.5,8.8*32
$GPRMC,215158.000,A,3748.5577,N,12217.8525,W,0.13,358.73,190712,,,A*77
$GPVTG,358.73,T,,M,0.13,N,0.2,K,A*07
$GPGGA,215159.000,3748.5577,N,12217.8524,W,1,04,2.5,-10.9,M,-25.1,M,,0000*7C
$GPGSA,A,3,15,26,04,08,,,,,,,,,9.2,2.5,8.9*33
$GPGSV,3,1,11,17,78,056,24,28,49,056,20,27,41,314,24,26,34,220,36*77
$GPGSV,3,2,11,15,32,272,34,08,29,131,29,09,25,316,28,04,21,160,35*70
$GPGSV,3,3,11,01,16,046,,11,02,037,,12,00,274,*49
$GPRMC,215159.000,A,3748.5577,N,12217.8524,W,0.22,26.88,190712,,,A*4B
$GPVTG,26.88,T,,M,0.22,N,0.4,K,A*3D
$GPGGA,215200.000,3748.5577,N,12217.8523,W,1,04,2.5,-10.9,M,-25.1,M,,0000*74
$GPGSA,A,3,15,26,04,08,,,,,,,,,9.2,2.5,8.9*33
$GPRMC,215200.000,A,3748.5577,N,12217.8523,W,0.14,1.49,190712,,,A*7E
$GPVTG,1.49,T,,M,0.14,N,0.3,K,A*07
$GPGGA,215201.000,3748.5578,N,12217.8523,W,1,04,2.5,-10.9,M,-25.1,M,,0000*7A
$GPGSA,A,3,15,26,04,08,,,,,,,,,9.2,2.5,8.9*33
$GPRMC,215201.000,A,3748.5578,N,12217.8523,W,0.07,319.77,190712,,,A*75
$GPVTG,319.77,T,,M,0.07,N,0.1,K,A*00
$GPGGA,215202.000,3748.5578,N,12217.8523,W,1,04,2.5,-10.9,M,-25.1,M,,0000*79
$GPGSA,A,3,15,26,04,08,,,,,,,,,9.2,2.5,8.9*33
$GPRMC,215202.000,A,3748.5578,N,12217.8523,W,0.14,1.18,190712,,,A*77
$GPVTG,1.18,T,,M,0.14,N,0.3,K,A*03
$GPGGA,215203.000,3748.5578,N,12217.8522,W,1,04,2.5,-10.9,M,-25.1,M,,0000*79
$GPGSA,A,3,15,26,04,08,,,,,,,,,9.2,2.5,8.9*33
$GPRMC,215203.000,A,3748.5578,N,12217.8522,W,0.12,0.39,190712,,,A*73
$GPVTG,0.39,T,,M,0.12,N,0.2,K,A*06
$GPGGA,215204.000,3748.5579,N,12217.8522,W,1,04,2.5,-11.0,M,-25.1,M,,0000*77
$GPGSA,A,3,15,26,04,08,,,,,,,,,9.3,2.5,8.9*32
$GPGSV,3,1,11,17,78,056,18,28,49,056,19,27,41,314,27,26,34,220,35*72
$GPGSV,3,2,11,15,32,272,33,08,29,131,32,09,25,316,19,04,21,160,34*7E
$GPGSV,3,3,11,01,16,046,,11,02,037,,12,00,274,*49
$GPRMC,215204.000,A,3748.5579,N,12217.8522,W,0.15,8.35,190712,,,A*76
$GPVTG,8.35,T,,M,0.15,N,0.3,K,A*04
$GPGGA,215205.000,3748.5580,N,12217.8521,W,1,04,2.5,-11.2,M,-25.1,M,,0000*71
$GPGSA,A,3,15,26,04,08,,,,,,,,,9.3,2.5,8.9*32
$GPRMC,215205.000,A,3748.5580,N,12217.8521,W,0.15,4.65,190712,,,A*7B
$GPVTG,4.65,T,,M,0.15,N,0.3,K,A*0D
$GPGGA,215206.000,3748.5581,N,12217.8521,W,1,04,2.5,-11.4,M,-25.1,M,,0000*75
$GPGSA,A,3,15,26,04,08,,,,,,,,,9.3,2.5,8.9*32
$GPRMC,215206.000,A,3748.5581,N,12217.8521,W,0.19,4.88,190712,,,A*76
$GPVTG,4.88,T,,M,0.19,N,0.4,K,A*05
$GPGGA,215207.000,3748.5582,N,12217.8520,W,1,04,2.5,-11.8,M,-25.1,M,,0000*7A
$GPGSA,A,3,15,26,04,08,,,,,,,,,9.3,2.5,9.0*3A
$GPRMC,215207.000,A,3748.5582,N,12217.8520,W,0.23,7.02,190712,,,A*7D
$GPVTG,7.02,T,,M,0.23,N,0.4,K,A*0D
$GPGGA,215208.000,3748.5584,N,12217.8520,W,1,04,2.5,-12.2,M,-25.1,M,,0000*7A
$GPGSA,A,3,15,26,04,08,,,,,,,,,9.3,2.5,9.0*3A
$GPRMC,215208.000,A,3748.5584,N,12217.8520,W,0.15,356.90,190712,,,A*7D
$GPVTG,356.90,T,,M,0.15,N,0.3,K,A*03
$GPGGA,215209.000,3748.5584,N,12217.8520,W,1,04,2.5,-12.7,M,-25.1,M,,0000*7E
$GPGSA,A,3,15,26,04,08,,,,,,,,,9.3,2.5,9.0*3A
$GPGSV,3,1,11,17,78,056,16,28,49,056,18,27,41,314,25,26,34,220,35*7F
$GPGSV,3,2,11,15,32,272,32,08,29,131,33,09,25,316,26,04,21,160,34*72
$GPGSV,3,3,11,01,16,046,,11,02,037,,12,00,274,*49
$GPRMC,215209.000,A,3748.5584,N,12217.8520,W,0.39,135.93,190712,,,A*76
$GPVTG,135.93,T,,M,0.39,N,0.7,K,A*0D
$GPGGA,215210.000,3748.5583,N,12217.8520,W,1,04,2.5,-13.1,M,-25.1,M,,0000*76
$GPGSA,A,3,15,26,04,08,,,,,,,,,9.3,2.5,9.0*3A
$GPRMC,215210.000,A,3748.5583,N,12217.8520,W,0.50,217.34,190712,,,A*78
$GPVTG,217.34,T,,M,0.50,N,0.9,K,A*02
$GPGGA,215211.000,3748.5579,N,12217.8526,W,1,04,2.5,-13.7,M,-25.1,M,,0000*72
$GPGSA,A,3,15,26,04,08,,,,,,,,,9.3,2.5,9.0*3A
$GPRMC,215211.000,A,3748.5579,N,12217.8526,W,1.67,228.97,190712,,,A*7A
$GPVTG,228.97,T,,M,1.67,N,3.1,K,A*09
$GPGGA,215212.000,3748.5571,N,12217.8538,W,1,04,2.5,-14.8,M,-25.1,M,,0000*7E
$GPGSA,A,3,15,26,04,08,,,,,,,,,9.3,2.5,9.0*3A
$GPRMC,215212.000,A,3748.5571,N,12217.8538,W,2.06,230.94,190712,,,A*70
$GPVTG,230.94,T,,M,2.06,N,3.8,K,A*0E
$GPGGA,215213.000,3748.5568,N,12217.8541,W,1,04,2.5,-13.7,M,-25.1,M,,0000*71
$GPGSA,A,3,15,26,04,08,,,,,,,,,9.4,2.5,9.0*3D
$GPRMC,215213.000,A,3748.5568,N,12217.8541,W,1.34,232.07,190712,,,A*7D
$GPVTG,232.07,T,,M,1.34,N,2.5,K,A*08
$GPGGA,215214.000,3748.5562,N,12217.8549,W,1,04,2.5,-15.6,M,-25.1,M,,0000*73
$GPGSA,A,3,15,26,04,08,,,,,,,,,9.4,2.5,9.0*3D
$GPGSV,3,1,11,17,78,056,26,28,49,056,18,27,41,314,35,26,34,220,35*7D
$GPGSV,3,2,11,15,32,272,36,08,29,131,23,09,25,316,33,04,21,160,26*70
$GPGSV,3,3,11,01,16,046,,11,02,037,,12,00,274,*49
$GPVTG,229.05,T,,M,1.28,N,2.4,K,A*0C
$GPGGA,215215.000,3748.5559,N,12217.8553,W,1,04,2.5,-15.0,M,-25.1,M,,0000*77
$GPGSA,A,3,15,26,04,08,,,,,,,,,9.4,2.5,9.1*3C
$GPRMC,215215.000,A,3748.5559,N,12217.8553,W,1.49,223.35,190712,,,A*71
$GPVTG,223.35,T,,M,1.49,N,2.8,K,A*0E
$GPGGA,215216.000,3748.5555,N,12217.8560,W,1,04,2.5,-14.1,M,-25.1,M,,0000*78
$GPGSA,A,3,15,26,04,08,,,,,,,,,9.4,2.5,9.1*3C
$GPRMC,215216.000,A,3748.5555,N,12217.8560,W,1.68,230.13,190712,,,A*7B
$GPVTG,230.13,T,,M,1.68,N,3.1,K,A*03
$GPGGA,215217.000,3748.5550,N,12217.8567,W,1,04,2.5,-14.6,M,-25.1,M,,0000*7C
$GPGSA,A,3,15,26,04,08,,,,,,,,,9.4,2.5,9.1*3C
$GPRMC,215217.000,A,3748.5550,N,12217.8567,W,1.57,212.99,190712,,,A*76
$GPVTG,212.99,T,,M,1.57,N,2.9,K,A*04
$GPGGA,215218.000,3748.5545,N,12217.8573,W,1,04,2.5,-15.6,M,-25.1,M,,0000*73
$GPGSA,A,3,15,26,04,08,,,,,,,,,9.4,2.5,9.1*3C
$GPRMC,215218.000,A,3748.5545,N,12217.8573,W,1.39,208.32,190712,,,A*7A
$GPVTG,208.32,T,,M,1.39,N,2.6,K,A*09
$GPGGA,215219.000,3748.5543,N,12217.8572,W,1,04,2.5,-15.6,M,-25.1,M,,0000*75
$GPGSA,A,3,15,26,04,08,,,,,,,,,9.4,2.5,9.1*3C
$GPGSV,3,1,11,17,78,054,23,28,48,057,18,27,41,314,27,26,33,220,36*7D
$GPGSV,3,2,11,15,31,271,34,08,28,132,24,09,25,316,30,04,21,160,33*70
$GPGSV,3,3,11,01,15,045,,11,01,037,,12,00,275,*4B
$GPRMC,215219.000,A,3748.5543,N,12217.8572,W,1.10,188.56,190712,,,A*7E
$GPVTG,188.56,T,,M,1.10,N,2.0,K,A*0D
$GPGGA,215220.000,3748.5541,N,12217.8572,W,1,04,2.5,-15.5,M,-25.1,M,,0000*7E
$GPGSA,A,3,15,26,04,08,,,,,,,,,9.4,2.5,9.1*3C
$GPRMC,215220.000,A,3748.5541,N,12217.8572,W,1.10,207.98,190712,,,A*70
$GPVTG,207.98,T,,M,1.10,N,2.0,K,A*0B
$GPGGA,215221.000,3748.5540,N,12217.8570,W,1,04,2.5,-14.4,M,-25.1,M,,0000*7C
$GPGSA,A,3,15,26,04,08,,,,,,,,,9.5,2.5,9.1*3D
$GPRMC,215221.000,A,3748.5540,N,12217.8570,W,1.25,221.08,190712,,,A*79
$GPVTG,221.08,T,,M,1.25,N,2.3,K,A*03
$GPGGA,215222.000,3748.5537,N,12217.8572,W,1,04,2.5,-14.8,M,-25.1,M,,0000*71
$GPGSA,A,3,15,26,04,08,,,,,,,,,9.5,2.5,9.1*3D
$GPRMC,215222.000,A,3748.5537,N,12217.8572,W,1.51,219.53,190712,,,A*7E
$GPVTG,219.53,T,,M,1.51,N,2.8,K,A*0E
$GPGGA,215223.000,3748.5534,N,12217.8574,W,1,04,2.5,-15.2,M,-25.1,M,,0000*7E
$GPGSA,A,3,15,26,04,08,,,,,,,,,9.5,2.5,9.2*3E
$GPRMC,215223.000,A,3748.5534,N,12217.8574,W,1.19,208.39,190712,,,A*7A
$GPVTG,208.39,T,,M,1.19,N,2.2,K,A*04
$GPGGA,215224.000,3748.5529,N,12217.8575,W,1,04,2.5,-14.5,M,-25.1,M,,0000*72
$GPGSA,A,3,15,26,04,08,,,,,,,,,9.5,2.5,9.2*3E
$GPGSV,3,1,11,17,78,054,24,28,48,057,19,27,41,314,28,26,33,220,35*77
$GPGSV,3,2,11,15,31,271,28,08,28,132,27,09,25,316,28,04,21,160,34*70
$GPGSV,3,3,11,01,15,045,,11,01,037,,12,00,275,*4B
$GPRMC,215224.000,A,3748.5529,N,12217.8575,W,1.02,197.82,190712,,,A*7F
$GPVTG,197.82,T,,M,1.02,N,1.9,K,A*03
$GPGGA,215225.000,3748.5525,N,12217.8573,W,1,04,2.5,-13.6,M,-25.1,M,,0000*7D
$GPGSA,A,3,15,26,04,08,,,,,,,,,9.5,2.5,9.2*3E
$GPRMC,215225.000,A,3748.5525,N,12217.8573,W,0.66,207.60,190712,,,A*71
$GPVTG,207.60,T,,M,0.66,N,1.2,K,A*0D
$GPGGA,215226.000,3748.5525,N,12217.8570,W,1,04,2.5,-12.7,M,-25.1,M,,0000*7D
$GPGSA,A,3,15,26,04,08,,,,,,,,,9.5,2.5,9.2*3E
$GPRMC,215226.000,A,3748.5525,N,12217.8570,W,0.80,233.07,190712,,,A*7F
$GPVTG,233.07,T,,M,0.80,N,1.5,K,A*04
$GPGGA,215227.000,3748.5523,N,12217.8572,W,1,04,2.5,-12.9,M,-25.1,M,,0000*76
$GPGSA,A,3,15,26,04,08,,,,,,,,,9.5,2.5,9.2*3E
$GPRMC,215227.000,A,3748.5523,N,12217.8572,W,0.67,230.92,190712,,,A*7C
$GPVTG,230.92,T,,M,0.67,N,1.2,K,A*05
$GPGGA,215228.000,3748.5522,N,12217.8573,W,1,03,3.9,-12.8,M,-25.1,M,,0000*72
$GPGSA,A,2,15,26,04,,,,,,,,,,4.0,3.9,1.0*38
$GPRMC,215228.000,A,3748.5522,N,12217.8573,W,0.57,201.81,190712,,,A*70
$GPVTG,201.81,T,,M,0.57,N,1.1,K,A*05
$GPGGA,215229.000,3748.5518,N,12217.8576,W,1,04,2.5,-13.2,M,-25.1,M,,0000*7E
$GPGSA,A,3,15,26,04,08,,,,,,,,,9.6,2.5,9.2*3D
$GPGSV,3,1,11,17,78,054,23,28,48,057,20,27,41,314,28,26,33,220,36*79
$GPGSV,3,2,11,15,31,271,36,08,28,132,18,09,25,316,32,04,21,160,27*7A
$GPGSV,3,3,11,01,15,045,,11,01,037,,12,00,275,*4B
$GPRMC,215229.000,A,3748.5518,N,12217.8576,W,0.65,206.68,190712,,,A*7C
$GPGGA,215230.000,3748.5516,N,12217.8576,W,1,03,3.9,-14.9,M,-25.1,M,,0000*7E
$GPGSA,A,2,15,26,04,,,,,,,,,,4.0,3.9,1.0*38
$GPRMC,215230.000,A,3748.5516,N,12217.8576,W,0.55,203.91,190712,,,A*7A
$GPVTG,203.91,T,,M,0.55,N,1.0,K,A*05
$GPGGA,215231.000,3748.5508,N,12217.8585,W,1,04,2.5,-18.9,M,-25.1,M,,0000*7A
$GPGSA,A,3,15,26,04,08,,,,,,,,,9.6,2.5,9.3*3C
$GPRMC,215231.000,A,3748.5508,N,12217.8585,W,0.85,199.10,190712,,,A*7C
$GPVTG,199.10,T,,M,0.85,N,1.6,K,A*07
$GPGGA,215232.000,3748.5502,N,12217.8590,W,1,04,2.5,-21.4,M,-25.1,M,,0000*70
$GPGSA,A,3,15,26,04,08,,,,,,,,,9.6,2.5,9.3*3C
$GPRMC,215232.000,A,3748.5502,N,12217.8590,W,1.46,197.78,190712,,,A*7F
$GPVTG,197.78,T,,M,1.46,N,2.7,K,A*0B
$GPGGA,215233.000,3748.5496,N,12217.8592,W,1,04,2.5,-23.1,M,-25.1,M,,0000*78
$GPGSA,A,3,15,26,04,08,,,,,,,,,9.6,2.5,9.3*3C
$GPRMC,215233.000,A,3748.5496,N,12217.8592,W,1.61,177.25,190712,,,A*73
$GPVTG,177.25,T,,M,1.61,N,3.0,K,A*0E
$GPGGA,215234.000,3748.5493,N,12217.8588,W,1,04,2.5,-23.3,M,-25.1,M,,0000*73
$GPGSA,A,3,15,26,04,08,,,,,,,,,9.6,2.5,9.3*3C
$GPGSV,3,1,12,17,78,054,23,28,48,057,19,27,41,314,25,26,33,220,36*7D
$GPGSV,3,2,12,15,31,271,31,08,28,132,31,09,25,316,26,04,21,160,35*73
$GPGSV,3,3,12,01,15,045,,11,01,037,,12,00,275,,46,38,143,27*72
$GPRMC,215234.000,A,3748.5493,N,12217.8588,W,1.54,166.16,190712,,,A*7C
$GPVTG,166.16,T,,M,1.54,N,2.9,K,A*00
$GPGGA,215235.000,3748.5491,N,12217.8584,W,1,04,2.5,-23.3,M,-25.1,M,,0000*7C
$GPGSA,A,3,15,26,04,08,,,,,,,,,9.6,2.5,9.3*3C
$GPRMC,215235.000,A,3748.5491,N,12217.8584,W,1.34,170.23,190712,,,A*74
$GPVTG,170.23,T,,M,1.34,N,2.5,K,A*0B
$GPGGA,215236.000,3748.5488,N,12217.8582,W,1,04,2.5,-23.3,M,-25.1,M,,0000*71
$GPGSA,A,3,15,26,04,08,,,,,,,,,9.7,2.5,9.3*3D
$GPRMC,215236.000,A,3748.5488,N,12217.8582,W,1.42,172.29,190712,,,A*70
$GPVTG,172.29,T,,M,1.42,N,2.6,K,A*01
$GPGGA,215237.000,3748.5485,N,12217.8580,W,1,04,2.5,-23.6,M,-25.1,M,,0000*7A
$GPGSA,A,3,15,26,04,08,,,,,,,,,9.7,2.5,9.3*3D
$GPRMC,215237.000,A,3748.5485,N,12217.8580,W,1.18,178.06,190712,,,A*76
$GPVTG,178.06,T,,M,1.18,N,2.2,K,A*0D
$GPGGA,215238.000,3748.5478,N,12217.8583,W,1,04,2.5,-25.1,M,-25.1,M,,0000*75
$GPGSA,A,3,15,26,04,08,,,,,,,,,9.7,2.5,9.4*3A
$GPRMC,215238.000,A,3748.5478,N,12217.8583,W,1.18,182.75,190712,,,A*79
$GPVTG,182.75,T,,M,1.18,N,2.2,K,A*0C
$GPGGA,215239.000,3748.5468,N,12217.8582,W,1,04,2.5,-23.1,M,-25.1,M,,0000*72
$GPGSA,A,3,15,26,04,08,,,,,,,,,9.7,2.5,9.4*3A
$GPGSV,3,1,11,17,78,054,23,28,48,057,20,27,41,314,21,26,33,220,25*72
$GPGSV,3,2,11,15,31,271,24,08,28,132,26,09,25,316,22,04,21,160,36*75
$GPGSV,3,3,11,01,15,045,,11,01,037,,12,00,275,*4B
$GPRMC,215239.000,A,3748.5468,N,12217.8582,W,1.58,179.24,190712,,,A*7C
$GPVTG,179.24,T,,M,1.58,N,2.9,K,A*03
$GPGGA,215240.000,3748.5469,N,12217.8584,W,1,04,2.5,-24.1,M,-25.1,M,,0000*7C
$GPGSA,A,3,15,26,04,08,,,,,,,,,9.7,2.5,9.4*3A
$GPRMC,215240.000,A,3748.5469,N,12217.8584,W,1.58,219.62,190712,,,A*72
$GPVTG,219.62,T,,M,1.58,N,2.9,K,A*04
$GPGGA,215241.000,3748.5474,N,12217.8583,W,1,04,2.5,-27.9,M,-25.1,M,,0000*7D
$GPGSA,A,3,15,26,04,08,,,,,,,,,9.7,2.5,9.4*3A
$GPRMC,215241.000,A,3748.5474,N,12217.8583,W,0.59,174.31,190712,,,A*76
$GPVTG,174.31,T,,M,0.59,N,1.1,K,A*01
$GPGGA,215242.000,3748.5469,N,12217.8583,W,1,04,2.5,-28.7,M,-25.1,M,,0000*73
$GPGSA,A,3,15,26,04,08,,,,,,,,,9.7,2.5,9.4*3A
$GPRMC,215242.000,A,3748.5469,N,12217.8583,W,1.28,157.98,190712,,,A*7C
$GPVTG,157.98,T,,M,1.28,N,2.4,K,A*02
$GPGGA,215243.000,3748.5470,N,12217.8580,W,1,04,2.5,-31.2,M,-25.1,M,,0000*74
$GPGSA,A,3,15,26,04,08,,,,,,,,,9.7,2.5,9.4*3A
$GPRMC,215243.000,A,3748.5470,N,12217.8580,W,1.15,163.01,190712,,,A*7F
$GPVTG,163.01,T,,M,1.15,N,2.1,K,A*0E
$GPGGA,215244.000,3748.5473,N,12217.8573,W,1,04,2.5,-34.2,M,-25.1,M,,0000*79
$GPGSA,A,3,15,26,04,08,,,,,,,,,9.8,2.5,9.4*35
$GPGSV,3,1,11,17,78,054,14,28,48,057,19,27,41,314,15,26,33,220,22*7C
$GPGSV,3,2,11,15,31,271,23,08,28,132,31,09,25,316,12,04,21,160,28*78
$GPGSV,3,3,11,01,15,045,,11,01,037,,12,00,275,*4B
$GPRMC,215244.000,A,3748.5473,N,12217.8573,W,0.84,139.27,190712,,,A*75
$GPGGA,215245.000,3748.5476,N,12217.8563,W,1,04,2.5,-37.5,M,-25.1,M,,0000*78
$GPGSA,A,3,15,26,04,08,,,,,,,,,9.8,2.5,9.5*34
$GPRMC,215245.000,A,3748.5476,N,12217.8563,W,1.52,100.33,190712,,,A*75
$GPVTG,100.33,T,,M,1.52,N,2.8,K,A*00
$GPGGA,215246.000,3748.5476,N,12217.8558,W,1,04,2.5,-39.6,M,-25.1,M,,0000*7E
$GPGSA,A,3,15,26,04,08,,,,,,,,,9.8,2.5,9.5*34
$GPRMC,215246.000,A,3748.5476,N,12217.8558,W,1.73,103.25,190712,,,A*79
$GPVTG,103.25,T,,M,1.73,N,3.2,K,A*0C
$GPGGA,215247.000,3748.5471,N,12217.8551,W,1,04,2.5,-40.0,M,-25.1,M,,0000*79
$GPGSA,A,3,15,26,04,08,,,,,,,,,9.8,2.5,9.5*34
$GPRMC,215247.000,A,3748.5471,N,12217.8551,W,1.73,103.14,190712,,,A*74
$GPVTG,103.14,T,,M,1.73,N,3.2,K,A*0E
$GPGGA,215248.000,3748.5466,N,12217.8546,W,1,04,2.5,-40.7,M,-25.1,M,,0000*71
$GPGSA,A,3,15,26,04,08,,,,,,,,,9.8,2.5,9.5*34
$GPRMC,215248.000,A,3748.5466,N,12217.8546,W,1.20,116.78,190712,,,A*73
$GPVTG,116.78,T,,M,1.20,N,2.2,K,A*07
$GPGGA,215249.000,3748.5464,N,12217.8540,W,1,03,4.7,-40.7,M,-25.1,M,,0000*77
$GPGSA,A,2,26,04,08,,,,,,,,,,4.8,4.7,1.0*35
$GPGSV,3,1,11,17,78,054,17,28,48,057,19,27,41,314,14,26,33,220,19*76
$GPGSV,3,2,11,15,31,271,19,08,28,132,30,09,25,316,15,04,21,160,29*76
$GPGSV,3,3,11,01,15,045,,11,01,037,,12,00,275,*4B
$GPRMC,215249.000,A,3748.5464,N,12217.8540,W,1.63,107.18,190712,,,A*77
$GPVTG,107.18,T,,M,1.63,N,3.0,K,A*05
$GPGGA,215250.000,3748.5451,N,12217.8536,W,1,04,2.5,-39.4,M,-25.1,M,,0000*76
$GPGSA,A,3,15,26,04,08,,,,,,,,,9.8,2.5,9.5*34
$GPRMC,215250.000,A,3748.5451,N,12217.8536,W,1.22,129.41,190712,,,A*7D
$GPVTG,129.41,T,,M,1.22,N,2.3,K,A*02
$GPGGA,215251.000,3748.5443,N,12217.8535,W,1,04,2.5,-39.1,M,-25.1,M,,0000*72
$GPGSA,A,3,15,26,04,08,,,,,,,,,9.9,2.5,9.5*35
$GPRMC,215251.000,A,3748.5443,N,12217.8535,W,1.08,110.17,190712,,,A*7D
$GPVTG,110.17,T,,M,1.08,N,2.0,K,A*00
$GPGGA,215252.000,3748.5431,N,12217.8535,W,1,04,2.5,-37.6,M,-25.1,M,,0000*7D
$GPGSA,A,3,15,26,04,08,,,,,,,,,9.9,2.5,9.6*36
$GPRMC,215252.000,A,3748.5431,N,12217.8535,W,1.51,143.60,190712,,,A*71
$GPVTG,143.60,T,,M,1.51,N,2.8,K,A*02
$GPGGA,215253.000,3748.5421,N,12217.8536,W,1,04,2.5,-33.7,M,-25.1,M,,0000*7B
$GPGSA,A,3,15,26,04,08,,,,,,,,,9.9,2.5,9.6*36
$GPRMC,215253.000,A,3748.5421,N,12217.8536,W,1.69,149.50,190712,,,A*70
$GPVTG,149.50,T,,M,1.69,N,3.1,K,A*08
$GPGGA,215254.000,3748.5412,N,12217.8540,W,1,04,2.5,-33.1,M,-25.1,M,,0000*7B
$GPGSA,A,3,15,26,04,08,,,,,,,,,9.9,2.5,9.6*36
$GPGSV,3,1,11,17,78,054,18,28,48,057,20,27,41,314,15,26,33,220,19*72
$GPGSV,3,2,11,15,31,271,19,08,28,132,25,09,25,316,15,04,21,160,24*7F
$GPGSV,3,3,11,01,15,045,20,11,01,037,,12,00,275,*49
$GPRMC,215254.000,A,3748.5412,N,12217.8540,W,2.22,156.88,190712,,,A*71
$GPVTG,156.88,T,,M,2.22,N,4.1,K,A*08
$GPGGA,215255.000,3748.5398,N,12217.8539,W,1,04,2.5,-29.5,M,-25.1,M,,0000*7E
$GPGSA,A,3,15,26,04,08,,,,,,,,,9.9,2.5,9.6*36
$GPRMC,215255.000,A,3748.5398,N,12217.8539,W,2.76,149.10,190712,,,A*75
$GPVTG,149.10,T,,M,2.76,N,5.1,K,A*07
$GPGGA,215256.000,3748.5390,N,12217.8531,W,1,04,2.5,-24.6,M,-25.1,M,,0000*73
$GPGSA,A,3,15,26,04,08,,,,,,,,,9.9,2.5,9.6*36
$GPRMC,215256.000,A,3748.5390,N,12217.8531,W,2.90,149.39,190712,,,A*75
$GPVTG,149.39,T,,M,2.90,N,5.4,K,A*01
$GPGGA,215257.000,3748.5397,N,12217.8516,W,1,04,2.5,-22.8,M,-25.1,M,,0000*78
$GPGSA,A,3,15,26,04,08,,,,,,,,,9.9,2.5,9.6*36
$GPRMC,215257.000,A,3748.5397,N,12217.8516,W,2.27,137.52,190712,,,A*7E
$GPVTG,137.52,T,,M,2.27,N,4.2,K,A*0E
$GPGGA,215258.000,3748.5386,N,12217.8505,W,1,04,2.5,-17.5,M,-25.1,M,,0000*7E
$GPGSA,A,3,15,26,04,08,,,,,,,,,10.0,2.5,9.6*07
$GPRMC,215258.000,A,3748.5386,N,12217.8505,W,2.41,135.99,190712,,,A*76
$GPVTG,135.99,T,,M,2.41,N,4.5,K,A*0C
$GPGGA,215259.000,3748.5371,N,12217.8511,W,1,04,2.5,-18.1,M,-25.1,M,,0000*79
$GPGSA,A,3,15,26,04,08,,,,,,,,,10.0,2.5,9.7*06
$GPGSV,3,1,11,17,78,054,16,28,48,057,21,27,41,314,16,26,33,220,17*70
$GPGSV,3,2,11,15,31,271,18,08,28,132,21,09,25,316,17,04,21,160,21*7D
$GPGSV,3,3,11,01,15,045,17,11,01,037,,12,00,275,*4D
$GPRMC,215259.000,A,3748.5371,N,12217.8511,W,1.87,172.27,190712,,,A*75
$GPVTG,172.27,T,,M,1.87,N,3.5,K,A*04
$GPGGA,215300.000,3748.5358,N,12217.8526,W,1,04,2.5,-18.6,M,-25.1,M,,0000*7C
$GPGSA,A,3,15,26,04,08,,,,,,,,,10.0,2.5,9.7*06
$GPRMC,215300.000,A,3748.5358,N,12217.8526,W,2.06,200.75,190712,,,A*7C
$GPVTG,200.75,T,,M,2.06,N,3.8,K,A*02
$GPGGA,215301.000,3748.5358,N,12217.8519,W,1,04,2.5,-16.3,M,-25.1,M,,0000*7A
$GPGSA,A,3,15,26,04,08,,,,,,,,,10.0,2.5,9.7*06
$GPRMC,215301.000,A,3748.5358,N,12217.8519,W,1.94,189.57,190712,,,A*7B
$GPVTG,189.57,T,,M,1.94,N,3.6,K,A*06
$GPGGA,215302.000,3748.5365,N,12217.8507,W,1,04,2.4,-17.6,M,-25.1,M,,0000*7D
$GPGSA,A,3,15,26,04,08,,,,,,,,,2.6,2.4,1.0*3D
$GPRMC,215302.000,A,3748.5365,N,12217.8507,W,1.66,105.64,190712,,,A*70
$GPVTG,105.64,T,,M,1.66,N,3.1,K,A*08
$GPGGA,215303.000,3748.5370,N,12217.8495,W,1,04,2.4,-18.6,M,-25.1,M,,0000*7D
$GPGSA,A,3,15,26,04,08,,,,,,,,,2.6,2.4,1.0*3D
$GPRMC,215303.000,A,3748.5370,N,12217.8495,W,1.75,88.70,190712,,,A*4C
$GPVTG,88.70,T,,M,1.75,N,3.2,K,A*38
$GPGGA,215304.000,3748.5370,N,12217.8485,W,1,04,2.4,-18.9,M,-25.1,M,,0000*74
$GPGSA,A,3,15,26,04,08,,,,,,,,,2.6,2.4,1.0*3D
$GPGSV,3,1,12,17,78,054,29,28,48,057,31,27,41,314,16,26,33,220,29*73
$GPGSV,3,2,12,15,31,271,25,08,28,132,37,09,25,316,17,04,21,160,36*71
$GPGSV,3,3,12,01,15,045,17,11,01,037,,12,00,275,,46,38,143,32*70
$GPRMC,215304.000,A,3748.5370,N,12217.8485,W,2.02,100.68,190712,,,A*71
$GPVTG,100.68,T,,M,2.02,N,3.7,K,A*06
$GPGGA,215305.000,3748.5366,N,12217.8474,W,1,04,2.4,-18.4,M,-25.1,M,,0000*71
$GPGSA,A,3,15,26,04,08,,,,,,,,,2.6,2.4,1.0*3D
$GPRMC,215305.000,A,3748.5366,N,12217.8474,W,2.03,104.37,190712,,,A*76
$GPVTG,104.37,T,,M,2.03,N,3.8,K,A*06
$GPGGA,215306.000,3748.5369,N,12217.8466,W,1,04,2.4,-18.8,M,-25.1,M,,0000*72
$GPGSA,A,3,15,26,04,08,,,,,,,,,2.6,2.4,1.0*3D
$GPRMC,215306.000,A,3748.5369,N,12217.8466,W,1.51,97.45,190712,,,A*43
$GPVTG,97.45,T,,M,1.51,N,2.8,K,A*3D
$GPGGA,215307.000,3748.5373,N,12217.8459,W,1,04,2.4,-19.0,M,-25.1,M,,0000*7D
$GPGSA,A,3,15,26,04,08,,,,,,,,,2.6,2.4,1.0*3D
$GPRMC,215307.000,A,3748.5373,N,12217.8459,W,1.65,96.84,190712,,,A*4E
$GPVTG,96.84,T,,M,1.65,N,3.1,K,A*3E
$GPGGA,215308.000,3748.5375,N,12217.8452,W,1,04,2.4,-19.2,M,-25.1,M,,0000*7D
$GPGSA,A,3,15,26,04,08,,,,,,,,,2.6,2.4,1.0*3D
$GPRMC,215308.000,A,3748.5375,N,12217.8452,W,1.71,108.26,190712,,,A*77
$GPVTG,108.26,T,,M,1.71,N,3.2,K,A*06
$GPGGA,215309.000,3748.5371,N,12217.8445,W,1,04,2.4,-18.9,M,-25.1,M,,0000*74
$GPGSA,A,3,15,26,04,08,,,,,,,,,2.6,2.4,1.0*3D
$GPGSV,3,1,12,17,78,054,25,28,48,057,23,27,41,314,17,26,33,220,31*74
$GPGSV,3,2,12,15,31,271,27,08,28,132,36,09,25,316,17,04,21,160,36*72
$GPGSV,3,3,12,01,15,045,23,11,01,037,,12,00,275,,46,38,143,29*7D
$GPRMC,215309.000,A,3748.5371,N,12217.8445,W,1.82,120.40,190712,,,A*72
$GPVTG,120.40,T,,M,1.82,N,3.4,K,A*06
$GPGGA,215310.000,3748.5372,N,12217.8439,W,1,03,2.7,-18.9,M,-25.1,M,,0000*70
$GPGSA,A,2,15,26,08,,,,,,,,,,2.9,2.7,1.0*34
$GPRMC,215310.000,A,3748.5372,N,12217.8439,W,1.46,107.49,190712,,,A*76
$GPVTG,107.49,T,,M,1.46,N,2.7,K,N*0F
$GPGGA,215311.000,3748.5360,N,12217.8431,W,1,04,2.4,-17.3,M,-25.1,M,,0000*7B
$GPGSA,A,3,15,26,04,08,,,,,,,,,2.6,2.4,1.0*3D
$GPRMC,215311.000,A,3748.5360,N,12217.8431,W,2.22,137.72,190712,,,A*76
$GPVTG,137.72,T,,M,2.22,N,4.1,K,A*0A
$GPGGA,215312.000,3748.5362,N,12217.8419,W,1,04,2.4,-18.6,M,-25.1,M,,0000*7A
$GPGSA,A,3,15,26,04,08,,,,,,,,,2.6,2.4,1.0*3D
$GPRMC,215312.000,A,3748.5362,N,12217.8419,W,2.12,108.35,190712,,,A*71
$GPVTG,108.35,T,,M,2.12,N,3.9,K,A*09
$GPGGA,215313.000,3748.5370,N,12217.8404,W,1,03,4.8,-19.5,M,-25.1,M,,0000*7B
$GPGSA,A,2,26,04,08,,,,,,,,,,4.9,4.8,1.0*3B
$GPRMC,215313.000,A,3748.5370,N,12217.8404,W,2.11,80.11,190712,,,A*4B
$GPVTG,80.11,T,,M,2.11,N,3.9,K,A*3D
$GPGGA,215314.000,3748.5367,N,12217.8402,W,1,03,4.8,-19.7,M,-25.1,M,,0000*7E
$GPGSA,A,2,26,04,08,,,,,,,,,,4.9,4.8,1.0*3B
$GPGSV,3,1,11,17,78,054,20,28,48,057,23,27,41,314,17,26,33,220,23*71
$GPGSV,3,2,11,15,31,271,17,08,28,132,26,09,25,316,17,04,21,160,24*70
$GPGSV,3,3,11,01,15,045,11,11,01,037,,12,00,275,*4B
$GPRMC,215314.000,A,3748.5367,N,12217.8402,W,1.66,86.92,190712,,,A*42
$GPGGA,215315.000,3748.5362,N,12217.8397,W,1,03,4.8,-20.9,M,-25.1,M,,0000*75
$GPGSA,A,2,26,04,08,,,,,,,,,,4.9,4.8,1.0*3B
$GPRMC,215315.000,A,3748.5362,N,12217.8397,W,1.85,105.51,190712,,,A*75
$GPVTG,105.51,T,,M,1.85,N,3.4,K,A*06
$GPGGA,215316.000,3748.5360,N,12217.8392,W,1,04,2.4,-21.2,M,-25.1,M,,0000*76
