$ADVER,3080,2.3
$GPRMC,201730.281,A,3748.7104,N,12217.1515,W,2.03,72.45,131012,,,A*48
$GPGGA,201731.281,3748.7105,N,12217.1510,W,1,03,3.7,25.1,M,-25.1,M,,0000*50
$GPGSA,A,2,12,31,29,,,,,,,,,,3.9,3.7,1.0*36
$GPRMC,201731.281,A,3748.7105,N,12217.1510,W,0.31,70.91,131012,,,A*45
$GPVTG,70.91,T,,M,0.31,N,0.6,K,N*39
$GPGGA,201732.281,3748.7104,N,12217.1510,W,1,03,3.7,25.1,M,-25.1,M,,0000*52
$GPGSA,A,2,12,31,29,,,,,,,,,,3.9,3.7,1.0*36
$GPRMC,201732.281,A,3748.7104,N,12217.1510,W,0.60,48.91,131012,,,A*48
$GPVTG,48.91,T,,M,0.60,N,1.1,K,N*30
$GPGGA,201733.281,3748.7105,N,12217.1517,W,1,03,3.7,25.1,M,-25.1,M,,0000*55
$GPGSA,A,2,12,31,29,,,,,,,,,,3.9,3.7,1.0*36
$GPRMC,201733.281,A,3748.7105,N,12217.1517,W,1.36,244.63,131012,,,A*7E
$GPVTG,244.63,T,,M,1.36,N,2.5,K,N*06
$GPGGA,201734.281,3748.6870,N,12217.1442,W,1,04,2.2,-32.8,M,-25.1,M,,0000*78
$GPGSA,A,3,02,12,31,29,,,,,,,,,2.5,2.2,1.0*3C
$GPGSV,3,1,11,12,80,165,25,29,35,292,26,31,10,320,16,02,59,046,33*7C
$GPGSV,3,2,11,25,56,309,27,05,38,133,,10,29,065,27,04,14,049,23*7D
$GPGSV,3,3,11,09,08,194,,27,03,190,,21,03,229,*43
$GPRMC,201734.281,A,3748.6870,N,12217.1442,W,1.41,169.37,131012,,,A*7F
$GPVTG,169.37,T,,M,1.41,N,2.6,K,A*07
$GPGGA,201735.281,3748.7125,N,12217.1640,W,1,04,5.9,40.0,M,-25.1,M,,0000*5D
$GPGSA,A,3,02,12,31,29,,,,,,,,,9.6,5.9,7.6*38
$GPRMC,201735.281,A,3748.7125,N,12217.1640,W,0.74,138.76,131012,,,A*70
$GPVTG,138.76,T,,M,0.74,N,1.4,K,A*00
$GPGGA,201736.281,3748.7132,N,12217.1627,W,1,04,5.8,39.8,M,-25.1,M,,0000*5E
$GPGSA,A,3,02,12,31,29,,,,,,,,,9.5,5.8,7.5*39
$GPRMC,201736.281,A,3748.7132,N,12217.1627,W,0.51,130.73,131012,,,A*7E
$GPVTG,130.73,T,,M,0.51,N,0.9,K,A*06
$GPGGA,201737.000,3748.7129,N,12217.1616,W,1,04,5.8,38.1,M,-25.1,M,,0000*54
$GPGSA,A,3,02,12,31,29,,,,,,,,,9.5,5.8,7.5*39
$GPRMC,201737.000,A,3748.7129,N,12217.1616,W,0.56,144.35,131012,,,A*7A
$GPVTG,144.35,T,,M,0.56,N,1.0,K,A*08
$GPGGA,201738.000,3748.7120,N,12217.1599,W,1,04,5.8,34.1,M,-25.1,M,,0000*5A
$GPGSA,A,3,02,12,31,29,,,,,,,,,9.5,5.8,7.5*39
$GPRMC,201738.000,A,3748.7120,N,12217.1599,W,0.68,140.66,131012,,,A*77
$GPVTG,140.66,T,,M,0.68,N,1.3,K,A*04
$GPGGA,201739.000,3748.7105,N,12217.1582,W,1,04,5.8,27.7,M,-25.1,M,,0000*52
$GPGSA,A,3,02,12,31,29,,,,,,,,,9.5,5.8,7.5*39
$GPGSV,3,1,11,12,79,165,30,02,59,046,33,29,35,292,28,31,10,320,24*71
$GPGSV,3,2,11,25,56,308,31,05,38,133,,10,29,065,29,04,14,049,20*76
$GPGSV,3,3,11,09,08,194,,27,03,190,,21,03,229,*43
$GPRMC,201739.000,A,3748.7105,N,12217.1582,W,0.79,139.91,131012,,,A*7D
$GPVTG,139.91,T,,M,0.79,N,1.5,K,A*04
$GPGGA,201740.000,3748.7102,N,12217.1577,W,1,04,5.8,26.3,M,-25.1,M,,0000*54
$GPGSA,A,3,02,12,31,29,,,,,,,,,9.5,5.8,7.5*39
$GPRMC,201740.000,A,3748.7102,N,12217.1577,W,0.88,149.44,131012,,,A*7F
$GPVTG,149.44,T,,M,0.88,N,1.6,K,A*06
$GPGGA,201741.000,3748.7101,N,12217.1573,W,1,04,5.8,25.7,M,-25.1,M,,0000*55
$GPGSA,A,3,02,12,31,29,,,,,,,,,9.5,5.8,7.5*39
$GPRMC,201741.000,A,3748.7101,N,12217.1573,W,1.13,152.18,131012,,,A*79
$GPVTG,152.18,T,,M,1.13,N,2.1,K,A*02
$GPGGA,201742.000,3748.7100,N,12217.1570,W,1,04,5.8,25.4,M,-25.1,M,,0000*57
$GPGSA,A,3,02,12,31,29,,,,,,,,,9.5,5.8,7.5*39
$GPRMC,201742.000,A,3748.7100,N,12217.1570,W,1.12,138.61,131012,,,A*7B
$GPVTG,138.61,T,,M,1.12,N,2.1,K,A*01
$GPGGA,201743.000,3748.7090,N,12217.1562,W,1,04,5.8,21.7,M,-25.1,M,,0000*5A
$GPGSA,A,3,02,12,31,29,,,,,,,,,9.5,5.8,7.5*39
$GPRMC,201743.000,A,3748.7090,N,12217.1562,W,0.41,123.96,131012,,,A*74
$GPVTG,123.96,T,,M,0.41,N,0.8,K,A*0F
$GPGGA,201744.000,3748.7098,N,12217.1573,W,1,04,5.8,24.8,M,-25.1,M,,0000*5F
$GPGSA,A,3,02,12,31,29,,,,,,,,,9.5,5.8,7.5*39
$GPGSV,3,1,11,12,79,165,29,02,59,046,33,29,35,292,26,31,10,320,24*77
$GPGSV,3,2,11,25,56,308,27,05,38,133,,10,29,065,22,04,14,049,21*7B
$GPGSV,3,3,11,09,08,194,,27,03,190,,21,03,229,*43
$GPRMC,201744.000,A,3748.7098,N,12217.1573,W,0.30,153.57,131012,,,A*77
$GPGGA,201745.000,3748.7103,N,12217.1581,W,1,04,5.8,26.9,M,-25.1,M,,0000*53
$GPGSA,A,3,02,12,31,29,,,,,,,,,9.5,5.8,7.5*39
$GPRMC,201745.000,A,3748.7103,N,12217.1581,W,0.31,160.85,131012,,,A*76
$GPVTG,160.85,T,,M,0.31,N,0.6,K,A*03
$GPGGA,201746.000,3748.7107,N,12217.1587,W,1,04,5.8,28.7,M,-25.1,M,,0000*52
$GPGSA,A,3,02,12,31,29,,,,,,,,,9.5,5.8,7.5*39
$GPRMC,201746.000,A,3748.7107,N,12217.1587,W,0.15,159.70,131012,,,A*71
$GPVTG,159.70,T,,M,0.15,N,0.3,K,A*00
$GPGGA,201747.000,3748.7111,N,12217.1591,W,1,04,5.8,30.3,M,-25.1,M,,0000*5E
$GPGSA,A,3,02,12,31,29,,,,,,,,,9.5,5.8,7.5*39
$GPRMC,201747.000,A,3748.7111,N,12217.1591,W,0.11,346.66,131012,,,A*7F
$GPVTG,346.66,T,,M,0.11,N,0.2,K,A*0E
$GPGGA,201748.000,3748.7110,N,12217.1588,W,1,04,5.8,30.6,M,-25.1,M,,0000*5D
$GPGSA,A,3,02,12,31,29,,,,,,,,,9.5,5.8,7.5*39
$GPRMC,201748.000,A,3748.7110,N,12217.1588,W,0.38,149.88,131012,,,A*7F
$GPVTG,149.88,T,,M,0.38,N,0.7,K,A*0D
$GPGGA,201749.000,3748.7095,N,12217.1570,W,1,04,5.8,25.7,M,-25.1,M,,0000*52
$GPGSA,A,3,02,12,31,29,,,,,,,,,9.5,5.8,7.5*39
$GPGSV,3,1,11,12,79,165,30,02,59,046,32,25,56,308,27,05,38,133,*7F
$GPGSV,3,2,11,29,35,292,27,10,29,064,29,04,13,049,22,31,10,320,26*77
$GPGSV,3,3,11,09,07,194,,27,03,190,,21,03,229,*4C
$GPRMC,201749.000,A,3748.7095,N,12217.1570,W,1.39,135.40,131012,,,A*7A
$GPVTG,135.40,T,,M,1.39,N,2.6,K,A*01
$GPGGA,201750.000,3748.7092,N,12217.1566,W,1,04,5.8,25.1,M,-25.1,M,,0000*5C
$GPGSA,A,3,02,12,31,29,,,,,,,,,9.5,5.8,7.5*39
$GPRMC,201750.000,A,3748.7092,N,12217.1566,W,0.87,142.94,131012,,,A*7F
$GPVTG,142.94,T,,M,0.87,N,1.6,K,A*0F
$GPGGA,201751.000,3748.7093,N,12217.1565,W,1,04,5.8,26.2,M,-25.1,M,,0000*5F
$GPGSA,A,3,02,12,31,29,,,,,,,,,9.4,5.8,7.5*38
$GPRMC,201751.000,A,3748.7093,N,12217.1565,W,0.68,141.23,131012,,,A*72
$GPVTG,141.23,T,,M,0.68,N,1.3,K,A*04
$GPGGA,201752.000,3748.7093,N,12217.1564,W,1,04,5.8,26.8,M,-25.1,M,,0000*57
$GPGSA,A,3,02,12,31,29,,,,,,,,,9.4,5.8,7.5*38
$GPRMC,201752.000,A,3748.7093,N,12217.1564,W,0.52,137.21,131012,,,A*7A
$GPVTG,137.21,T,,M,0.52,N,1.0,K,A*0D
$GPGGA,201753.000,3748.7091,N,12217.1561,W,1,04,5.8,26.2,M,-25.1,M,,0000*5B
$GPGSA,A,3,02,12,31,29,,,,,,,,,9.4,5.8,7.5*38
$GPRMC,201753.000,A,3748.7091,N,12217.1561,W,0.65,136.09,131012,,,A*73
$GPVTG,136.09,T,,M,0.65,N,1.2,K,A*00
$GPGGA,201754.000,3748.7091,N,12217.1559,W,1,04,5.8,26.1,M,-25.1,M,,0000*54
$GPGSA,A,3,02,12,31,29,,,,,,,,,9.4,5.8,7.5*38
$GPGSV,3,1,11,12,79,165,31,02,59,046,33,25,56,308,28,05,38,133,*70
$GPGSV,3,2,11,29,35,292,28,10,29,064,35,04,13,049,23,31,10,320,25*77
$GPGSV,3,3,11,09,07,194,,27,03,190,,21,03,229,*4C
$GPRMC,201754.000,A,3748.7091,N,12217.1559,W,0.34,97.27,131012,,,A*4D
$GPVTG,97.27,T,,M,0.34,N,0.6,K,A*37
$GPGGA,201755.000,3748.7088,N,12217.1556,W,1,04,5.8,24.2,M,-25.1,M,,0000*53
$GPGSA,A,3,02,12,31,29,,,,,,,,,9.4,5.8,7.5*38
$GPRMC,201755.000,A,3748.7088,N,12217.1556,W,0.14,62.30,131012,,,A*45
$GPVTG,62.30,T,,M,0.14,N,0.3,K,A*3C
$GPGGA,201756.000,3748.7081,N,12217.1559,W,1,04,5.8,23.3,M,-25.1,M,,0000*50
$GPGSA,A,3,02,12,31,29,,,,,,,,,9.4,5.8,7.4*39
$GPRMC,201756.000,A,3748.7081,N,12217.1559,W,0.98,174.58,131012,,,A*7C
$GPVTG,174.58,T,,M,0.98,N,1.8,K,A*0A
$GPGGA,201757.000,3748.7079,N,12217.1558,W,1,04,5.8,21.8,M,-25.1,M,,0000*5E
$GPGSA,A,3,02,12,31,29,,,,,,,,,9.4,5.8,7.4*39
$GPRMC,201757.000,A,3748.7079,N,12217.1558,W,0.57,136.22,131012,,,A*73
$GPVTG,136.22,T,,M,0.57,N,1.1,K,A*0B
$GPGGA,201758.000,3748.7074,N,12217.1550,W,1,05,3.4,18.9,M,-25.1,M,,0000*54
$GPGSA,A,3,02,12,31,25,29,,,,,,,,5.1,3.4,3.8*35
$GPRMC,201758.000,A,3748.7074,N,12217.1550,W,1.02,150.39,131012,,,A*72
$GPVTG,150.39,T,,M,1.02,N,1.9,K,A*08
$GPGGA,201759.000,3748.7071,N,12217.1544,W,1,05,3.4,17.0,M,-25.1,M,,0000*53
$GPGSA,A,3,02,12,31,25,29,,,,,,,,5.1,3.4,3.8*35
$GPGSV,3,1,11,12,79,165,28,02,59,046,34,25,56,308,32,05,38,133,*74
$GPGSV,3,2,11,29,36,292,32,10,29,064,32,04,13,049,16,31,10,320,25*7E
$GPGSV,3,3,11,09,07,194,,21,03,229,,27,03,190,*4C
$GPRMC,201759.000,A,3748.7071,N,12217.1544,W,0.76,149.71,131012,,,A*75
$GPVTG,149.71,T,,M,0.76,N,1.4,K,A*03
$GPGGA,201800.000,3748.7068,N,12217.1538,W,1,05,3.4,15.2,M,-25.1,M,,0000*53
$GPGSA,A,3,02,12,31,25,29,,,,,,,,5.1,3.4,3.8*35
$GPRMC,201800.000,A,3748.7068,N,12217.1538,W,0.90,141.39,131012,,,A*79
$GPVTG,141.39,T,,M,0.90,N,1.7,K,A*0C
$GPGGA,201801.000,3748.7064,N,12217.1533,W,1,05,3.4,14.2,M,-25.1,M,,0000*54
$GPGSA,A,3,02,12,31,25,29,,,,,,,,5.1,3.4,3.8*35
$GPRMC,201801.000,A,3748.7064,N,12217.1533,W,0.97,156.83,131012,,,A*7F
$GPVTG,156.83,T,,M,0.97,N,1.8,K,A*03
$GPGGA,201802.000,3748.7062,N,12217.1530,W,1,05,3.4,13.2,M,-25.1,M,,0000*55
$GPGSA,A,3,02,12,31,25,29,,,,,,,,5.1,3.4,3.8*35
$GPRMC,201802.000,A,3748.7062,N,12217.1530,W,0.55,137.91,131012,,,A*73
$GPVTG,137.91,T,,M,0.55,N,1.0,K,A*01
$GPGGA,201803.000,3748.7056,N,12217.1523,W,1,05,3.4,10.7,M,-25.1,M,,0000*57
$GPGSA,A,3,02,12,31,25,29,,,,,,,,5.1,3.4,3.8*35
$GPRMC,201803.000,A,3748.7056,N,12217.1523,W,0.50,94.14,131012,,,A*47
$GPVTG,94.14,T,,M,0.50,N,0.9,K,A*39
$GPGGA,201804.000,3748.7047,N,12217.1518,W,1,05,3.4,8.5,M,-25.1,M,,0000*63
$GPGSA,A,3,02,12,31,25,29,,,,,,,,5.1,3.4,3.8*35
$GPGSV,3,1,11,12,79,165,28,02,59,046,31,25,56,308,31,05,38,133,*72
$GPGSV,3,2,11,29,36,292,28,10,29,064,30,04,13,049,19,31,10,320,26*7B
$GPGSV,3,3,11,09,07,194,,21,03,229,,27,03,190,*4C
$GPRMC,201804.000,A,3748.7047,N,12217.1518,W,0.58,126.05,131012,,,A*78
$GPVTG,126.05,T,,M,0.58,N,1.1,K,A*00
$GPGGA,201805.000,3748.7038,N,12217.1519,W,1,05,3.4,6.2,M,-25.1,M,,0000*62
$GPGSA,A,3,02,12,31,25,29,,,,,,,,5.1,3.4,3.8*35
$GPRMC,201805.000,A,3748.7038,N,12217.1519,W,0.81,164.89,131012,,,A*76
$GPVTG,164.89,T,,M,0.81,N,1.5,K,A*02
$GPGGA,201806.000,3748.7030,N,12217.1519,W,1,05,3.4,4.3,M,-25.1,M,,0000*6A
$GPGSA,A,3,02,12,31,25,29,,,,,,,,5.1,3.4,3.8*35
$GPRMC,201806.000,A,3748.7030,N,12217.1519,W,0.70,170.80,131012,,,A*7F
$GPVTG,170.80,T,,M,0.70,N,1.3,K,A*06
$GPGGA,201807.000,3748.7025,N,12217.1518,W,1,05,3.4,2.8,M,-25.1,M,,0000*63
$GPGSA,A,3,02,12,31,25,29,,,,,,,,5.1,3.4,3.8*35
$GPRMC,201807.000,A,3748.7025,N,12217.1518,W,0.77,155.47,131012,,,A*70
$GPVTG,155.47,T,,M,0.77,N,1.4,K,A*0A
$GPGGA,201808.000,3748.7021,N,12217.1518,W,1,05,3.4,1.6,M,-25.1,M,,0000*65
$GPGSA,A,3,02,12,31,25,29,,,,,,,,5.1,3.4,3.8*35
$GPRMC,201808.000,A,3748.7021,N,12217.1518,W,0.78,160.47,131012,,,A*72
$GPVTG,160.47,T,,M,0.78,N,1.5,K,A*02
$GPGGA,201809.000,3748.7017,N,12217.1518,W,1,05,3.4,0.6,M,-25.1,M,,0000*60
$GPGSA,A,3,02,12,31,25,29,,,,,,,,5.1,3.4,3.8*35
$GPGSV,3,1,11,12,79,165,30,02,59,046,32,25,56,308,31,05,38,133,15*7C
$GPGSV,3,2,11,29,36,292,28,10,29,064,29,04,13,049,24,31,10,320,30*7A
$GPGSV,3,3,11,09,07,194,,21,03,229,,27,03,190,*4C
$GPRMC,201809.000,A,3748.7017,N,12217.1518,W,0.80,155.61,131012,,,A*73
$GPVTG,155.61,T,,M,0.80,N,1.5,K,A*07
$GPGGA,201810.000,3748.7014,N,12217.1517,W,1,05,3.4,-0.2,M,-25.1,M,,0000*4D
$GPGSA,A,3,02,12,31,25,29,,,,,,,,5.1,3.4,3.8*35
$GPRMC,201810.000,A,3748.7014,N,12217.1517,W,0.68,156.61,131012,,,A*72
$GPVTG,156.61,T,,M,0.68,N,1.3,K,A*04
$GPGGA,201811.000,3748.7012,N,12217.1517,W,1,05,3.4,-1.0,M,-25.1,M,,0000*49
$GPGSA,A,3,02,12,31,25,29,,,,,,,,5.1,3.4,3.8*35
$GPRMC,201811.000,A,3748.7012,N,12217.1517,W,0.71,157.47,131012,,,A*78
$GPVTG,157.47,T,,M,0.71,N,1.3,K,A*09
$GPGGA,201812.000,3748.7009,N,12217.1517,W,1,05,3.4,-1.8,M,-25.1,M,,0000*48
$GPGSA,A,3,02,12,31,25,29,,,,,,,,5.1,3.4,3.8*35
$GPRMC,201812.000,A,3748.7009,N,12217.1517,W,0.81,157.77,131012,,,A*7D
$GPVTG,157.77,T,,M,0.81,N,1.5,K,A*03
$GPGGA,201813.000,3748.7010,N,12217.1512,W,1,05,3.4,-1.7,M,-25.1,M,,0000*4B
$GPGSA,A,3,02,12,31,25,29,,,,,,,,5.1,3.4,3.8*35
$GPRMC,201813.000,A,3748.7010,N,12217.1512,W,0.95,128.16,131012,,,A*7B
$GPVTG,128.16,T,,M,0.95,N,1.8,K,A*04
$GPGGA,201814.000,3748.7012,N,12217.1506,W,1,05,3.4,-2.0,M,-25.1,M,,0000*4F
$GPGSA,A,3,02,12,31,25,29,,,,,,,,5.1,3.4,3.8*35
$GPGSV,3,1,11,12,79,165,32,02,59,046,33,25,56,308,27,05,38,133,22*7C
$GPGSV,3,2,11,29,36,292,21,10,29,064,36,04,13,049,31,31,10,320,19*72
$GPGSV,3,3,11,09,07,194,,21,03,229,,27,03,190,*4C
$GPRMC,201814.000,A,3748.7012,N,12217.1506,W,0.34,104.53,131012,,,A*7F
$GPVTG,104.53,T,,M,0.34,N,0.6,K,A*0F
$GPGGA,201815.000,3748.7012,N,12217.1501,W,1,05,3.4,-3.1,M,-25.1,M,,0000*49
$GPGSA,A,3,02,12,31,25,29,,,,,,,,5.1,3.4,3.8*35
$GPRMC,201815.000,A,3748.7012,N,12217.1501,W,0.32,114.52,131012,,,A*7F
$GPVTG,114.52,T,,M,0.32,N,0.6,K,A*09
$GPGGA,201816.000,3748.7018,N,12217.1509,W,1,05,3.4,-1.5,M,-25.1,M,,0000*4E
$GPGSA,A,3,02,12,31,25,29,,,,,,,,5.1,3.4,3.8*35
$GPRMC,201816.000,A,3748.7018,N,12217.1509,W,0.44,191.70,131012,,,A*72
$GPVTG,191.70,T,,M,0.44,N,0.8,K,A*0B
$GPGGA,201817.000,3748.7020,N,12217.1511,W,1,05,3.4,-0.6,M,-25.1,M,,0000*4F
$GPGSA,A,3,02,12,31,25,29,,,,,,,,5.1,3.4,3.8*35
$GPRMC,201817.000,A,3748.7020,N,12217.1511,W,0.51,155.46,131012,,,A*78
$GPVTG,155.46,T,,M,0.51,N,0.9,K,A*03
$GPGGA,201818.000,3748.7020,N,12217.1510,W,1,05,3.4,-0.6,M,-25.1,M,,0000*41
$GPGSA,A,3,02,12,31,25,29,,,,,,,,5.1,3.4,3.8*35
$GPRMC,201818.000,A,3748.7020,N,12217.1510,W,0.42,141.69,131012,,,A*7C
$GPVTG,141.69,T,,M,0.42,N,0.8,K,A*08
$GPGGA,201819.000,3748.7019,N,12217.1510,W,1,04,3.6,-0.9,M,-25.1,M,,0000*46
$GPGSA,A,3,02,12,31,25,,,,,,,,,5.2,3.6,3.8*3F
$GPGSV,3,1,11,12,79,165,32,02,59,046,33,25,56,308,28,05,38,133,22*73
$GPGSV,3,2,11,29,36,293,24,10,29,064,36,04,13,049,28,31,10,320,24*70
$GPGSV,3,3,11,09,07,194,,21,03,229,,27,03,190,*4C
$GPRMC,201819.000,A,3748.7019,N,12217.1510,W,0.09,234.23,131012,,,A*77
$GPVTG,234.23,T,,M,0.09,N,0.2,K,A*02
$GPGGA,201820.000,3748.7019,N,12217.1511,W,1,05,3.4,-1.0,M,-25.1,M,,0000*46
$GPGSA,A,3,02,12,31,25,29,,,,,,,,5.1,3.4,3.8*35
$GPRMC,201820.000,A,3748.7019,N,12217.1511,W,0.22,29.76,131012,,,A*4B
$GPVTG,29.76,T,,M,0.22,N,0.4,K,A*33
$GPGGA,201821.000,3748.7017,N,12217.1513,W,1,05,3.4,-1.2,M,-25.1,M,,0000*49
$GPGSA,A,3,02,12,31,25,29,,,,,,,,5.1,3.4,3.8*35
$GPRMC,201821.000,A,3748.7017,N,12217.1513,W,0.39,131.52,131012,,,A*72
$GPVTG,131.52,T,,M,0.39,N,0.7,K,A*04
$GPGGA,201822.000,3748.7016,N,12217.1512,W,1,05,3.4,-1.7,M,-25.1,M,,0000*4F
$GPGSA,A,3,02,12,31,25,29,,,,,,,,5.1,3.4,3.8*35
$GPRMC,201822.000,A,3748.7016,N,12217.1512,W,0.15,132.27,131012,,,A*7E
$GPVTG,132.27,T,,M,0.15,N,0.3,K,A*0F
$GPGGA,201823.000,3748.7016,N,12217.1510,W,1,05,3.4,-2.2,M,-25.1,M,,0000*4A
$GPGSA,A,3,02,12,31,25,29,,,,,,,,5.1,3.4,3.8*35
$GPRMC,201823.000,A,3748.7016,N,12217.1510,W,0.40,102.37,131012,,,A*7F
$GPVTG,102.37,T,,M,0.40,N,0.7,K,A*09
$GPGGA,201824.000,3748.7014,N,12217.1514,W,1,05,3.4,-2.8,M,-25.1,M,,0000*41
$GPGSA,A,3,02,12,31,25,29,,,,,,,,5.1,3.4,3.8*35
$GPGSV,3,1,11,12,79,165,32,02,59,046,33,25,56,308,28,05,38,133,21*70
$GPGSV,3,2,11,29,36,293,24,10,29,064,35,04,13,049,28,31,10,320,25*72
$GPGSV,3,3,11,09,07,194,,21,03,229,,27,03,190,*4C
$GPRMC,201824.000,A,3748.7014,N,12217.1514,W,0.22,159.52,131012,,,A*77
$GPVTG,159.52,T,,M,0.22,N,0.4,K,A*03
$GPGGA,201825.000,3748.7008,N,12217.1510,W,1,05,3.4,-3.4,M,-25.1,M,,0000*44
$GPGSA,A,3,02,12,31,25,29,,,,,,,,5.1,3.4,3.8*35
$GPRMC,201825.000,A,3748.7008,N,12217.1510,W,0.47,107.59,131012,,,A*7C
$GPVTG,107.59,T,,M,0.47,N,0.9,K,A*0D
$GPGGA,201826.000,3748.7014,N,12217.1506,W,1,05,3.4,-2.8,M,-25.1,M,,0000*40
$GPGSA,A,3,02,12,31,25,29,,,,,,,,5.1,3.4,3.8*35
$GPRMC,201826.000,A,3748.7014,N,12217.1506,W,0.71,74.46,131012,,,A*4B
$GPVTG,74.46,T,,M,0.71,N,1.3,K,A*38
$GPGGA,201827.000,3748.7013,N,12217.1505,W,1,05,3.4,-2.7,M,-25.1,M,,0000*4A
$GPGSA,A,3,02,12,31,25,29,,,,,,,,5.1,3.4,3.8*35
$GPRMC,201827.000,A,3748.7013,N,12217.1505,W,0.75,138.88,131012,,,A*71
$GPVTG,138.88,T,,M,0.75,N,1.4,K,A*00
$GPGGA,201828.000,3748.7018,N,12217.1510,W,1,05,3.4,-1.0,M,-25.1,M,,0000*4E
$GPGSA,A,3,02,12,31,25,29,,,,,,,,5.1,3.4,3.8*35
$GPRMC,201828.000,A,3748.7018,N,12217.1510,W,1.05,80.09,131012,,,A*4C
$GPVTG,80.09,T,,M,1.05,N,1.9,K,A*30
$GPGGA,201829.000,3748.7018,N,12217.1521,W,1,05,3.4,1.0,M,-25.1,M,,0000*60
$GPGSA,A,3,02,12,31,25,29,,,,,,,,5.1,3.4,3.8*35
$GPGSV,3,1,11,12,79,165,24,02,59,046,25,25,56,308,19,05,38,133,*71
$GPGSV,3,2,11,29,36,293,17,10,29,064,22,04,13,049,18,31,10,320,24*76
$GPGSV,3,3,11,09,07,194,,21,03,229,,27,03,190,*4C
$GPRMC,201829.000,A,3748.7018,N,12217.1521,W,0.35,296.28,131012,,,A*7B
$GPGGA,201830.000,3748.7020,N,12217.1520,W,1,05,3.4,1.0,M,-25.1,M,,0000*62
$GPGSA,A,3,02,12,31,25,29,,,,,,,,5.1,3.4,3.8*35
$GPRMC,201830.000,A,3748.7020,N,12217.1520,W,0.45,31.81,131012,,,A*42
$GPVTG,31.81,T,,M,0.45,N,0.8,K,A*3F
$GPGGA,201831.000,3748.7026,N,12217.1520,W,1,04,3.6,2.0,M,-25.1,M,,0000*65
$GPGSA,A,3,02,12,31,25,,,,,,,,,5.2,3.6,3.8*3F
$GPRMC,201831.000,A,3748.7026,N,12217.1520,W,0.69,47.06,131012,,,A*45
$GPVTG,47.06,T,,M,0.69,N,1.3,K,A*35
$GPGGA,201832.000,3748.7030,N,12217.1511,W,1,05,3.4,1.6,M,-25.1,M,,0000*65
$GPGSA,A,3,02,12,31,25,29,,,,,,,,5.1,3.4,3.8*35
$GPRMC,201832.000,A,3748.7030,N,12217.1511,W,0.57,72.68,131012,,,A*40
$GPVTG,72.68,T,,M,0.57,N,1.1,K,A*34
$GPGGA,201833.000,3748.7017,N,12217.1502,W,1,04,3.6,-1.8,M,-25.1,M,,0000*43
$GPGSA,A,3,02,12,31,25,,,,,,,,,5.2,3.6,3.8*3F
$GPRMC,201833.000,A,3748.7017,N,12217.1502,W,1.13,87.87,131012,,,A*4C
$GPVTG,87.87,T,,M,1.13,N,2.1,K,A*3D
$GPGGA,201834.000,3748.7023,N,12217.1503,W,1,04,3.6,-1.3,M,-25.1,M,,0000*49
$GPGSA,A,3,02,12,31,25,,,,,,,,,5.2,3.6,3.8*3F
$GPGSV,3,1,11,12,79,165,19,02,59,046,24,25,56,308,17,05,38,133,*70
$GPGSV,3,2,11,29,36,293,18,10,29,064,24,04,13,049,21,31,10,320,24*75
$GPGSV,3,3,11,09,07,194,,21,03,229,,27,03,190,*4C
$GPRMC,201834.000,A,3748.7023,N,12217.1503,W,0.72,17.13,131012,,,A*4F
$GPVTG,17.13,T,,M,0.72,N,1.3,K,A*3E
$GPGGA,201835.000,3748.7018,N,12217.1510,W,1,04,3.6,-0.6,M,-25.1,M,,0000*46
$GPGSA,A,3,02,12,31,25,,,,,,,,,5.2,3.6,3.8*3F
$GPRMC,201835.000,A,3748.7018,N,12217.1510,W,1.07,241.61,131012,,,A*73
$GPVTG,241.61,T,,M,1.07,N,2.0,K,A*09
$GPGGA,201836.000,3748.7003,N,12217.1515,W,1,05,3.4,-0.9,M,-25.1,M,,0000*46
$GPGSA,A,3,02,12,31,25,29,,,,,,,,5.1,3.4,3.8*35
$GPRMC,201836.000,A,3748.7003,N,12217.1515,W,2.17,211.86,131012,,,A*71
$GPVTG,211.86,T,,M,2.17,N,4.0,K,A*01
$GPGGA,201837.000,3748.7000,N,12217.1513,W,1,05,3.4,-1.0,M,-25.1,M,,0000*4A
$GPGSA,A,3,02,12,31,25,29,,,,,,,,5.1,3.4,3.8*35
$GPRMC,201837.000,A,3748.7000,N,12217.1513,W,1.45,202.00,131012,,,A*7D
$GPVTG,202.00,T,,M,1.45,N,2.7,K,A*08
$GPGGA,201838.000,3748.6995,N,12217.1511,W,1,05,3.4,-2.0,M,-25.1,M,,0000*40
$GPGSA,A,3,02,12,31,25,29,,,,,,,,5.1,3.4,3.8*35
$GPRMC,201838.000,A,3748.6995,N,12217.1511,W,0.79,186.50,131012,,,A*70
$GPVTG,186.50,T,,M,0.79,N,1.5,K,A*0D
$GPGGA,201839.000,3748.7005,N,12217.1515,W,1,05,3.4,-1.6,M,-25.1,M,,0000*41
$GPGSA,A,3,02,12,31,25,29,,,,,,,,5.1,3.4,3.8*35
$GPGSV,3,1,11,12,79,165,26,02,59,046,31,25,56,308,25,05,38,133,*79
$GPGSV,3,2,11,29,36,293,25,10,29,064,30,04,13,049,21,31,10,320,31*7A
$GPGSV,3,3,11,09,07,194,,21,03,229,,27,03,190,*4C
$GPVTG,71.85,T,,M,0.16,N,0.3,K,A*32
$GPGGA,201840.000,3748.7007,N,12217.1511,W,1,05,3.4,-1.7,M,-25.1,M,,0000*48
$GPGSA,A,3,02,12,31,25,29,,,,,,,,5.1,3.4,3.8*35
$GPRMC,201840.000,A,3748.7007,N,12217.1511,W,0.74,100.74,131012,,,A*79
$GPVTG,100.74,T,,M,0.74,N,1.4,K,A*09
$GPGGA,201841.000,3748.7018,N,12217.1501,W,1,05,3.4,-0.4,M,-25.1,M,,0000*44
$GPGSA,A,3,02,12,31,25,29,,,,,,,,5.1,3.4,3.8*35
$GPRMC,201841.000,A,3748.7018,N,12217.1501,W,0.91,137.20,131012,,,A*79
$GPVTG,137.20,T,,M,0.91,N,1.7,K,A*04
$GPGGA,201842.000,3748.7014,N,12217.1503,W,1,05,3.4,0.1,M,-25.1,M,,0000*61
$GPGSA,A,3,02,12,31,25,29,,,,,,,,5.1,3.4,3.8*35
$GPRMC,201842.000,A,3748.7014,N,12217.1503,W,0.56,65.48,131012,,,A*47
$GPVTG,65.48,T,,M,0.56,N,1.0,K,A*30
$GPGGA,201843.000,3748.7019,N,12217.1504,W,1,05,3.4,1.6,M,-25.1,M,,0000*6C
$GPGSA,A,3,02,12,31,25,29,,,,,,,,5.1,3.4,3.8*35
$GPRMC,201843.000,A,3748.7019,N,12217.1504,W,0.34,352.71,131012,,,A*75
$GPVTG,352.71,T,,M,0.34,N,0.6,K,A*0E
$GPGGA,201844.000,3748.7013,N,12217.1501,W,1,05,3.4,0.6,M,-25.1,M,,0000*65
$GPGSA,A,3,02,12,31,25,29,,,,,,,,5.1,3.4,3.8*35
$GPGSV,3,1,11,12,79,165,20,02,59,046,26,25,56,308,25,05,38,133,*79
$GPGSV,3,2,11,29,36,293,23,10,29,064,29,04,13,049,16,31,10,320,21*71
$GPGSV,3,3,11,09,07,194,,21,03,229,,27,03,190,*4C
$GPRMC,201844.000,A,3748.7013,N,12217.1501,W,0.19,62.17,131012,,,A*42
$GPVTG,62.17,T,,M,0.19,N,0.4,K,A*33
$GPGGA,201845.000,3748.7020,N,12217.1500,W,1,05,3.4,2.1,M,-25.1,M,,0000*60
$GPGSA,A,3,02,12,31,25,29,,,,,,,,5.1,3.4,3.8*35
$GPRMC,201845.000,A,3748.7020,N,12217.1500,W,0.32,48.00,131012,,,A*45
$GPVTG,48.00,T,,M,0.32,N,0.6,K,A*36
$GPGGA,201846.000,3748.7026,N,12217.1497,W,1,05,3.4,2.2,M,-25.1,M,,0000*69
$GPGSA,A,3,02,12,31,25,29,,,,,,,,5.1,3.4,3.8*35
$GPRMC,201846.000,A,3748.7026,N,12217.1497,W,0.31,325.21,131012,,,A*77
$GPVTG,325.21,T,,M,0.31,N,0.6,K,A*0E
$GPGGA,201847.000,3748.7037,N,12217.1504,W,1,05,3.4,3.3,M,-25.1,M,,0000*63
$GPGSA,A,3,02,12,31,25,29,,,,,,,,5.1,3.4,3.8*35
$GPRMC,201847.000,A,3748.7037,N,12217.1504,W,0.84,339.05,131012,,,A*78
$GPVTG,339.05,T,,M,0.84,N,1.5,K,A*09
$GPGGA,201848.000,3748.7045,N,12217.1506,W,1,05,3.4,3.7,M,-25.1,M,,0000*6F
$GPGSA,A,3,02,12,31,25,29,,,,,,,,5.1,3.4,3.8*35
$GPRMC,201848.000,A,3748.7045,N,12217.1506,W,0.74,13.05,131012,,,A*44
$GPVTG,13.05,T,,M,0.74,N,1.4,K,A*3C
$GPGGA,201849.000,3748.7043,N,12217.1504,W,1,05,3.4,2.8,M,-25.1,M,,0000*64
$GPGSA,A,3,02,12,31,25,29,,,,,,,,5.1,3.4,3.8*35
$GPGSV,3,1,11,12,79,165,21,02,59,046,27,25,56,308,24,05,38,133,*78
$GPGSV,3,2,11,29,36,293,30,10,29,064,24,04,13,049,17,31,10,320,24*7A
$GPGSV,3,3,11,09,07,194,,21,03,229,,27,03,190,*4C
$GPRMC,201849.000,A,3748.7043,N,12217.1504,W,0.08,33.36,131012,,,A*48
$GPVTG,33.36,T,,M,0.08,N,0.2,K,A*32
$GPGGA,201850.000,3748.7031,N,12217.1496,W,1,05,3.4,-0.6,M,-25.1,M,,0000*42
$GPGSA,A,3,02,12,31,25,29,,,,,,,,5.1,3.4,3.8*35
$GPRMC,201850.000,A,3748.7031,N,12217.1496,W,0.47,157.71,131012,,,A*74
$GPVTG,157.71,T,,M,0.47,N,0.9,K,A*02
$GPGGA,201851.000,3748.7031,N,12217.1501,W,1,05,3.4,-0.1,M,-25.1,M,,0000*4B
$GPGSA,A,3,02,12,31,25,29,,,,,,,,5.1,3.4,3.8*35
$GPRMC,201851.000,A,3748.7031,N,12217.1501,W,0.60,191.83,131012,,,A*78
$GPVTG,191.83,T,,M,0.60,N,1.1,K,A*09
$GPGGA,201852.000,3748.7023,N,12217.1507,W,1,05,3.4,0.6,M,-25.1,M,,0000*67
$GPGSA,A,3,02,12,31,25,29,,,,,,,,5.1,3.4,3.8*35
$GPRMC,201852.000,A,3748.7023,N,12217.1507,W,0.71,196.75,131012,,,A*70
$GPVTG,196.75,T,,M,0.71,N,1.3,K,A*05
$GPGGA,201853.000,3748.7018,N,12217.1500,W,1,05,3.4,0.4,M,-25.1,M,,0000*6B
$GPGSA,A,3,02,12,31,25,29,,,,,,,,5.1,3.4,3.8*35
$GPRMC,201853.000,A,3748.7018,N,12217.1500,W,1.00,80.76,131012,,,A*4C
$GPVTG,80.76,T,,M,1.00,N,1.9,K,A*3D
$GPGGA,201854.000,3748.7027,N,12217.1501,W,1,05,3.4,3.3,M,-25.1,M,,0000*65
$GPGSA,A,3,02,12,31,25,29,,,,,,,,5.1,3.4,3.8*35
$GPGSV,3,1,11,12,79,165,20,02,59,046,25,25,56,308,24,05,38,133,*7B
$GPGSV,3,2,11,29,36,293,25,10,29,064,23,04,13,049,17,31,10,320,21*7C
$GPGSV,3,3,11,09,07,194,,21,03,229,,27,03,190,*4C
$GPRMC,201854.000,A,3748.7027,N,12217.1501,W,0.34,46.57,131012,,,A*49
$GPGGA,201855.000,3748.7048,N,12217.1500,W,1,05,3.4,7.6,M,-25.1,M,,0000*6D
$GPGSA,A,3,02,12,31,25,29,,,,,,,,5.1,3.4,3.8*35
$GPRMC,201855.000,A,3748.7048,N,12217.1500,W,1.08,25.92,131012,,,A*42
$GPVTG,25.92,T,,M,1.08,N,2.0,K,A*3A
$GPGGA,201856.000,3748.7056,N,12217.1504,W,1,05,3.4,8.8,M,-25.1,M,,0000*64
$GPGSA,A,3,02,12,31,25,29,,,,,,,,5.1,3.4,3.8*35
$GPRMC,201856.000,A,3748.7056,N,12217.1504,W,0.98,347.00,131012,,,A*7E
$GPVTG,347.00,T,,M,0.98,N,1.8,K,A*05
$GPGGA,201857.000,3748.7067,N,12217.1512,W,1,04,5.5,10.2,M,-25.1,M,,0000*55
$GPGSA,A,3,02,12,31,29,,,,,,,,,9.0,5.5,7.2*36
$GPRMC,201857.000,A,3748.7067,N,12217.1512,W,1.14,301.01,131012,,,A*7C
$GPVTG,301.01,T,,M,1.14,N,2.1,K,A*09
$GPGGA,201858.000,3748.7067,N,12217.1515,W,1,05,3.4,11.4,M,-25.1,M,,0000*5C
$GPGSA,A,3,02,12,31,25,29,,,,,,,,5.1,3.4,3.8*35
$GPRMC,201858.000,A,3748.7067,N,12217.1515,W,1.04,307.97,131012,,,A*7C
$GPVTG,307.97,T,,M,1.04,N,1.9,K,A*0A
$GPGGA,201859.000,3748.7071,N,12217.1514,W,1,04,5.5,12.5,M,-25.1,M,,0000*5F
$GPGSA,A,3,02,12,31,29,,,,,,,,,9.0,5.5,7.2*36
$GPGSV,3,1,11,12,79,165,22,02,59,046,22,25,56,308,18,05,38,133,*71
$GPGSV,3,2,11,29,36,293,18,10,29,064,22,04,13,049,18,31,10,320,24*79
$GPGSV,3,3,11,09,07,194,,21,03,229,,27,03,190,*4C
$GPRMC,201859.000,A,3748.7071,N,12217.1514,W,1.17,323.01,131012,,,A*70
$GPVTG,323.01,T,,M,1.17,N,2.2,K,A*09
$GPGGA,201900.000,3748.7072,N,12217.1514,W,1,04,5.5,12.8,M,-25.1,M,,0000*5C
$GPGSA,A,3,02,12,31,29,,,,,,,,,9.0,5.5,7.1*35
$GPRMC,201900.000,A,3748.7072,N,12217.1514,W,0.69,334.78,131012,,,A*7E
$GPVTG,334.78,T,,M,0.69,N,1.3,K,A*0B
$GPGGA,201901.000,3748.7064,N,12217.1518,W,1,05,3.4,11.3,M,-25.1,M,,0000*58
$GPGSA,A,3,02,12,31,25,29,,,,,,,,5.1,3.4,3.8*35
$GPRMC,201901.000,A,3748.7064,N,12217.1518,W,0.15,103.88,131012,,,A*76
$GPVTG,103.88,T,,M,0.15,N,0.3,K,A*08
$GPGGA,201902.000,3748.7058,N,12217.1521,W,1,05,3.4,10.7,M,-25.1,M,,0000*5B
$GPGSA,A,3,02,12,31,25,29,,,,,,,,5.1,3.4,3.8*35
$GPRMC,201902.000,A,3748.7058,N,12217.1521,W,0.80,247.76,131012,,,A*7E
$GPVTG,247.76,T,,M,0.80,N,1.5,K,A*01
$GPGGA,201903.000,3748.7062,N,12217.1527,W,1,05,3.4,13.0,M,-25.1,M,,0000*51
$GPGSA,A,3,02,12,31,25,29,,,,,,,,5.1,3.4,3.8*35
$GPRMC,201903.000,A,3748.7062,N,12217.1527,W,1.05,290.92,131012,,,A*7C
$GPVTG,290.92,T,,M,1.05,N,1.9,K,A*01
$GPGGA,201904.000,3748.7066,N,12217.1533,W,1,05,3.4,14.4,M,-25.1,M,,0000*54
$GPGSA,A,3,02,12,31,25,29,,,,,,,,5.1,3.4,3.8*35
$GPGSV,3,1,11,12,79,165,24,02,59,046,23,25,56,308,24,05,38,133,*79
$GPGSV,3,2,11,29,36,293,23,10,29,064,23,04,13,049,,31,10,320,23*7E
$GPGSV,3,3,11,09,07,194,,21,03,229,,27,03,190,*4C
$GPRMC,201904.000,A,3748.7066,N,12217.1533,W,1.43,344.02,131012,,,A*79
$GPVTG,344.02,T,,M,1.43,N,2.6,K,A*0E
$GPGGA,201905.000,3748.7069,N,12217.1536,W,1,04,5.0,16.0,M,-25.1,M,,0000*5A
$GPGSA,A,3,12,31,25,29,,,,,,,,,6.4,5.0,4.0*3C
$GPRMC,201905.000,A,3748.7069,N,12217.1536,W,0.59,40.85,131012,,,A*40
$GPVTG,40.85,T,,M,0.59,N,1.1,K,A*38
$GPGGA,201906.000,3748.7080,N,12217.1536,W,1,05,3.4,19.9,M,-25.1,M,,0000*5B
$GPGSA,A,3,02,12,31,25,29,,,,,,,,5.1,3.4,3.8*35
$GPRMC,201906.000,A,3748.7080,N,12217.1536,W,1.06,58.01,131012,,,A*4A
$GPVTG,58.01,T,,M,1.06,N,2.0,K,A*34
$GPGGA,201907.000,3748.7086,N,12217.1532,W,1,05,3.4,24.3,M,-25.1,M,,0000*5C
$GPGSA,A,3,02,12,31,25,29,,,,,,,,5.0,3.4,3.8*34
$GPRMC,201907.000,A,3748.7086,N,12217.1532,W,1.01,40.97,131012,,,A*48
$GPVTG,40.97,T,,M,1.01,N,1.9,K,A*3F
$GPGGA,201908.000,3748.7090,N,12217.1526,W,1,05,3.4,27.3,M,-25.1,M,,0000*52
$GPGSA,A,3,02,12,31,25,29,,,,,,,,5.0,3.4,3.8*34
$GPRMC,201908.000,A,3748.7090,N,12217.1526,W,0.80,8.18,131012,,,A*76
$GPVTG,8.18,T,,M,0.80,N,1.5,K,A*00
$GPGGA,201909.000,3748.7078,N,12217.1523,W,1,05,3.4,24.8,M,-25.1,M,,0000*58
$GPGSA,A,3,02,12,31,25,29,,,,,,,,5.0,3.4,3.8*34
$GPGSV,3,1,11,12,79,165,21,02,59,046,24,25,56,308,23,05,38,133,*7C
$GPGSV,3,2,11,29,36,293,22,10,29,064,32,04,13,049,,31,10,320,19*76
$GPGSV,3,3,11,09,07,194,,21,03,229,,27,03,190,*4C
$GPRMC,201909.000,A,3748.7078,N,12217.1523,W,0.87,347.34,131012,,,A*75
$GPVTG,347.34,T,,M,0.87,N,1.6,K,A*02
$GPGGA,201910.000,3748.7075,N,12217.1523,W,1,03,3.5,24.4,M,-25.1,M,,0000*56
$GPGSA,A,2,02,31,29,,,,,,,,,,3.6,3.5,1.0*3A
$GPRMC,201910.000,A,3748.7075,N,12217.1523,W,0.02,101.98,131012,,,A*7B
$GPVTG,101.98,T,,M,0.02,N,0.0,K,A*0E
$GPGGA,201911.000,3748.7067,N,12217.1516,W,1,04,5.4,24.0,M,-25.1,M,,0000*56
$GPGSA,A,3,02,12,31,29,,,,,,,,,8.9,5.4,7.1*3C
$GPRMC,201911.000,A,3748.7067,N,12217.1516,W,0.41,94.44,131012,,,A*44
$GPVTG,94.44,T,,M,0.41,N,0.8,K,A*3D
$GPGGA,201912.000,3748.7033,N,12217.1539,W,1,04,5.4,22.7,M,-25.1,M,,0000*58
$GPGSA,A,3,02,12,31,29,,,,,,,,,8.9,5.4,7.1*3C
$GPRMC,201912.000,A,3748.7033,N,12217.1539,W,0.39,268.33,131012,,,A*75
$GPVTG,268.33,T,,M,0.39,N,0.7,K,A*0C
$GPGGA,201913.000,3748.7017,N,12217.1535,W,1,05,3.4,20.1,M,-25.1,M,,0000*50
$GPGSA,A,3,02,12,31,25,29,,,,,,,,5.0,3.4,3.8*34
$GPRMC,201913.000,A,3748.7017,N,12217.1535,W,0.64,285.17,131012,,,A*73
$GPVTG,285.17,T,,M,0.64,N,1.2,K,A*05
$GPGGA,201914.000,3748.7005,N,12217.1537,W,1,05,3.4,16.7,M,-25.1,M,,0000*55
$GPGSA,A,3,02,12,31,25,29,,,,,,,,5.0,3.4,3.8*34
$GPGSV,3,1,11,12,79,165,26,02,59,046,28,25,56,308,25,05,38,133,*71
$GPGSV,3,2,11,29,36,293,20,10,29,064,25,04,13,049,,31,10,320,20*78
$GPGSV,3,3,11,09,07,194,,21,03,229,,27,03,190,*4C
$GPRMC,201914.000,A,3748.7005,N,12217.1537,W,0.73,282.25,131012,,,A*75
$GPVTG,282.25,T,,M,0.73,N,1.4,K,A*03
$GPGGA,201915.000,3748.7006,N,12217.1533,W,1,05,3.4,13.6,M,-25.1,M,,0000*57
$GPGSA,A,3,02,12,31,25,29,,,,,,,,5.0,3.4,3.8*34
$GPRMC,201915.000,A,3748.7006,N,12217.1533,W,0.21,251.40,131012,,,A*79
$GPVTG,251.40,T,,M,0.21,N,0.4,K,A*08
$GPGGA,201916.000,3748.7015,N,12217.1532,W,1,05,3.4,14.2,M,-25.1,M,,0000*54
$GPGSA,A,3,02,12,31,25,29,,,,,,,,5.0,3.4,3.8*34
$GPRMC,201916.000,A,3748.7015,N,12217.1532,W,0.05,242.76,131012,,,A*78
$GPVTG,242.76,T,,M,0.05,N,0.1,K,A*0C
$GPGGA,201917.000,3748.6998,N,12217.1544,W,1,05,3.4,12.1,M,-25.1,M,,0000*5C
$GPGSA,A,3,02,12,31,25,29,,,,,,,,5.0,3.4,3.8*34
$GPRMC,201917.000,A,3748.6998,N,12217.1544,W,0.30,318.10,131012,,,A*7D
$GPVTG,318.10,T,,M,0.30,N,0.6,K,A*03
$GPGGA,201918.000,3748.6997,N,12217.1549,W,1,05,3.4,11.9,M,-25.1,M,,0000*5A
$GPGSA,A,3,02,12,31,25,29,,,,,,,,5.0,3.4,3.8*34
$GPRMC,201918.000,A,3748.6997,N,12217.1549,W,0.12,211.02,131012,,,A*7B
$GPVTG,211.02,T,,M,0.12,N,0.2,K,A*0C
$GPGGA,201919.000,3748.6998,N,12217.1552,W,1,05,3.4,11.4,M,-25.1,M,,0000*53
$GPGSA,A,3,02,12,31,25,29,,,,,,,,5.0,3.4,3.8*34
$GPGSV,3,1,11,12,79,165,27,02,59,046,24,25,56,308,25,05,38,133,*7C
$GPGSV,3,2,11,29,36,293,21,10,29,064,19,04,13,049,,31,10,320,20*76
$GPGSV,3,3,11,09,07,194,27,21,03,229,,27,03,190,*49
$GPRMC,201919.000,A,3748.6998,N,12217.1552,W,0.09,21.43,131012,,,A*41
$GPVTG,21.43,T,,M,0.09,N,0.2,K,A*32
$GPGGA,201920.000,3748.6994,N,12217.1560,W,1,05,3.4,11.3,M,-25.1,M,,0000*53
$GPGSA,A,3,02,12,31,25,29,,,,,,,,5.0,3.4,3.7*3B
$GPRMC,201920.000,A,3748.6994,N,12217.1560,W,0.03,225.73,131012,,,A*79
$GPVTG,225.73,T,,M,0.03,N,0.1,K,A*0E
$GPGGA,201921.000,3748.6988,N,12217.1574,W,1,05,3.4,11.1,M,-25.1,M,,0000*58
$GPGSA,A,3,02,12,31,25,29,,,,,,,,5.0,3.4,3.7*3B
$GPRMC,201921.000,A,3748.6988,N,12217.1574,W,0.17,232.71,131012,,,A*71
$GPVTG,232.71,T,,M,0.17,N,0.3,K,A*0D
$GPGGA,201922.000,3748.6976,N,12217.1588,W,1,05,3.4,11.9,M,-25.1,M,,0000*51
$GPGSA,A,3,02,12,31,25,29,,,,,,,,5.0,3.4,3.7*3B
$GPRMC,201922.000,A,3748.6976,N,12217.1588,W,0.71,187.08,131012,,,A*73
$GPVTG,187.08,T,,M,0.71,N,1.3,K,A*0F
$GPGGA,201923.000,3748.6962,N,12217.1608,W,1,05,3.4,13.0,M,-25.1,M,,0000*55
$GPGSA,A,3,02,12,31,25,29,,,,,,,,5.0,3.4,3.7*3B
$GPRMC,201923.000,A,3748.6962,N,12217.1608,W,0.60,194.99,131012,,,A*76
$GPVTG,194.99,T,,M,0.60,N,1.1,K,A*07
$GPGGA,201924.000,3748.6964,N,12217.1614,W,1,05,3.4,13.9,M,-25.1,M,,0000*50
$GPGSA,A,3,02,12,31,25,29,,,,,,,,5.0,3.4,3.7*3B
$GPGSV,3,1,11,12,79,165,28,02,59,046,23,25,56,308,20,05,38,133,*71
$GPGSV,3,2,11,29,36,293,23,10,29,064,20,04,13,049,,31,10,320,21*7F
$GPGSV,3,3,11,09,07,194,18,21,03,229,,27,03,190,*45
$GPRMC,201924.000,A,3748.6964,N,12217.1614,W,0.24,19.85,131012,,,A*43
$GPVTG,19.85,T,,M,0.24,N,0.5,K,A*3B
$GPGGA,201925.000,3748.6956,N,12217.1627,W,1,05,3.4,14.7,M,-25.1,M,,0000*59
$GPGSA,A,3,02,12,31,25,29,,,,,,,,5.0,3.4,3.7*3B
$GPRMC,201925.000,A,3748.6956,N,12217.1627,W,0.54,352.49,131012,,,A*78
$GPVTG,352.49,T,,M,0.54,N,1.0,K,A*04
$GPGGA,201926.000,3748.6952,N,12217.1626,W,1,05,3.4,12.6,M,-25.1,M,,0000*58
$GPGSA,A,3,02,12,31,25,29,,,,,,,,5.0,3.4,3.7*3B
$GPRMC,201926.000,A,3748.6952,N,12217.1626,W,0.47,275.93,131012,,,A*7F
$GPVTG,275.93,T,,M,0.47,N,0.9,K,A*0D
$GPGGA,201927.000,3748.6958,N,12217.1616,W,1,05,3.4,11.3,M,-25.1,M,,0000*56
$GPGSA,A,3,02,12,31,25,29,,,,,,,,5.0,3.4,3.7*3B
$GPRMC,201927.000,A,3748.6958,N,12217.1616,W,1.07,40.84,131012,,,A*40
$GPVTG,40.84,T,,M,1.07,N,2.0,K,A*31
$GPGGA,201928.000,3748.6966,N,12217.1598,W,1,05,3.4,9.2,M,-25.1,M,,0000*69
$GPGSA,A,3,02,12,31,25,29,,,,,,,,5.0,3.4,3.7*3B
$GPRMC,201928.000,A,3748.6966,N,12217.1598,W,1.18,49.85,131012,,,A*41
$GPVTG,49.85,T,,M,1.18,N,2.2,K,A*35
$GPGGA,201929.000,3748.6972,N,12217.1583,W,1,05,3.4,7.7,M,-25.1,M,,0000*6C
$GPGSA,A,3,02,12,31,25,29,,,,,,,,5.0,3.4,3.7*3B
$GPGSV,3,1,11,12,79,165,29,02,59,046,23,25,56,308,20,05,38,133,*70
$GPGSV,3,2,11,29,36,293,22,10,29,064,20,04,13,049,,31,10,320,22*7D
$GPGSV,3,3,11,09,07,194,17,21,03,229,,27,03,190,*4A
$GPRMC,201929.000,A,3748.6972,N,12217.1583,W,1.41,53.72,131012,,,A*40
$GPVTG,53.72,T,,M,1.41,N,2.6,K,A*3E
$GPGGA,201930.000,3748.6967,N,12217.1577,W,1,04,5.1,5.6,M,-25.1,M,,0000*6A
$GPGSA,A,3,12,31,25,29,,,,,,,,,6.4,5.1,4.0*3D
$GPRMC,201930.000,A,3748.6967,N,12217.1577,W,0.60,105.47,131012,,,A*71
$GPVTG,105.47,T,,M,0.60,N,1.1,K,A*0C
$GPGGA,201931.000,3748.6959,N,12217.1577,W,1,04,5.1,4.2,M,-25.1,M,,0000*63
$GPGSA,A,3,12,31,25,29,,,,,,,,,6.4,5.1,4.0*3D
$GPRMC,201931.000,A,3748.6959,N,12217.1577,W,1.38,194.30,131012,,,A*79
$GPVTG,194.30,T,,M,1.38,N,2.6,K,A*0C
$GPGGA,201932.000,3748.6956,N,12217.1572,W,1,05,3.4,2.5,M,-25.1,M,,0000*69
$GPGSA,A,3,02,12,31,25,29,,,,,,,,5.0,3.4,3.7*3B
$GPRMC,201932.000,A,3748.6956,N,12217.1572,W,1.05,198.50,131012,,,A*74
$GPVTG,198.50,T,,M,1.05,N,1.9,K,A*04
$GPGGA,201933.000,3748.6957,N,12217.1562,W,1,05,3.4,1.0,M,-25.1,M,,0000*6E
$GPGSA,A,3,02,12,31,25,29,,,,,,,,5.0,3.4,3.7*3B
$GPRMC,201933.000,A,3748.6957,N,12217.1562,W,0.68,111.70,131012,,,A*7C
$GPVTG,111.70,T,,M,0.68,N,1.3,K,A*07
$GPGGA,201934.000,3748.6960,N,12217.1550,W,1,05,3.4,-0.2,M,-25.1,M,,0000*42
$GPGSA,A,3,02,12,31,25,29,,,,,,,,5.0,3.4,3.7*3B
$GPGSV,3,1,11,12,79,165,29,02,59,046,22,25,56,308,29,05,38,133,*78
$GPGSV,3,2,11,29,36,293,30,10,29,064,19,04,13,049,,31,10,320,27*71
$GPGSV,3,3,11,09,07,194,16,21,03,229,,27,03,190,*4B
$GPRMC,201934.000,A,3748.6960,N,12217.1550,W,0.80,149.18,131012,,,A*7B
$GPVTG,149.18,T,,M,0.80,N,1.5,K,A*04
$GPGGA,201935.000,3748.6950,N,12217.1553,W,1,05,3.4,-1.8,M,-25.1,M,,0000*48
$GPGSA,A,3,02,12,31,25,29,,,,,,,,5.0,3.4,3.7*3B
$GPRMC,201935.000,A,3748.6950,N,12217.1553,W,1.28,168.57,131012,,,A*71
$GPVTG,168.57,T,,M,1.28,N,2.4,K,A*0D
$GPGGA,201936.000,3748.6944,N,12217.1562,W,1,05,3.4,-1.7,M,-25.1,M,,0000*43
$GPGSA,A,3,02,12,31,25,29,,,,,,,,5.0,3.4,3.7*3B
$GPRMC,201936.000,A,3748.6944,N,12217.1562,W,0.58,127.75,131012,,,A*78
$GPVTG,127.75,T,,M,0.58,N,1.1,K,A*06
$GPGGA,201937.000,3748.6937,N,12217.1565,W,1,05,3.4,-2.3,M,-25.1,M,,0000*46
$GPGSA,A,3,02,12,31,25,29,,,,,,,,5.0,3.4,3.7*3B
$GPRMC,201937.000,A,3748.6937,N,12217.1565,W,0.86,103.57,131012,,,A*7F
$GPVTG,103.57,T,,M,0.86,N,1.6,K,A*04
$GPGGA,201938.000,3748.6935,N,12217.1560,W,1,05,3.4,-3.2,M,-25.1,M,,0000*4E
$GPGSA,A,3,02,12,31,25,29,,,,,,,,5.0,3.4,3.7*3B
$GPRMC,201938.000,A,3748.6935,N,12217.1560,W,1.08,144.02,131012,,,A*73
$GPVTG,144.02,T,,M,1.08,N,2.0,K,A*05
$GPGGA,201939.000,3748.6945,N,12217.1555,W,1,05,3.4,-2.6,M,-25.1,M,,0000*4B
$GPGSA,A,3,02,12,31,25,29,,,,,,,,5.0,3.4,3.7*3B
$GPGSV,3,1,11,12,79,165,28,02,59,046,22,25,56,308,28,05,38,133,*78
$GPGSV,3,2,11,29,36,293,27,10,29,064,19,04,13,049,,31,10,320,23*73
$GPGSV,3,3,11,09,07,194,15,21,03,229,,27,03,190,*48
$GPRMC,201939.000,A,3748.6945,N,12217.1555,W,1.18,93.17,131012,,,A*4D
$GPVTG,93.17,T,,M,1.18,N,2.2,K,A*39
$GPGGA,201940.000,3748.6954,N,12217.1546,W,1,05,3.3,-1.3,M,-25.1,M,,0000*46
$GPGSA,A,3,02,12,31,25,29,,,,,,,,5.0,3.3,3.7*3C
$GPRMC,201940.000,A,3748.6954,N,12217.1546,W,0.86,123.24,131012,,,A*7D
$GPVTG,123.24,T,,M,0.86,N,1.6,K,A*02
$GPGGA,201941.000,3748.6962,N,12217.1537,W,1,05,3.3,-1.2,M,-25.1,M,,0000*45
$GPGSA,A,3,02,12,31,25,29,,,,,,,,5.0,3.3,3.7*3C
$GPRMC,201941.000,A,3748.6962,N,12217.1537,W,0.77,111.59,131012,,,A*7A
$GPVTG,111.59,T,,M,0.77,N,1.4,K,A*05
$GPGGA,201942.000,3748.6974,N,12217.1527,W,1,05,3.3,-0.3,M,-25.1,M,,0000*40
$GPGSA,A,3,02,12,31,25,29,,,,,,,,5.0,3.3,3.7*3C
$GPRMC,201942.000,A,3748.6974,N,12217.1527,W,1.49,58.67,131012,,,A*42
$GPVTG,58.67,T,,M,1.49,N,2.8,K,A*37
$GPGGA,201943.000,3748.6989,N,12217.1524,W,1,05,3.3,0.5,M,-25.1,M,,0000*6B
$GPGSA,A,3,02,12,31,25,29,,,,,,,,5.0,3.3,3.7*3C
$GPRMC,201943.000,A,3748.6989,N,12217.1524,W,1.17,34.74,131012,,,A*41
$GPVTG,34.74,T,,M,1.17,N,2.2,K,A*3E
$GPGGA,201944.000,3748.6995,N,12217.1519,W,1,05,3.3,0.8,M,-25.1,M,,0000*62
$GPGSA,A,3,02,12,31,25,29,,,,,,,,5.0,3.3,3.7*3C
$GPGSV,3,1,11,12,79,165,23,02,59,046,22,25,56,308,28,05,38,133,*73
$GPGSV,3,2,11,29,36,293,27,10,29,064,19,04,13,049,,31,10,320,27*77
$GPGSV,3,3,11,09,07,194,18,21,03,229,,27,03,190,*45
$GPRMC,201944.000,A,3748.6995,N,12217.1519,W,0.51,16.90,131012,,,A*4C
$GPVTG,16.90,T,,M,0.51,N,0.9,K,A*3E
$GPGGA,201945.000,3748.6998,N,12217.1521,W,1,05,3.3,1.7,M,-25.1,M,,0000*6B
$GPGSA,A,3,02,12,31,25,29,,,,,,,,5.0,3.3,3.7*3C
$GPRMC,201945.000,A,3748.6998,N,12217.1521,W,0.46,100.26,131012,,,A*76
$GPVTG,100.26,T,,M,0.46,N,0.9,K,A*03
$GPGGA,201946.000,3748.7005,N,12217.1515,W,1,05,3.3,1.8,M,-25.1,M,,0000*6C
$GPGSA,A,3,02,12,31,25,29,,,,,,,,5.0,3.3,3.7*3C
$GPRMC,201946.000,A,3748.7005,N,12217.1515,W,0.77,46.13,131012,,,A*49
$GPVTG,46.13,T,,M,0.77,N,1.4,K,A*38
$GPGGA,201947.000,3748.6994,N,12217.1516,W,1,05,3.3,0.1,M,-25.1,M,,0000*66
$GPGSA,A,3,02,12,31,25,29,,,,,,,,5.0,3.3,3.7*3C
$GPRMC,201947.000,A,3748.6994,N,12217.1516,W,0.49,202.11,131012,,,A*76
$GPVTG,202.11,T,,M,0.49,N,0.9,K,A*09
$GPGGA,201948.000,3748.6986,N,12217.1523,W,1,05,3.3,0.0,M,-25.1,M,,0000*6D
$GPGSA,A,3,02,12,31,25,29,,,,,,,,5.0,3.3,3.7*3C
$GPRMC,201948.000,A,3748.6986,N,12217.1523,W,1.51,197.12,131012,,,A*78
$GPVTG,197.12,T,,M,1.51,N,2.8,K,A*0E
$GPGGA,201949.000,3748.6988,N,12217.1517,W,1,05,3.3,-0.0,M,-25.1,M,,0000*48
$GPGSA,A,3,02,12,31,25,29,,,,,,,,5.0,3.3,3.7*3C
$GPGSV,3,1,11,12,79,165,31,02,59,046,26,25,56,308,32,05,38,133,*7F
$GPGSV,3,2,11,29,36,293,34,10,29,064,19,04,13,049,,31,10,320,34*77
$GPGSV,3,3,11,09,07,194,16,21,03,229,,27,03,190,*4B
$GPRMC,201949.000,A,3748.6988,N,12217.1517,W,0.65,201.35,131012,,,A*7F
$GPVTG,201.35,T,,M,0.65,N,1.2,K,A*08
$GPGGA,201950.000,3748.6985,N,12217.1515,W,1,05,3.3,-0.5,M,-25.1,M,,0000*4A
$GPGSA,A,3,02,12,31,25,29,,,,,,,,5.0,3.3,3.7*3C
$GPRMC,201950.000,A,3748.6985,N,12217.1515,W,0.36,164.31,131012,,,A*7A
$GPVTG,164.31,T,,M,0.36,N,0.7,K,A*0E
$GPGGA,201951.000,3748.6982,N,12217.1515,W,1,05,3.3,-0.8,M,-25.1,M,,0000*41
$GPGSA,A,3,02,12,31,25,29,,,,,,,,5.0,3.3,3.7*3C
$GPRMC,201951.000,A,3748.6982,N,12217.1515,W,0.42,141.88,131012,,,A*7A
$GPVTG,141.88,T,,M,0.42,N,0.8,K,A*07
$GPGGA,201952.000,3748.6979,N,12217.1515,W,1,05,3.3,-1.1,M,-25.1,M,,0000*4E
$GPGSA,A,3,02,12,31,25,29,,,,,,,,5.0,3.3,3.7*3C
$GPRMC,201952.000,A,3748.6979,N,12217.1515,W,0.40,171.54,131012,,,A*7D
$GPVTG,171.54,T,,M,0.40,N,0.7,K,A*08
$GPGGA,201953.000,3748.6979,N,12217.1515,W,1,05,3.3,-1.1,M,-25.1,M,,0000*4F
$GPGSA,A,3,02,12,31,25,29,,,,,,,,5.0,3.3,3.7*3C
$GPRMC,201953.000,A,3748.6979,N,12217.1515,W,0.48,191.93,131012,,,A*71
$GPVTG,191.93,T,,M,0.48,N,0.9,K,A*0B
$GPGGA,201954.000,3748.6979,N,12217.1515,W,1,05,3.3,-1.1,M,-25.1,M,,0000*48
$GPGSA,A,3,02,12,31,25,29,,,,,,,,5.0,3.3,3.7*3C
$GPGSV,3,1,11,12,79,165,27,02,59,046,30,25,56,308,33,05,38,133,*7E
$GPGSV,3,2,11,29,36,293,35,10,29,064,,04,13,049,,31,10,320,35*7F
$GPGSV,3,3,11,09,07,194,17,21,03,229,,27,03,190,*4A
$GPRMC,201954.000,A,3748.6979,N,12217.1515,W,0.39,154.70,131012,,,A*74
$GPVTG,154.70,T,,M,0.39,N,0.7,K,A*07
$GPGGA,201955.000,3748.6980,N,12217.1514,W,1,05,3.3,-1.1,M,-25.1,M,,0000*4E
$GPGSA,A,3,02,12,31,25,29,,,,,,,,5.0,3.3,3.7*3C
$GPRMC,201955.000,A,3748.6980,N,12217.1514,W,0.39,136.82,131012,,,A*7B
$GPVTG,136.82,T,,M,0.39,N,0.7,K,A*0E
$GPGGA,201956.000,3748.6982,N,12217.1512,W,1,05,3.3,-0.9,M,-25.1,M,,0000*40
$GPGSA,A,3,02,12,31,25,29,,,,,,,,5.0,3.3,3.7*3C
$GPRMC,201956.000,A,3748.6982,N,12217.1512,W,0.52,126.33,131012,,,A*7A
$GPVTG,126.33,T,,M,0.52,N,1.0,K,A*0E
$GPGGA,201957.000,3748.6998,N,12217.1513,W,1,05,3.3,0.8,M,-25.1,M,,0000*67
$GPGSA,A,3,02,12,31,25,29,,,,,,,,5.0,3.3,3.7*3C
$GPRMC,201957.000,A,3748.6998,N,12217.1513,W,0.38,67.13,131012,,,A*4B
$GPVTG,67.13,T,,M,0.38,N,0.7,K,A*32
$GPGGA,201958.000,3748.7008,N,12217.1514,W,1,05,3.3,2.0,M,-25.1,M,,0000*64
$GPGSA,A,3,02,12,31,25,29,,,,,,,,5.0,3.3,3.7*3C
$GPRMC,201958.000,A,3748.7008,N,12217.1514,W,0.29,38.49,131012,,,A*47
$GPVTG,38.49,T,,M,0.29,N,0.5,K,A*35
$GPGGA,201959.000,3748.7009,N,12217.1514,W,1,05,3.3,2.5,M,-25.1,M,,0000*61
$GPGSA,A,3,02,12,31,25,29,,,,,,,,5.0,3.3,3.7*3C
$GPGSV,3,1,11,12,79,165,26,02,59,046,29,25,56,308,32,05,38,133,*76
$GPGSV,3,2,11,29,36,293,36,10,29,064,,04,13,049,,31,10,320,32*7B
$GPGSV,3,3,11,09,07,194,17,21,03,229,,27,03,190,*4A
$GPRMC,201959.000,A,3748.7009,N,12217.1514,W,0.14,81.96,131012,,,A*49
$GPVTG,81.96,T,,M,0.14,N,0.3,K,A*3D
$GPGGA,202000.000,3748.7004,N,12217.1516,W,1,05,3.3,2.3,M,-25.1,M,,0000*6E
$GPGSA,A,3,02,12,31,25,29,,,,,,,,5.0,3.3,3.7*3C
$GPRMC,202000.000,A,3748.7004,N,12217.1516,W,0.34,200.91,131012,,,A*7E
$GPVTG,200.91,T,,M,0.34,N,0.6,K,A*06
$GPGGA,202001.000,3748.6995,N,12217.1513,W,1,04,5.1,1.5,M,-25.1,M,,0000*6A
$GPGSA,A,3,12,31,25,29,,,,,,,,,6.5,5.1,4.0*3C
$GPRMC,202001.000,A,3748.6995,N,12217.1513,W,0.91,194.43,131012,,,A*74
$GPVTG,194.43,T,,M,0.91,N,1.7,K,A*08
$GPGGA,202002.000,3748.7006,N,12217.1514,W,1,04,5.1,3.9,M,-25.1,M,,0000*62
$GPGSA,A,3,12,31,25,29,,,,,,,,,6.5,5.1,4.0*3C
$GPRMC,202002.000,A,3748.7006,N,12217.1514,W,0.96,96.71,131012,,,A*47
$GPVTG,96.71,T,,M,0.96,N,1.8,K,A*32
$GPGGA,202003.000,3748.7008,N,12217.1509,W,1,04,5.1,4.2,M,-25.1,M,,0000*6D
$GPGSA,A,3,12,31,25,29,,,,,,,,,6.5,5.1,4.0*3C
$GPRMC,202003.000,A,3748.7008,N,12217.1509,W,1.47,87.93,131012,,,A*45
$GPVTG,87.93,T,,M,1.47,N,2.7,K,A*3F
$GPGGA,202004.000,3748.7002,N,12217.1502,W,1,04,5.1,3.5,M,-25.1,M,,0000*6B
$GPGSA,A,3,12,31,25,29,,,,,,,,,6.5,5.1,4.0*3C
$GPGSV,3,1,11,12,79,165,16,02,59,046,17,25,56,308,25,05,38,133,*7E
$GPGSV,3,2,11,29,36,293,28,10,29,064,,04,13,049,,31,10,320,25*72
$GPGSV,3,3,11,09,07,194,11,21,03,229,,27,03,190,*4C
$GPVTG,107.72,T,,M,1.46,N,2.7,K,A*08
$GPGGA,202005.000,3748.6998,N,12217.1498,W,1,04,5.1,2.6,M,-25.1,M,,0000*61
$GPGSA,A,3,12,31,25,29,,,,,,,,,6.5,5.1,4.0*3C
$GPRMC,202005.000,A,3748.6998,N,12217.1498,W,1.80,105.75,131012,,,A*73
$GPVTG,105.75,T,,M,1.80,N,3.3,K,A*02
$GPGGA,202006.000,3748.6997,N,12217.1494,W,1,04,5.1,2.1,M,-25.1,M,,0000*66
$GPGSA,A,3,12,31,25,29,,,,,,,,,6.5,5.1,4.0*3C
$GPRMC,202006.000,A,3748.6997,N,12217.1494,W,1.05,111.10,131012,,,A*78
$GPVTG,111.10,T,,M,1.05,N,1.9,K,A*01
$GPGGA,202007.000,3748.6995,N,12217.1491,W,1,04,5.1,1.0,M,-25.1,M,,0000*62
$GPGSA,A,3,12,31,25,29,,,,,,,,,6.5,5.1,4.0*3C
$GPRMC,202007.000,A,3748.6995,N,12217.1491,W,0.78,127.25,131012,,,A*76
$GPVTG,127.25,T,,M,0.78,N,1.4,K,A*04
$GPGGA,202008.000,3748.6990,N,12217.1487,W,1,04,5.1,0.6,M,-25.1,M,,0000*68
$GPGSA,A,3,12,31,25,29,,,,,,,,,6.5,5.1,4.0*3C
$GPRMC,202008.000,A,3748.6990,N,12217.1487,W,0.77,178.74,131012,,,A*7A
$GPVTG,178.74,T,,M,0.77,N,1.4,K,A*05
$GPGGA,202009.000,3748.6984,N,12217.1482,W,1,04,5.1,0.0,M,-25.1,M,,0000*6F
$GPGSA,A,3,12,31,25,29,,,,,,,,,6.5,5.1,4.0*3C
$GPGSV,3,1,11,12,79,165,26,02,59,046,18,25,56,308,24,05,38,133,*73
$GPGSV,3,2,11,29,36,293,25,10,29,064,,04,13,049,,31,10,320,22*78
$GPGSV,3,3,11,09,07,194,24,21,03,229,,27,03,190,*4A
$GPRMC,202009.000,A,3748.6984,N,12217.1482,W,1.63,181.11,131012,,,A*7A
$GPVTG,181.11,T,,M,1.63,N,3.0,K,A*02
$GPGGA,202010.000,3748.6985,N,12217.1490,W,1,05,3.3,1.9,M,-25.1,M,,0000*68
$GPGSA,A,3,02,12,31,25,29,,,,,,,,5.0,3.3,3.7*3C
$GPRMC,202010.000,A,3748.6985,N,12217.1490,W,1.08,208.45,131012,,,A*7E
$GPVTG,208.45,T,,M,1.08,N,2.0,K,A*0D
$GPGGA,202011.000,3748.6987,N,12217.1495,W,1,05,3.3,2.6,M,-25.1,M,,0000*62
$GPGSA,A,3,02,12,31,25,29,,,,,,,,5.0,3.3,3.7*3C
$GPRMC,202011.000,A,3748.6987,N,12217.1495,W,0.84,274.62,131012,,,A*73
$GPVTG,274.62,T,,M,0.84,N,1.6,K,A*03
$GPGGA,202012.000,3748.6992,N,12217.1494,W,1,04,5.1,3.5,M,-25.1,M,,0000*63
$GPGSA,A,3,12,31,25,29,,,,,,,,,6.5,5.1,4.0*3C
$GPRMC,202012.000,A,3748.6992,N,12217.1494,W,0.66,354.03,131012,,,A*7D
$GPVTG,354.03,T,,M,0.66,N,1.2,K,A*0F
$GPGGA,202013.000,3748.6992,N,12217.1489,W,1,04,5.1,3.5,M,-25.1,M,,0000*6E
$GPGSA,A,3,12,31,25,29,,,,,,,,,6.5,5.1,4.0*3C
$GPRMC,202013.000,A,3748.6992,N,12217.1489,W,0.10,339.78,131012,,,A*76
$GPVTG,339.78,T,,M,0.10,N,0.2,K,A*08
$GPGGA,202014.000,3748.6995,N,12217.1489,W,1,05,3.3,4.4,M,-25.1,M,,0000*6D
$GPGSA,A,3,02,12,31,25,29,,,,,,,,5.0,3.3,3.7*3C
$GPGSV,3,1,11,12,79,165,27,02,59,046,23,25,56,308,21,05,38,133,*7F
$GPGSV,3,2,11,29,36,293,25,10,29,064,,04,13,049,,31,10,320,22*78
$GPGSV,3,3,11,09,07,194,28,21,03,229,,27,03,190,*46
$GPRMC,202014.000,A,3748.6995,N,12217.1489,W,0.71,64.28,131012,,,A*4F
$GPVTG,64.28,T,,M,0.71,N,1.3,K,A*31
$GPGGA,202015.000,3748.6985,N,12217.1496,W,1,05,3.3,3.6,M,-25.1,M,,0000*66
$GPGSA,A,3,02,12,31,25,29,,,,,,,,5.0,3.3,3.7*3C
$GPRMC,202015.000,A,3748.6985,N,12217.1496,W,0.54,143.65,131012,,,A*7B
$GPVTG,143.65,T,,M,0.54,N,1.0,K,A*08
$GPGGA,202016.000,3748.6982,N,12217.1493,W,1,05,3.3,2.2,M,-25.1,M,,0000*62
$GPGSA,A,3,02,12,31,25,29,,,,,,,,5.0,3.3,3.7*3C
$GPRMC,202016.000,A,3748.6982,N,12217.1493,W,0.26,105.78,131012,,,A*71
$GPVTG,105.78,T,,M,0.26,N,0.5,K,A*07
$GPGGA,202017.000,3748.6977,N,12217.1503,W,1,05,3.3,2.9,M,-25.1,M,,0000*6A
$GPGSA,A,3,02,12,31,25,29,,,,,,,,5.0,3.3,3.7*3C
$GPRMC,202017.000,A,3748.6977,N,12217.1503,W,0.45,315.80,131012,,,A*73
$GPVTG,315.80,T,,M,0.45,N,0.8,K,A*0B
$GPGGA,202018.000,3748.6982,N,12217.1503,W,1,05,3.3,4.3,M,-25.1,M,,0000*63
$GPGSA,A,3,02,12,31,25,29,,,,,,,,5.0,3.3,3.7*3C
$GPRMC,202018.000,A,3748.6982,N,12217.1503,W,0.49,45.13,131012,,,A*46
$GPVTG,45.13,T,,M,0.49,N,0.9,K,A*3A
$GPGGA,202019.000,3748.6981,N,12217.1509,W,1,05,3.3,4.6,M,-25.1,M,,0000*6E
$GPGSA,A,3,02,12,31,25,29,,,,,,,,5.0,3.3,3.7*3C
$GPGSV,3,1,11,12,79,165,27,02,59,046,25,25,56,308,21,05,38,133,*79
$GPGSV,3,2,11,29,36,293,21,10,29,064,27,04,13,049,,31,10,320,21*7A
$GPGSV,3,3,11,09,07,194,25,21,03,229,,27,03,190,*4B
$GPRMC,202019.000,A,3748.6981,N,12217.1509,W,0.62,273.81,131012,,,A*7B
$GPGGA,202020.000,3748.6964,N,12217.1522,W,1,05,3.3,3.0,M,-25.1,M,,0000*67
$GPGSA,A,3,02,12,31,25,29,,,,,,,,5.0,3.3,3.7*3C
$GPRMC,202020.000,A,3748.6964,N,12217.1522,W,0.34,211.01,131012,,,A*7C
$GPVTG,211.01,T,,M,0.34,N,0.6,K,A*0F
$GPGGA,202021.000,3748.6949,N,12217.1518,W,1,05,3.3,-0.1,M,-25.1,M,,0000*4F
$GPGSA,A,3,02,12,31,25,29,,,,,,,,5.0,3.3,3.7*3C
$GPRMC,202021.000,A,3748.6949,N,12217.1518,W,0.47,94.19,131012,,,A*49
$GPVTG,94.19,T,,M,0.47,N,0.9,K,A*32
$GPGGA,202022.000,3748.6941,N,12217.1513,W,1,04,5.2,-1.9,M,-25.1,M,,0000*40
$GPGSA,A,3,12,31,25,29,,,,,,,,,6.5,5.2,4.0*3F
$GPRMC,202022.000,A,3748.6941,N,12217.1513,W,0.05,156.42,131012,,,A*7E
$GPVTG,156.42,T,,M,0.05,N,0.1,K,A*0D
$GPGGA,202023.000,3748.6945,N,12217.1514,W,1,04,5.2,-1.1,M,-25.1,M,,0000*4A
$GPGSA,A,3,12,31,25,29,,,,,,,,,6.5,5.2,4.0*3F
$GPRMC,202023.000,A,3748.6945,N,12217.1514,W,0.70,205.82,131012,,,A*77
$GPVTG,205.82,T,,M,0.70,N,1.3,K,A*05
$GPGGA,202024.000,3748.6959,N,12217.1520,W,1,04,5.2,1.7,M,-25.1,M,,0000*6C
$GPGSA,A,3,12,31,25,29,,,,,,,,,6.5,5.2,4.0*3F
$GPGSV,3,1,11,12,79,165,27,02,59,046,16,25,56,308,20,05,38,133,*78
$GPGSV,3,2,11,29,36,293,27,10,29,064,22,04,13,049,,31,10,320,22*7A
$GPGSV,3,3,11,09,07,194,27,21,03,229,,27,03,190,*49
$GPRMC,202024.000,A,3748.6959,N,12217.1520,W,0.88,228.37,131012,,,A*7C
$GPVTG,228.37,T,,M,0.88,N,1.6,K,A*06
$GPGGA,202025.000,3748.6967,N,12217.1525,W,1,04,5.2,3.1,M,-25.1,M,,0000*61
$GPGSA,A,3,12,31,25,29,,,,,,,,,6.5,5.2,4.0*3F
$GPRMC,202025.000,A,3748.6967,N,12217.1525,W,1.10,247.92,131012,,,A*73
$GPVTG,247.92,T,,M,1.10,N,2.0,K,A*05
$GPGGA,202026.000,3748.6960,N,12217.1535,W,1,04,5.2,2.5,M,-25.1,M,,0000*61
$GPGSA,A,3,12,31,25,29,,,,,,,,,6.5,5.2,4.0*3F
$GPRMC,202026.000,A,3748.6960,N,12217.1535,W,1.84,237.57,131012,,,A*75
$GPVTG,237.57,T,,M,1.84,N,3.4,K,A*03
$GPGGA,202027.000,3748.6953,N,12217.1543,W,1,04,5.2,1.7,M,-25.1,M,,0000*60
$GPGSA,A,3,12,31,25,29,,,,,,,,,6.5,5.2,4.0*3F
$GPRMC,202027.000,A,3748.6953,N,12217.1543,W,2.44,214.67,131012,,,A*78
$GPVTG,214.67,T,,M,2.44,N,4.5,K,A*08
$GPGGA,202028.000,3748.6951,N,12217.1555,W,1,04,5.2,2.9,M,-25.1,M,,0000*67
$GPGSA,A,3,12,31,25,29,,,,,,,,,6.5,5.2,4.0*3F
$GPRMC,202028.000,A,3748.6951,N,12217.1555,W,2.24,208.68,131012,,,A*76
$GPVTG,208.68,T,,M,2.24,N,4.1,K,A*08
$GPGGA,202029.000,3748.6957,N,12217.1566,W,1,04,5.2,4.9,M,-25.1,M,,0000*66
$GPGSA,A,3,12,31,25,29,,,,,,,,,6.5,5.2,4.0*3F
$GPGSV,3,1,11,12,79,165,27,02,59,046,16,25,56,308,19,05,38,133,*72
$GPGSV,3,2,11,29,36,293,26,10,29,064,24,04,13,049,,31,10,320,21*7E
$GPGSV,3,3,11,09,07,194,28,21,03,229,,27,03,190,*46
$GPRMC,202029.000,A,3748.6957,N,12217.1566,W,1.48,229.05,131012,,,A*70
$GPVTG,229.05,T,,M,1.48,N,2.7,K,A*09
$GPGGA,202030.000,3748.6965,N,12217.1556,W,1,05,3.3,6.0,M,-25.1,M,,0000*61
$GPGSA,A,3,02,12,31,25,29,,,,,,,,5.0,3.3,3.7*3C
$GPRMC,202030.000,A,3748.6965,N,12217.1556,W,0.20,303.93,131012,,,A*73
$GPVTG,303.93,T,,M,0.20,N,0.4,K,A*01
$GPGGA,202031.000,3748.6982,N,12217.1540,W,1,05,3.3,7.4,M,-25.1,M,,0000*6B
$GPGSA,A,3,02,12,31,25,29,,,,,,,,5.0,3.3,3.7*3C
$GPRMC,202031.000,A,3748.6982,N,12217.1540,W,0.95,70.67,131012,,,A*4E
$GPVTG,70.67,T,,M,0.95,N,1.8,K,A*3E
$GPGGA,202032.000,3748.6998,N,12217.1540,W,1,05,3.3,10.9,M,-25.1,M,,0000*58
$GPGSA,A,3,02,12,31,25,29,,,,,,,,5.0,3.3,3.7*3C
$GPRMC,202032.000,A,3748.6998,N,12217.1540,W,0.62,29.55,131012,,,A*43
$GPVTG,29.55,T,,M,0.62,N,1.1,K,A*32
$GPGGA,202033.000,3748.7011,N,12217.1532,W,1,05,3.3,12.4,M,-25.1,M,,0000*5A
$GPGSA,A,3,02,12,31,25,29,,,,,,,,5.0,3.3,3.7*3C
$GPRMC,202033.000,A,3748.7011,N,12217.1532,W,1.11,356.15,131012,,,A*74
$GPVTG,356.15,T,,M,1.11,N,2.1,K,A*0B
$GPGGA,202034.000,3748.7022,N,12217.1532,W,1,05,3.3,14.5,M,-25.1,M,,0000*5A
$GPGSA,A,3,02,12,31,25,29,,,,,,,,5.0,3.3,3.7*3C
$GPGSV,3,1,11,12,79,165,27,02,59,046,21,25,56,308,17,05,38,133,*78
$GPGSV,3,2,11,29,36,293,20,10,29,064,20,04,13,049,,31,10,320,20*7D
$GPGSV,3,3,11,09,07,194,28,21,03,229,,27,03,190,*46
$GPRMC,202034.000,A,3748.7022,N,12217.1532,W,1.72,2.75,131012,,,A*72
$GPVTG,2.75,T,,M,1.72,N,3.2,K,A*08
$GPGGA,202035.000,3748.7046,N,12217.1526,W,1,04,3.5,17.8,M,-25.1,M,,0000*55
$GPGSA,A,3,02,12,31,25,,,,,,,,,5.1,3.5,3.7*30
$GPRMC,202035.000,A,3748.7046,N,12217.1526,W,1.57,6.80,131012,,,A*7D
$GPVTG,6.80,T,,M,1.57,N,2.9,K,A*0B
$GPGGA,202036.000,3748.7039,N,12217.1536,W,1,03,2.6,17.2,M,-25.1,M,,0000*50
$GPGSA,A,2,02,12,31,,,,,,,,,,2.8,2.6,1.0*3F
$GPRMC,202036.000,A,3748.7039,N,12217.1536,W,0.64,312.83,131012,,,A*73
$GPVTG,312.83,T,,M,0.64,N,1.2,K,A*07
$GPGGA,202037.000,3748.7040,N,12217.1550,W,1,04,3.5,18.2,M,-25.1,M,,0000*55
$GPGSA,A,3,02,12,31,25,,,,,,,,,5.1,3.5,3.7*30
$GPRMC,202037.000,A,3748.7040,N,12217.1550,W,1.92,301.14,131012,,,A*78
$GPVTG,301.14,T,,M,1.92,N,3.5,K,A*06
$GPGGA,202038.000,3748.7035,N,12217.1558,W,1,05,3.3,18.1,M,-25.1,M,,0000*54
$GPGSA,A,3,02,12,31,25,29,,,,,,,,5.0,3.3,3.7*3C
$GPRMC,202038.000,A,3748.7035,N,12217.1558,W,1.79,264.11,131012,,,A*7F
$GPVTG,264.11,T,,M,1.79,N,3.3,K,A*02
$GPGGA,202039.000,3748.7023,N,12217.1569,W,1,05,3.3,16.5,M,-25.1,M,,0000*5A
$GPGSA,A,3,02,12,31,25,29,,,,,,,,5.0,3.3,3.7*3C
$GPGSV,3,1,11,12,79,165,28,02,59,046,22,25,56,308,19,05,38,133,*7A
$GPGSV,3,2,11,29,36,293,26,10,29,064,20,04,13,049,,31,10,320,21*7A
$GPGSV,3,3,11,09,07,194,32,21,03,229,,27,03,190,*4D
$GPRMC,202039.000,A,3748.7023,N,12217.1569,W,0.94,241.16,131012,,,A*79
$GPVTG,241.16,T,,M,0.94,N,1.7,K,A*06
$GPGGA,202040.000,3748.7009,N,12217.1581,W,1,05,3.3,15.9,M,-25.1,M,,0000*55
$GPGSA,A,3,02,12,31,25,29,,,,,,,,5.0,3.3,3.7*3C
$GPRMC,202040.000,A,3748.7009,N,12217.1581,W,1.67,237.97,131012,,,A*7C
$GPVTG,237.97,T,,M,1.67,N,3.1,K,A*07
$GPGGA,202041.000,3748.7003,N,12217.1586,W,1,05,3.3,15.8,M,-25.1,M,,0000*58
$GPGSA,A,3,02,12,31,25,29,,,,,,,,5.0,3.3,3.7*3C
$GPRMC,202041.000,A,3748.7003,N,12217.1586,W,0.74,246.67,131012,,,A*7A
$GPVTG,246.67,T,,M,0.74,N,1.4,K,A*0A
$GPGGA,202042.000,3748.6994,N,12217.1589,W,1,04,3.5,15.0,M,-25.1,M,,0000*5D
$GPGSA,A,3,02,12,31,25,,,,,,,,,5.1,3.5,3.7*30
$GPRMC,202042.000,A,3748.6994,N,12217.1589,W,0.61,228.05,131012,,,A*78
$GPVTG,228.05,T,,M,0.61,N,1.1,K,A*07
$GPGGA,202043.000,3748.7005,N,12217.1601,W,1,05,3.3,17.4,M,-25.1,M,,0000*5E
$GPGSA,A,3,02,12,31,25,29,,,,,,,,5.0,3.3,3.7*3C
$GPRMC,202043.000,A,3748.7005,N,12217.1601,W,0.39,228.61,131012,,,A*75
$GPVTG,228.61,T,,M,0.39,N,0.7,K,A*0F
$GPGGA,202044.000,3748.7019,N,12217.1617,W,1,05,3.3,18.7,M,-25.1,M,,0000*5F
$GPGSA,A,3,02,12,31,25,29,,,,,,,,5.0,3.3,3.7*3C
$GPGSV,3,1,11,12,79,165,24,02,59,046,26,25,56,308,27,05,38,133,*7F
$GPGSV,3,2,11,29,36,293,17,10,29,064,20,04,13,049,,31,10,320,20*79
$GPGSV,3,3,11,09,07,194,35,21,03,229,,27,03,190,*4A
$GPVTG,334.07,T,,M,1.17,N,2.2,K,A*09
$GPGGA,202045.000,3748.7033,N,12217.1630,W,1,04,3.7,20.6,M,-25.1,M,,0000*5C
$GPGSA,A,3,02,12,25,29,,,,,,,,,8.1,3.7,7.3*36
$GPRMC,202045.000,A,3748.7033,N,12217.1630,W,1.72,351.16,131012,,,A*75
$GPVTG,351.16,T,,M,1.72,N,3.2,K,A*08
$GPGGA,202046.000,3748.7039,N,12217.1636,W,1,04,3.7,22.3,M,-25.1,M,,0000*54
$GPGSA,A,3,02,12,25,29,,,,,,,,,8.1,3.7,7.3*36
$GPRMC,202046.000,A,3748.7039,N,12217.1636,W,0.98,333.84,131012,,,A*70
$GPVTG,333.84,T,,M,0.98,N,1.8,K,A*0A
$GPGGA,202047.000,3748.7040,N,12217.1647,W,1,05,3.3,22.8,M,-25.1,M,,0000*53
$GPGSA,A,3,02,12,31,25,29,,,,,,,,5.0,3.3,3.7*3C
$GPRMC,202047.000,A,3748.7040,N,12217.1647,W,1.06,326.14,131012,,,A*72
$GPVTG,326.14,T,,M,1.06,N,2.0,K,A*0A
$GPGGA,202048.000,3748.7042,N,12217.1657,W,1,05,3.3,22.6,M,-25.1,M,,0000*51
$GPGSA,A,3,02,12,31,25,29,,,,,,,,5.0,3.3,3.7*3C
$GPRMC,202048.000,A,3748.7042,N,12217.1657,W,1.29,331.88,131012,,,A*70
$GPVTG,331.88,T,,M,1.29,N,2.4,K,A*00
$GPGGA,202049.000,3748.7043,N,12217.1664,W,1,05,3.3,23.0,M,-25.1,M,,0000*56
$GPGSA,A,3,02,12,31,25,29,,,,,,,,5.0,3.3,3.7*3C
$GPGSV,3,1,11,12,78,165,33,02,58,046,24,25,57,307,18,05,39,132,*79
$GPGSV,3,2,11,29,36,294,20,10,29,063,19,04,12,049,,31,10,319,17*78
$GPGSV,3,3,11,09,06,193,35,21,04,230,,27,02,189,*4A
$GPRMC,202049.000,A,3748.7043,N,12217.1664,W,1.51,359.52,131012,,,A*76
$GPVTG,359.52,T,,M,1.51,N,2.8,K,A*0A
$GPGGA,202050.000,3748.7048,N,12217.1671,W,1,05,3.3,24.0,M,-25.1,M,,0000*56
$GPGSA,A,3,02,12,31,25,29,,,,,,,,5.0,3.3,3.7*3C
$GPRMC,202050.000,A,3748.7048,N,12217.1671,W,1.44,2.79,131012,,,A*71
$GPVTG,2.79,T,,M,1.44,N,2.7,K,A*05
$GPGGA,202051.000,3748.7053,N,12217.1667,W,1,05,3.3,25.2,M,-25.1,M,,0000*59
$GPGSA,A,3,02,12,31,25,29,,,,,,,,5.0,3.3,3.7*3C
$GPRMC,202051.000,A,3748.7053,N,12217.1667,W,0.94,357.21,131012,,,A*7F
$GPVTG,357.21,T,,M,0.94,N,1.7,K,A*04
$GPGGA,202052.000,3748.7058,N,12217.1670,W,1,05,3.3,29.1,M,-25.1,M,,0000*58
$GPGSA,A,3,02,12,31,25,29,,,,,,,,5.0,3.3,3.7*3C
$GPRMC,202052.000,A,3748.7058,N,12217.1670,W,0.51,14.73,131012,,,A*4B
$GPVTG,14.73,T,,M,0.51,N,0.9,K,A*31
$GPGGA,202053.000,3748.7058,N,12217.1675,W,1,05,3.3,31.0,M,-25.1,M,,0000*54
$GPGSA,A,3,02,12,31,25,29,,,,,,,,5.0,3.3,3.7*3C
$GPRMC,202053.000,A,3748.7058,N,12217.1675,W,0.76,336.96,131012,,,A*72
$GPVTG,336.96,T,,M,0.76,N,1.4,K,A*00
$GPGGA,202054.000,3748.7051,N,12217.1688,W,1,05,3.3,33.5,M,-25.1,M,,0000*5F
$GPGSA,A,3,02,12,31,25,29,,,,,,,,5.0,3.3,3.7*3C
$GPGSV,3,1,11,12,78,165,31,02,58,046,25,25,57,307,19,05,39,132,*7B
$GPGSV,3,2,11,29,36,294,27,10,29,063,13,04,12,049,,31,10,319,20*71
$GPGSV,3,3,11,09,06,193,35,21,04,230,,27,02,189,*4A
$GPRMC,202054.000,A,3748.7051,N,12217.1688,W,0.99,325.84,131012,,,A*7E
$GPVTG,325.84,T,,M,0.99,N,1.8,K,A*0C
$GPGGA,202055.000,3748.7042,N,12217.1701,W,1,05,3.3,35.2,M,-25.1,M,,0000*5D
$GPGSA,A,3,02,12,31,25,29,,,,,,,,5.0,3.3,3.7*3C
$GPRMC,202055.000,A,3748.7042,N,12217.1701,W,0.93,326.99,131012,,,A*78
$GPVTG,326.99,T,,M,0.93,N,1.7,K,A*06
$GPGGA,202056.000,3748.7027,N,12217.1710,W,1,05,3.3,34.6,M,-25.1,M,,0000*58
$GPGSA,A,3,02,12,31,25,29,,,,,,,,5.0,3.3,3.7*3C
$GPRMC,202056.000,A,3748.7027,N,12217.1710,W,0.74,320.61,131012,,,A*70
$GPVTG,320.61,T,,M,0.74,N,1.4,K,A*0D
$GPGGA,202057.000,3748.7027,N,12217.1715,W,1,05,3.3,36.6,M,-25.1,M,,0000*5E
$GPGSA,A,3,02,12,31,25,29,,,,,,,,5.0,3.3,3.7*3C
$GPRMC,202057.000,A,3748.7027,N,12217.1715,W,0.16,290.85,131012,,,A*70
$GPVTG,290.85,T,,M,0.16,N,0.3,K,A*0F
$GPGGA,202058.000,3748.7016,N,12217.1719,W,1,05,3.3,36.4,M,-25.1,M,,0000*5D
$GPGSA,A,3,02,12,31,25,29,,,,,,,,5.0,3.3,3.7*3C
$GPRMC,202058.000,A,3748.7016,N,12217.1719,W,0.43,208.66,131012,,,A*7D
$GPVTG,208.66,T,,M,0.43,N,0.8,K,A*08
$GPGGA,202059.000,3748.7006,N,12217.1731,W,1,05,3.3,36.9,M,-25.1,M,,0000*5A
$GPGSA,A,3,02,12,31,25,29,,,,,,,,5.0,3.3,3.7*3C
$GPGSV,3,1,11,12,78,165,31,02,58,046,26,25,57,307,20,05,39,132,*72
$GPGSV,3,2,11,29,36,294,25,10,29,063,23,04,12,049,,31,10,319,20*70
$GPGSV,3,3,11,09,06,193,34,21,04,230,,27,02,189,*4B
$GPRMC,202059.000,A,3748.7006,N,12217.1731,W,0.77,218.71,131012,,,A*77
$GPGGA,202100.000,3748.6981,N,12217.1752,W,1,05,3.3,35.2,M,-25.1,M,,0000*5D
$GPGSA,A,3,02,12,31,25,29,,,,,,,,5.0,3.3,3.7*3C
$GPRMC,202100.000,A,3748.6981,N,12217.1752,W,1.33,219.72,131012,,,A*7B
$GPVTG,219.72,T,,M,1.33,N,2.5,K,A*04
$GPGGA,202101.000,3748.6974,N,12217.1745,W,1,05,3.3,32.4,M,-25.1,M,,0000*51
$GPGSA,A,3,02,12,31,25,29,,,,,,,,5.0,3.3,3.7*3C
$GPRMC,202101.000,A,3748.6974,N,12217.1745,W,0.55,180.53,131012,,,A*77
$GPVTG,180.53,T,,M,0.55,N,1.0,K,A*03
$GPGGA,202102.000,3748.6994,N,12217.1714,W,1,05,3.3,31.3,M,-25.1,M,,0000*5C
$GPGSA,A,3,02,12,31,25,29,,,,,,,,4.9,3.3,3.7*34
$GPRMC,202102.000,A,3748.6994,N,12217.1714,W,0.61,19.85,131012,,,A*43
$GPVTG,19.85,T,,M,0.61,N,1.1,K,A*3F
$GPGGA,202103.000,3748.7001,N,12217.1695,W,1,05,3.3,29.6,M,-25.1,M,,0000*5D
$GPGSA,A,3,02,12,31,25,29,,,,,,,,4.9,3.3,3.7*34
$GPRMC,202103.000,A,3748.7001,N,12217.1695,W,1.19,31.82,131012,,,A*4D
$GPVTG,31.82,T,,M,1.19,N,2.2,K,A*3C
$GPGGA,202104.000,3748.6989,N,12217.1684,W,1,04,5.3,26.2,M,-25.1,M,,0000*5E
$GPGSA,A,3,12,31,25,29,,,,,,,,,6.6,5.3,4.0*3D
$GPGSV,3,1,11,12,78,165,25,02,58,046,15,25,57,307,20,05,39,132,*77
$GPGSV,3,2,11,29,36,294,21,10,29,063,21,04,12,049,,31,10,319,19*7C
$GPGSV,3,3,11,09,06,193,33,21,04,230,,27,02,189,*4C
$GPRMC,202104.000,A,3748.6989,N,12217.1684,W,1.60,40.59,131012,,,A*4C
$GPVTG,40.59,T,,M,1.60,N,3.0,K,A*31
$GPGGA,202105.000,3748.6986,N,12217.1673,W,1,04,5.3,24.2,M,-25.1,M,,0000*5A
$GPGSA,A,3,12,31,25,29,,,,,,,,,6.6,5.3,4.0*3D
$GPRMC,202105.000,A,3748.6986,N,12217.1673,W,2.23,42.24,131012,,,A*46
$GPVTG,42.24,T,,M,2.23,N,4.1,K,A*3B
$GPGGA,202106.000,3748.6989,N,12217.1660,W,1,05,3.3,22.8,M,-25.1,M,,0000*5F
$GPGSA,A,3,02,12,31,25,29,,,,,,,,4.9,3.3,3.7*34
$GPRMC,202106.000,A,3748.6989,N,12217.1660,W,1.99,57.88,131012,,,A*48
$GPVTG,57.88,T,,M,1.99,N,3.7,K,A*3A
$GPGGA,202107.000,3748.6977,N,12217.1650,W,1,05,3.3,19.6,M,-25.1,M,,0000*5A
$GPGSA,A,3,02,12,31,25,29,,,,,,,,4.9,3.3,3.7*34
$GPRMC,202107.000,A,3748.6977,N,12217.1650,W,0.71,98.17,131012,,,A*49
$GPVTG,98.17,T,,M,0.71,N,1.3,K,A*3E
$GPGGA,202108.000,3748.6964,N,12217.1643,W,1,05,3.3,15.9,M,-25.1,M,,0000*56
$GPGSA,A,3,02,12,31,25,29,,,,,,,,4.9,3.3,3.7*34
$GPRMC,202108.000,A,3748.6964,N,12217.1643,W,0.62,155.87,131012,,,A*7D
$GPVTG,155.87,T,,M,0.62,N,1.2,K,A*04
$GPGGA,202109.000,3748.6951,N,12217.1634,W,1,05,3.3,12.5,M,-25.1,M,,0000*5A
$GPGSA,A,3,02,12,31,25,29,,,,,,,,4.9,3.3,3.7*34
$GPGSV,3,1,11,12,78,165,23,02,58,046,22,25,57,307,21,05,39,132,*74
$GPGSV,3,2,11,29,36,294,21,10,29,063,12,04,12,049,,31,10,319,27*71
$GPGSV,3,3,11,09,06,193,33,21,04,230,,27,02,189,*4C
$GPRMC,202109.000,A,3748.6951,N,12217.1634,W,0.76,199.99,131012,,,A*70
$GPVTG,199.99,T,,M,0.76,N,1.4,K,A*08
$GPGGA,202110.000,3748.6932,N,12217.1632,W,1,05,3.3,7.0,M,-25.1,M,,0000*60
$GPGSA,A,3,02,12,31,25,29,,,,,,,,4.9,3.3,3.7*34
$GPRMC,202110.000,A,3748.6932,N,12217.1632,W,1.49,167.66,131012,,,A*77
$GPVTG,167.66,T,,M,1.49,N,2.8,K,A*0B
$GPGGA,202111.000,3748.6901,N,12217.1642,W,1,05,3.3,2.3,M,-25.1,M,,0000*60
$GPGSA,A,3,02,12,31,25,29,,,,,,,,4.9,3.3,3.7*34
$GPRMC,202111.000,A,3748.6901,N,12217.1642,W,1.92,166.05,131012,,,A*73
$GPVTG,166.05,T,,M,1.92,N,3.6,K,A*06
$GPGGA,202112.000,3748.6915,N,12217.1624,W,1,05,3.3,2.3,M,-25.1,M,,0000*66
$GPGSA,A,3,02,12,31,25,29,,,,,,,,4.9,3.3,3.7*34
$GPRMC,202112.000,A,3748.6915,N,12217.1624,W,1.94,121.38,131012,,,A*7E
$GPVTG,121.38,T,,M,1.94,N,3.6,K,A*0D
$GPGGA,202113.000,3748.6926,N,12217.1611,W,1,05,3.3,2.5,M,-25.1,M,,0000*67
$GPGSA,A,3,02,12,31,25,29,,,,,,,,4.9,3.3,3.7*34
$GPRMC,202113.000,A,3748.6926,N,12217.1611,W,1.42,121.35,131012,,,A*7F
$GPVTG,121.35,T,,M,1.42,N,2.6,K,A*0A
$GPGGA,202114.000,3748.6939,N,12217.1595,W,1,05,3.3,2.3,M,-25.1,M,,0000*67
$GPGSA,A,3,02,12,31,25,29,,,,,,,,4.9,3.3,3.7*34
$GPGSV,3,1,11,12,78,165,26,02,58,046,24,25,57,307,30,05,39,132,*77
$GPGSV,3,2,11,29,36,294,32,10,29,063,23,04,12,049,,31,10,319,31*76
$GPGSV,3,3,11,09,06,193,28,21,04,230,,27,02,189,*46
$GPRMC,202114.000,A,3748.6939,N,12217.1595,W,1.13,119.34,131012,,,A*77
$GPVTG,119.34,T,,M,1.13,N,2.1,K,A*03
$GPGGA,202115.000,3748.6945,N,12217.1583,W,1,05,3.3,1.7,M,-25.1,M,,0000*6D
$GPGSA,A,3,02,12,31,25,29,,,,,,,,4.9,3.3,3.7*34
$GPRMC,202115.000,A,3748.6945,N,12217.1583,W,0.94,132.24,131012,,,A*7C
$GPVTG,132.24,T,,M,0.94,N,1.7,K,A*00
$GPGGA,202116.000,3748.6950,N,12217.1573,W,1,05,3.3,1.1,M,-25.1,M,,0000*63
