$ADVER,3080,2.3
$GPRMC,200604.930,A,3748.7970,N,12217.8485,W,0.14,346.18,141211,,,A*7A
$GPGGA,200605.930,3748.7969,N,12217.8408,W,1,03,3.3,25.1,M,-25.1,M,,0000*51
$GPGSA,A,2,26,29,15,,,,,,,,,,3.5,3.3,1.0*3F
$GPRMC,200605.930,A,3748.7969,N,12217.8408,W,0.27,303.01,141211,,,A*7F
$GPVTG,303.01,T,,M,0.27,N,0.5,K,N*03
$GPGGA,200606.930,3748.7970,N,12217.8406,W,1,03,3.3,25.1,M,-25.1,M,,0000*54
$GPGSA,A,2,26,29,15,,,,,,,,,,3.5,3.3,1.0*3F
$GPGSV,3,1,12,29,72,110,31,15,28,120,43,26,23,079,37,21,56,296,18*75
$GPGSV,3,2,12,18,45,208,37,30,29,294,22,05,22,045,32,25,16,185,40*77
$GPGSV,3,3,12,16,15,319,,22,05,217,22,06,03,311,,46,00,000,36*72
$GPRMC,200606.930,A,3748.7970,N,12217.8406,W,0.23,3.02,141211,,,A*7E
$GPVTG,3.02,T,,M,0.23,N,0.4,K,N*06
$GPGGA,200607.930,3748.7971,N,12217.8406,W,1,03,3.3,25.1,M,-25.1,M,,0000*54
$GPGSA,A,2,26,29,15,,,,,,,,,,3.5,3.3,1.0*3F
$GPRMC,200607.930,A,3748.7971,N,12217.8406,W,0.29,313.97,141211,,,A*7A
$GPVTG,313.97,T,,M,0.29,N,0.5,K,N*03
$GPGGA,200608.930,3748.7972,N,12217.8407,W,1,03,3.3,25.1,M,-25.1,M,,0000*59
$GPGSA,A,2,26,29,15,,,,,,,,,,3.5,3.3,1.0*3F
$GPRMC,200608.930,A,3748.7972,N,12217.8407,W,0.13,356.94,141211,,,A*7C
$GPVTG,356.94,T,,M,0.13,N,0.2,K,N*0F
$GPGGA,200609.930,3748.7973,N,12217.8404,W,1,03,3.3,25.1,M,-25.1,M,,0000*5A
$GPGSA,A,2,26,29,15,,,,,,,,,,3.5,3.3,1.0*3F
$GPRMC,200609.930,A,3748.7973,N,12217.8404,W,0.19,33.48,141211,,,A*44
$GPVTG,33.48,T,,M,0.19,N,0.3,K,N*35
$GPGGA,200610.930,3748.7974,N,12217.8402,W,1,03,3.3,25.1,M,-25.1,M,,0000*53
$GPGSA,A,2,26,29,15,,,,,,,,,,3.5,3.3,1.0*3F
$GPRMC,200610.930,A,3748.7974,N,12217.8402,W,0.16,336.80,141211,,,A*70
$GPVTG,336.80,T,,M,0.16,N,0.3,K,N*08
$GPGGA,200611.930,3748.7975,N,12217.8400,W,1,03,3.3,25.1,M,-25.1,M,,0000*51
$GPGSA,A,2,26,29,15,,,,,,,,,,3.5,3.3,1.0*3F
$GPGSV,3,1,12,29,72,110,32,15,28,120,42,26,23,079,36,21,56,296,*7F
$GPGSV,3,2,12,18,45,208,37,30,29,294,24,05,22,045,32,25,16,185,40*71
$GPGSV,3,3,12,16,15,319,21,22,05,217,22,06,03,311,22,46,39,142,35*7F
$GPRMC,200611.930,A,3748.7975,N,12217.8400,W,0.22,288.71,141211,,,A*7F
$GPVTG,288.71,T,,M,0.22,N,0.4,K,N*02
$GPGGA,200612.930,3748.7976,N,12217.8396,W,1,03,3.3,25.1,M,-25.1,M,,0000*59
$GPGSA,A,2,26,29,15,,,,,,,,,,3.5,3.3,1.0*3F
$GPRMC,200612.930,A,3748.7976,N,12217.8396,W,0.39,327.16,141211,,,A*78
$GPVTG,327.16,T,,M,0.39,N,0.7,K,N*0E
$GPGGA,200613.930,3748.7977,N,12217.8395,W,1,03,3.3,25.1,M,-25.1,M,,0000*5A
$GPGSA,A,2,26,29,15,,,,,,,,,,3.5,3.3,1.0*3F
$GPRMC,200613.930,A,3748.7977,N,12217.8395,W,0.28,323.97,141211,,,A*76
$GPVTG,323.97,T,,M,0.28,N,0.5,K,N*01
$GPGGA,200614.930,3748.7977,N,12217.8393,W,1,03,3.3,25.1,M,-25.1,M,,0000*5B
$GPGSA,A,2,26,29,15,,,,,,,,,,3.5,3.3,1.0*3F
$GPRMC,200614.930,A,3748.7977,N,12217.8393,W,0.22,325.49,141211,,,A*78
$GPVTG,325.49,T,,M,0.22,N,0.4,K,N*0F
$GPGGA,200615.930,3748.7974,N,12217.8389,W,1,03,3.3,25.1,M,-25.1,M,,0000*52
$GPGSA,A,2,26,29,15,,,,,,,,,,3.5,3.3,1.0*3F
$GPRMC,200615.930,A,3748.7974,N,12217.8389,W,0.21,149.89,141211,,,A*76
$GPVTG,149.89,T,,M,0.21,N,0.4,K,N*08
$GPGGA,200616.930,3748.7966,N,12217.8384,W,1,03,3.3,25.1,M,-25.1,M,,0000*5F
$GPGSA,A,2,26,29,15,,,,,,,,,,3.5,3.3,1.0*3F
$GPGSV,3,1,12,29,72,110,33,15,28,120,42,26,23,079,42,21,56,296,*7D
$GPGSV,3,2,12,18,45,208,32,30,29,294,25,05,22,045,33,25,16,185,26*74
$GPGSV,3,3,12,16,15,319,22,22,05,217,28,06,03,311,,46,39,142,34*77
$GPVTG,308.97,T,,M,0.22,N,0.4,K,N*03
$GPGGA,200617.930,3748.7967,N,12217.8384,W,1,03,3.3,25.1,M,-25.1,M,,0000*5F
$GPGSA,A,2,26,29,15,,,,,,,,,,3.5,3.3,1.0*3F
$GPRMC,200617.930,A,3748.7967,N,12217.8384,W,0.22,314.20,141211,,,A*71
$GPVTG,314.20,T,,M,0.22,N,0.4,K,N*02
$GPGGA,200618.930,3748.7969,N,12217.8384,W,1,03,3.3,25.1,M,-25.1,M,,0000*5E
$GPGSA,A,2,26,29,15,,,,,,,,,,3.5,3.3,1.0*3F
$GPRMC,200618.930,A,3748.7969,N,12217.8384,W,0.11,356.34,141211,,,A*73
$GPVTG,356.34,T,,M,0.11,N,0.2,K,N*07
$GPGGA,200619.930,3748.7972,N,12217.8385,W,1,03,3.3,25.1,M,-25.1,M,,0000*54
$GPGSA,A,2,26,29,15,,,,,,,,,,3.5,3.3,1.0*3F
$GPRMC,200619.930,A,3748.7972,N,12217.8385,W,0.14,25.66,141211,,,A*4C
$GPVTG,25.66,T,,M,0.14,N,0.3,K,N*33
$GPGGA,200620.930,3748.7973,N,12217.8388,W,1,03,3.3,25.1,M,-25.1,M,,0000*52
$GPGSA,A,2,26,29,15,,,,,,,,,,3.5,3.3,1.0*3F
$GPRMC,200620.930,A,3748.7973,N,12217.8388,W,0.39,162.21,141211,,,A*74
$GPVTG,162.21,T,,M,0.39,N,0.7,K,N*09
$GPGGA,200621.930,3748.7975,N,12217.8386,W,1,03,3.3,25.1,M,-25.1,M,,0000*5B
$GPGSA,A,2,26,29,15,,,,,,,,,,3.5,3.3,1.0*3F
$GPGSV,3,1,12,29,72,110,30,15,28,119,42,26,23,079,37,21,56,296,*76
$GPGSV,3,2,12,18,45,208,35,30,29,294,25,05,22,045,32,25,16,185,38*7D
$GPGSV,3,3,12,16,15,319,22,22,05,217,19,06,03,311,27,46,39,142,35*71
$GPRMC,200621.930,A,3748.7975,N,12217.8386,W,1.12,109.34,141211,,,A*7C
$GPVTG,109.34,T,,M,1.12,N,2.1,K,N*0C
$GPGGA,200622.930,3748.7972,N,12217.8381,W,1,03,3.3,25.1,M,-25.1,M,,0000*58
$GPGSA,A,2,26,29,15,,,,,,,,,,3.5,3.3,1.0*3F
$GPRMC,200622.930,A,3748.7972,N,12217.8381,W,1.46,136.89,141211,,,A*74
$GPVTG,136.89,T,,M,1.46,N,2.7,K,N*01
$GPGGA,200623.930,3748.7968,N,12217.8376,W,1,03,3.3,25.1,M,-25.1,M,,0000*5A
$GPGSA,A,2,26,29,15,,,,,,,,,,3.5,3.3,1.0*3F
$GPRMC,200623.930,A,3748.7968,N,12217.8376,W,1.96,126.02,141211,,,A*79
$GPVTG,126.02,T,,M,1.96,N,3.6,K,N*0E
$GPGGA,200624.930,3748.7961,N,12217.8371,W,1,03,3.3,25.1,M,-25.1,M,,0000*53
$GPGSA,A,2,26,29,15,,,,,,,,,,3.5,3.3,1.0*3F
$GPRMC,200624.930,A,3748.7961,N,12217.8371,W,2.01,137.32,141211,,,A*7E
$GPVTG,137.32,T,,M,2.01,N,3.7,K,N*01
$GPGGA,200625.930,3748.7958,N,12217.8364,W,1,03,3.3,25.1,M,-25.1,M,,0000*5C
$GPGSA,A,2,26,29,15,,,,,,,,,,3.5,3.3,1.0*3F
$GPRMC,200625.930,A,3748.7958,N,12217.8364,W,2.00,118.19,141211,,,A*74
$GPVTG,118.19,T,,M,2.00,N,3.7,K,N*04
$GPGGA,200626.930,3748.7956,N,12217.8355,W,1,03,3.3,25.1,M,-25.1,M,,0000*53
$GPGSA,A,2,26,29,15,,,,,,,,,,3.5,3.3,1.0*3F
$GPGSV,3,1,12,29,72,110,30,15,28,119,37,26,23,079,32,21,56,296,24*77
$GPGSV,3,2,12,18,45,208,38,30,29,294,22,05,22,045,28,25,16,185,38*7C
$GPGSV,3,3,12,16,15,319,11,22,05,217,21,06,03,311,23,46,39,142,34*7F
$GPRMC,200626.930,A,3748.7956,N,12217.8355,W,2.14,106.63,141211,,,A*7C
$GPVTG,106.63,T,,M,2.14,N,4.0,K,N*03
$GPGGA,200627.930,3748.7966,N,12217.8338,W,1,03,3.4,25.1,M,-25.1,M,,0000*5D
$GPGSA,A,2,26,29,15,,,,,,,,,,3.5,3.4,1.0*38
$GPRMC,200627.930,A,3748.7966,N,12217.8338,W,4.02,65.78,141211,,,A*4A
$GPVTG,65.78,T,,M,4.02,N,7.4,K,N*3B
$GPGGA,200628.930,3748.7965,N,12217.8333,W,1,03,3.4,25.1,M,-25.1,M,,0000*5A
$GPGSA,A,2,26,29,15,,,,,,,,,,3.5,3.4,1.0*38
$GPRMC,200628.930,A,3748.7965,N,12217.8333,W,1.81,117.40,141211,,,A*7C
$GPVTG,117.40,T,,M,1.81,N,3.3,K,N*09
$GPGGA,200629.930,3748.7947,N,12217.8342,W,1,03,3.4,25.1,M,-25.1,M,,0000*5D
$GPGSA,A,2,26,29,15,,,,,,,,,,3.5,3.4,1.0*38
$GPRMC,200629.930,A,3748.7947,N,12217.8342,W,1.97,112.39,141211,,,A*77
$GPVTG,112.39,T,,M,1.97,N,3.6,K,N*00
$GPGGA,200630.930,3748.7905,N,12217.8370,W,1,03,3.4,25.1,M,-25.1,M,,0000*52
$GPGSA,A,2,26,29,15,,,,,,,,,,3.5,3.4,1.0*38
$GPRMC,200630.930,A,3748.7905,N,12217.8370,W,2.19,119.99,141211,,,A*7C
$GPVTG,119.99,T,,M,2.19,N,4.1,K,N*04
$GPGGA,200631.930,3748.7944,N,12217.8325,W,1,03,3.4,25.1,M,-25.1,M,,0000*56
$GPGSA,A,2,26,29,15,,,,,,,,,,3.5,3.4,1.0*38
$GPGSV,3,1,12,29,72,110,30,15,28,119,37,26,23,079,24,21,56,296,23*77
$GPGSV,3,2,12,18,45,208,38,30,29,294,22,05,22,045,28,25,16,185,38*7C
$GPGSV,3,3,12,16,15,319,18,22,05,217,19,06,03,311,20,46,39,142,33*79
$GPRMC,200631.930,A,3748.7944,N,12217.8325,W,2.05,112.37,141211,,,A*7A
$GPGGA,200632.930,3748.7880,N,12217.8373,W,1,03,3.4,25.1,M,-25.1,M,,0000*5F
$GPGSA,A,2,26,29,15,,,,,,,,,,3.5,3.4,1.0*38
$GPRMC,200632.930,A,3748.7880,N,12217.8373,W,2.14,124.09,141211,,,A*7B
$GPVTG,124.09,T,,M,2.14,N,4.0,K,N*0F
$GPGGA,200633.930,3748.7988,N,12217.8265,W,1,03,3.4,25.1,M,-25.1,M,,0000*51
$GPGSA,A,2,26,29,15,,,,,,,,,,3.5,3.4,1.0*38
$GPRMC,200633.930,A,3748.7988,N,12217.8265,W,2.52,87.66,141211,,,A*46
$GPVTG,87.66,T,,M,2.52,N,4.7,K,N*3B
$GPGGA,200634.930,3748.7915,N,12217.8320,W,1,03,3.4,25.1,M,-25.1,M,,0000*52
$GPGSA,A,2,26,29,15,,,,,,,,,,3.5,3.4,1.0*38
$GPRMC,200634.930,A,3748.7915,N,12217.8320,W,2.02,124.30,141211,,,A*7B
$GPVTG,124.30,T,,M,2.02,N,3.7,K,N*02
$GPGGA,200635.930,3748.7911,N,12217.8315,W,1,03,3.4,25.1,M,-25.1,M,,0000*51
$GPGSA,A,2,26,29,15,,,,,,,,,,3.5,3.4,1.0*38
$GPRMC,200635.930,A,3748.7911,N,12217.8315,W,2.25,89.56,141211,,,A*4B
$GPVTG,89.56,T,,M,2.25,N,4.2,K,N*33
$GPGGA,200636.930,3748.7968,N,12217.8254,W,1,03,3.4,25.1,M,-25.1,M,,0000*58
$GPGSA,A,2,26,29,15,,,,,,,,,,3.5,3.4,1.0*38
$GPGSV,3,1,12,29,72,110,30,15,28,119,38,26,23,079,24,21,56,296,22*79
$GPGSV,3,2,12,18,45,208,37,30,29,294,23,05,22,045,19,25,16,185,40*7F
$GPGSV,3,3,12,16,15,319,20,22,05,217,20,06,03,311,22,46,39,142,35*7C
$GPRMC,200636.930,A,3748.7968,N,12217.8254,W,2.31,91.52,141211,,,A*4A
$GPVTG,91.52,T,,M,2.31,N,4.3,K,N*3A
$GPGGA,200637.930,3748.7863,N,12217.8341,W,1,03,3.4,25.1,M,-25.1,M,,0000*56
$GPGSA,A,2,26,29,15,,,,,,,,,,3.5,3.4,1.0*38
$GPRMC,200637.930,A,3748.7863,N,12217.8341,W,1.76,126.32,141211,,,A*7F
$GPVTG,126.32,T,,M,1.76,N,3.3,K,N*06
$GPGGA,200638.930,3748.7944,N,12217.8260,W,1,03,3.4,25.1,M,-25.1,M,,0000*5F
$GPGSA,A,2,26,29,15,,,,,,,,,,3.5,3.4,1.0*38
$GPRMC,200638.930,A,3748.7944,N,12217.8260,W,2.61,165.67,141211,,,A*74
$GPVTG,165.67,T,,M,2.61,N,4.8,K,N*08
$GPGGA,200640.930,3748.7858,N,12217.8321,W,1,03,3.4,25.1,M,-25.1,M,,0000*58
$GPGSA,A,2,26,29,15,,,,,,,,,,3.5,3.4,1.0*38
$GPRMC,200640.930,A,3748.7858,N,12217.8321,W,1.78,146.24,141211,,,A*7E
$GPVTG,146.24,T,,M,1.78,N,3.3,K,N*09
$GPGGA,200641.930,3748.7881,N,12217.8292,W,1,03,3.4,25.1,M,-25.1,M,,0000*54
$GPGSA,A,2,26,29,15,,,,,,,,,,3.5,3.4,1.0*38
$GPGSV,3,1,11,29,72,110,30,15,28,119,37,26,23,079,23,21,56,296,23*73
$GPGSV,3,2,11,18,45,208,37,30,29,294,24,05,22,045,19,25,16,185,39*75
$GPGSV,3,3,11,16,15,319,19,22,05,217,30,06,03,311,22*4D
$GPRMC,200641.930,A,3748.7881,N,12217.8292,W,2.70,171.86,141211,,,A*75
$GPVTG,171.86,T,,M,2.70,N,5.0,K,N*0B
$GPGGA,200642.930,3748.7856,N,12217.8305,W,1,03,3.4,25.1,M,-25.1,M,,0000*52
$GPGSA,A,2,26,29,15,,,,,,,,,,3.5,3.4,1.0*38
$GPRMC,200642.930,A,3748.7856,N,12217.8305,W,2.01,119.38,141211,,,A*7E
$GPVTG,119.38,T,,M,2.01,N,3.7,K,N*07
$GPGGA,200643.930,3748.7873,N,12217.8279,W,1,03,3.4,25.1,M,-25.1,M,,0000*5E
$GPGSA,A,2,26,29,15,,,,,,,,,,3.5,3.4,1.0*38
$GPRMC,200643.930,A,3748.7873,N,12217.8279,W,2.22,113.03,141211,,,A*71
$GPVTG,113.03,T,,M,2.22,N,4.1,K,N*05
$GPGGA,200646.930,3748.7792,N,12217.8270,W,1,03,3.4,25.1,M,-25.1,M,,0000*52
$GPGSA,A,2,26,29,15,,,,,,,,,,3.5,3.4,1.0*38
$GPGSV,3,1,12,29,72,110,30,15,28,119,32,26,23,079,27,21,56,296,22*70
$GPGSV,3,2,12,18,45,208,33,30,29,294,25,05,22,045,20,25,16,185,35*75
$GPGSV,3,3,12,16,15,319,19,22,05,217,31,06,03,311,22,46,39,142,29*7B
$GPRMC,200646.930,A,3748.7792,N,12217.8270,W,1.54,85.61,141211,,,A*45
$GPVTG,85.61,T,,M,1.54,N,2.9,K,N*33
$GPGGA,200648.930,3748.7925,N,12217.8146,W,1,03,3.4,25.1,M,-25.1,M,,0000*58
$GPGSA,A,2,26,29,15,,,,,,,,,,3.5,3.4,1.0*38
$GPRMC,200648.930,A,3748.7925,N,12217.8146,W,2.27,117.50,141211,,,A*70
$GPVTG,117.50,T,,M,2.27,N,4.2,K,N*01
$GPGGA,200649.930,3748.7885,N,12217.8178,W,1,03,3.4,25.1,M,-25.1,M,,0000*5F
$GPGSA,A,2,26,29,15,,,,,,,,,,3.5,3.4,1.0*38
$GPRMC,200649.930,A,3748.7885,N,12217.8178,W,2.51,114.27,141211,,,A*75
$GPVTG,114.27,T,,M,2.51,N,4.7,K,N*06
$GPGGA,200650.930,3748.7808,N,12217.8248,W,1,03,3.4,25.1,M,-25.1,M,,0000*52
$GPGSA,A,2,26,29,15,,,,,,,,,,3.5,3.4,1.0*38
$GPRMC,200650.930,A,3748.7808,N,12217.8248,W,2.39,121.25,141211,,,A*72
$GPVTG,121.25,T,,M,2.39,N,4.4,K,N*0F
$GPGGA,200651.930,3748.7796,N,12217.8251,W,1,03,3.4,25.1,M,-25.1,M,,0000*53
$GPGSA,A,2,26,29,15,,,,,,,,,,3.5,3.4,1.0*38
$GPGSV,3,1,12,29,72,110,29,15,28,119,37,26,23,079,27,21,56,296,22*7D
$GPGSV,3,2,12,18,45,208,35,30,29,294,24,05,22,045,21,25,16,185,38*7E
$GPGSV,3,3,12,16,15,319,19,22,05,217,23,06,03,311,21,46,39,142,34*77
$GPRMC,200651.930,A,3748.7796,N,12217.8251,W,2.42,130.27,141211,,,A*7D
$GPVTG,130.27,T,,M,2.42,N,4.5,K,N*00
$GPGGA,200652.930,3748.7815,N,12217.8254,W,1,03,3.4,25.1,M,-25.1,M,,0000*51
$GPGSA,A,2,26,29,15,,,,,,,,,,3.5,3.4,1.0*38
$GPRMC,200652.930,A,3748.7815,N,12217.8254,W,2.40,125.41,141211,,,A*79
$GPVTG,125.41,T,,M,2.40,N,4.5,K,N*06
$GPGGA,200653.930,3748.7895,N,12217.8194,W,1,03,3.4,25.1,M,-25.1,M,,0000*57
$GPGSA,A,2,26,29,15,,,,,,,,,,3.5,3.4,1.0*38
$GPRMC,200653.930,A,3748.7895,N,12217.8194,W,3.08,101.26,141211,,,A*75
$GPVTG,101.26,T,,M,3.08,N,5.7,K,N*0F
$GPGGA,200654.930,3748.7855,N,12217.8198,W,1,03,3.4,25.1,M,-25.1,M,,0000*50
$GPGSA,A,2,26,29,15,,,,,,,,,,3.5,3.4,1.0*38
$GPRMC,200654.930,A,3748.7855,N,12217.8198,W,2.34,131.68,141211,,,A*75
$GPVTG,131.68,T,,M,2.34,N,4.3,K,N*0D
$GPGGA,200655.930,3748.7854,N,12217.8176,W,1,03,3.4,25.1,M,-25.1,M,,0000*50
$GPGSA,A,2,26,29,15,,,,,,,,,,3.5,3.4,1.0*38
$GPRMC,200655.930,A,3748.7854,N,12217.8176,W,2.06,113.71,141211,,,A*7C
$GPVTG,113.71,T,,M,2.06,N,3.8,K,N*08
$GPGGA,200656.930,3748.7779,N,12217.8215,W,1,03,3.4,25.1,M,-25.1,M,,0000*55
$GPGSA,A,2,26,29,15,,,,,,,,,,3.5,3.4,1.0*38
$GPGSV,3,1,12,29,72,110,30,15,28,119,37,26,23,079,27,21,56,296,22*75
$GPGSV,3,2,12,18,45,208,38,30,29,294,24,05,22,045,22,25,16,185,38*70
$GPGSV,3,3,12,16,15,319,20,22,05,217,17,06,03,311,20,46,39,142,34*7B
$GPRMC,200656.930,A,3748.7779,N,12217.8215,W,2.44,142.10,141211,,,A*7C
$GPVTG,142.10,T,,M,2.44,N,4.5,K,N*07
$GPGGA,200657.930,3748.7848,N,12217.8149,W,1,03,3.4,25.1,M,-25.1,M,,0000*53
$GPGSA,A,2,26,29,15,,,,,,,,,,3.5,3.4,1.0*38
$GPRMC,200657.930,A,3748.7848,N,12217.8149,W,2.39,122.94,141211,,,A*7A
$GPVTG,122.94,T,,M,2.39,N,4.4,K,N*06
$GPGGA,200658.930,3748.7847,N,12217.8138,W,1,03,3.4,25.1,M,-25.1,M,,0000*55
$GPGSA,A,2,26,29,15,,,,,,,,,,3.5,3.4,1.0*38
$GPRMC,200658.930,A,3748.7847,N,12217.8138,W,2.07,116.34,141211,,,A*7C
$GPVTG,116.34,T,,M,2.07,N,3.8,K,N*0D
$GPGGA,200659.930,3748.7806,N,12217.8137,W,1,03,3.4,25.1,M,-25.1,M,,0000*5E
$GPGSA,A,2,26,29,15,,,,,,,,,,3.5,3.4,1.0*38
$GPRMC,200659.930,A,3748.7806,N,12217.8137,W,2.21,123.69,141211,,,A*7D
$GPVTG,123.69,T,,M,2.21,N,4.1,K,N*09
$GPGGA,200700.930,3748.7688,N,12217.8231,W,1,03,3.4,25.1,M,-25.1,M,,0000*5E
$GPGSA,A,2,26,29,15,,,,,,,,,,3.5,3.4,1.0*38
$GPRMC,200700.930,A,3748.7688,N,12217.8231,W,2.16,108.69,141211,,,A*70
$GPVTG,108.69,T,,M,2.16,N,4.0,K,N*05
$GPGGA,200703.930,3748.7779,N,12217.8163,W,1,03,3.4,25.1,M,-25.1,M,,0000*56
$GPGSA,A,2,26,29,15,,,,,,,,,,3.5,3.4,1.0*38
$GPRMC,200703.930,A,3748.7779,N,12217.8163,W,2.00,116.61,141211,,,A*78
$GPVTG,116.61,T,,M,2.00,N,3.7,K,N*05
$GPGGA,200704.930,3748.7814,N,12217.8116,W,1,03,3.4,25.1,M,-25.1,M,,0000*57
$GPGSA,A,2,26,29,15,,,,,,,,,,3.5,3.4,1.0*38
$GPRMC,200704.930,A,3748.7814,N,12217.8116,W,1.80,140.27,141211,,,A*73
$GPVTG,140.27,T,,M,1.80,N,3.3,K,N*0B
$GPGGA,200707.930,3748.7825,N,12217.8065,W,1,03,3.4,25.1,M,-25.1,M,,0000*53
$GPGSA,A,2,26,29,15,,,,,,,,,,3.5,3.4,1.0*38
$GPRMC,200707.930,A,3748.7825,N,12217.8065,W,2.58,94.04,141211,,,A*48
$GPVTG,94.04,T,,M,2.58,N,4.8,K,N*38
$GPGGA,200708.930,3748.7800,N,12217.8121,W,1,03,3.4,25.1,M,-25.1,M,,0000*5A
$GPGSA,A,2,26,29,15,,,,,,,,,,3.5,3.4,1.0*38
$GPRMC,200708.930,A,3748.7800,N,12217.8121,W,2.27,106.03,141211,,,A*74
$GPVTG,106.03,T,,M,2.27,N,4.2,K,N*07
$GPGGA,200709.930,3748.7808,N,12217.8138,W,1,03,3.4,25.1,M,-25.1,M,,0000*5B
$GPGSA,A,2,26,29,15,,,,,,,,,,3.5,3.4,1.0*38
$GPRMC,200709.930,A,3748.7808,N,12217.8138,W,1.68,106.81,141211,,,A*77
$GPVTG,106.81,T,,M,1.68,N,3.1,K,N*01
$GPGGA,200710.930,3748.7798,N,12217.8087,W,1,03,3.4,25.1,M,-25.1,M,,0000*50
$GPGSA,A,2,26,29,15,,,,,,,,,,3.5,3.4,1.0*38
$GPRMC,200710.930,A,3748.7798,N,12217.8087,W,2.37,112.20,141211,,,A*7B
$GPVTG,112.20,T,,M,2.37,N,4.4,K,N*04
$GPGGA,200711.930,3748.7794,N,12217.8089,W,1,03,3.4,25.1,M,-25.1,M,,0000*53
$GPGSA,A,2,26,29,15,,,,,,,,,,3.5,3.4,1.0*38
$GPGSV,3,1,12,29,71,111,30,15,28,119,38,26,23,079,32,21,56,297,22*7D
$GPGSV,3,2,12,18,46,209,30,30,29,293,24,05,21,044,22,25,15,185,38*7C
$GPGSV,3,3,12,16,15,319,19,22,05,217,18,06,04,311,18,46,39,142,32*74
$GPRMC,200711.930,A,3748.7794,N,12217.8089,W,1.93,130.45,141211,,,A*76
$GPVTG,130.45,T,,M,1.93,N,3.6,K,N*0F
$GPGGA,200712.930,3748.7793,N,12217.8084,W,1,03,3.4,25.1,M,-25.1,M,,0000*5A
$GPGSA,A,2,26,29,15,,,,,,,,,,3.5,3.4,1.0*38
$GPRMC,200712.930,A,3748.7793,N,12217.8084,W,2.20,122.83,141211,,,A*7D
$GPVTG,122.83,T,,M,2.20,N,4.1,K,N*0D
$GPGGA,200713.930,3748.7762,N,12217.8101,W,1,03,3.4,25.1,M,-25.1,M,,0000*59
$GPGSA,A,2,26,29,15,,,,,,,,,,3.5,3.4,1.0*38
$GPRMC,200713.930,A,3748.7762,N,12217.8101,W,2.16,122.02,141211,,,A*72
$GPVTG,122.02,T,,M,2.16,N,4.0,K,N*00
$GPGGA,200714.930,3748.7758,N,12217.8100,W,1,03,3.4,25.1,M,-25.1,M,,0000*56
$GPGSA,A,2,26,29,15,,,,,,,,,,3.5,3.4,1.0*38
$GPRMC,200714.930,A,3748.7758,N,12217.8100,W,2.27,105.56,141211,,,A*7B
$GPVTG,105.56,T,,M,2.27,N,4.2,K,N*04
$GPGGA,200715.930,3748.7675,N,12217.8165,W,1,03,3.4,25.1,M,-25.1,M,,0000*5A
$GPGSA,A,2,26,29,15,,,,,,,,,,3.5,3.4,1.0*38
$GPRMC,200715.930,A,3748.7675,N,12217.8165,W,2.31,111.29,141211,,,A*7D
$GPVTG,111.29,T,,M,2.31,N,4.3,K,N*0F
$GPGGA,200718.930,3748.7752,N,12217.8064,W,1,03,3.4,25.1,M,-25.1,M,,0000*53
$GPGSA,A,2,26,29,15,,,,,,,,,,3.5,3.4,1.0*38
$GPRMC,200718.930,A,3748.7752,N,12217.8064,W,2.06,147.63,141211,,,A*7D
$GPVTG,147.63,T,,M,2.06,N,3.8,K,N*0A
$GPGGA,200719.930,3748.7731,N,12217.8071,W,1,03,3.4,25.1,M,-25.1,M,,0000*53
$GPGSA,A,2,26,29,15,,,,,,,,,,3.5,3.4,1.0*38
$GPRMC,200719.930,A,3748.7731,N,12217.8071,W,2.57,162.09,141211,,,A*72
$GPVTG,162.09,T,,M,2.57,N,4.8,K,N*02
$GPGGA,200720.930,3748.7804,N,12217.8000,W,1,03,3.4,25.1,M,-25.1,M,,0000*56
$GPGSA,A,2,26,29,15,,,,,,,,,,3.5,3.4,1.0*38
$GPRMC,200720.930,A,3748.7804,N,12217.8000,W,2.76,169.40,141211,,,A*72
$GPVTG,169.40,T,,M,2.76,N,5.1,K,N*0F
$GPGGA,200721.930,3748.7788,N,12217.7960,W,1,03,3.4,25.1,M,-25.1,M,,0000*5C
$GPGSA,A,2,26,29,15,,,,,,,,,,3.5,3.4,1.0*38
$GPGSV,3,1,12,29,71,111,30,15,28,119,38,26,23,079,31,21,56,297,22*7E
$GPGSV,3,2,12,18,46,209,37,30,29,293,24,05,21,044,18,25,15,185,36*7C
$GPGSV,3,3,12,16,15,319,21,22,05,217,17,06,04,311,19,46,39,142,34*77
$GPRMC,200721.930,A,3748.7788,N,12217.7960,W,2.04,120.45,141211,,,A*75
$GPVTG,120.45,T,,M,2.04,N,3.8,K,N*0D
$GPGGA,200722.930,3748.7792,N,12217.8201,W,2,04,3.1,-16.1,M,-25.1,M,,0000*7B
$GPGSA,A,3,26,18,29,15,,,,,,,,,4.6,3.1,3.3*30
$GPRMC,200722.930,A,3748.7792,N,12217.8201,W,3.20,134.92,141211,,,D*73
$GPVTG,134.92,T,,M,3.20,N,5.9,K,D*08
$GPGGA,200723.930,3748.7785,N,12217.8190,W,2,04,3.1,-13.0,M,-25.1,M,,0000*73
$GPGSA,A,3,26,18,29,15,,,,,,,,,4.6,3.1,3.3*30
$GPRMC,200723.930,A,3748.7785,N,12217.8190,W,2.47,122.20,141211,,,D*71
$GPVTG,122.20,T,,M,2.47,N,4.6,K,D*08
$GPGGA,200724.930,3748.7778,N,12217.8181,W,2,04,3.1,-11.6,M,-25.1,M,,0000*72
$GPGSA,A,3,26,18,29,15,,,,,,,,,4.6,3.1,3.3*30
$GPRMC,200724.930,A,3748.7778,N,12217.8181,W,2.35,118.90,141211,,,D*73
$GPVTG,118.90,T,,M,2.35,N,4.4,K,D*0D
$GPGGA,200726.000,3748.7755,N,12217.8166,W,2,04,3.1,-9.3,M,-25.1,M,2.8,0000*64
$GPGSA,A,3,26,18,29,15,,,,,,,,,4.6,3.1,3.3*30
$GPRMC,200726.000,A,3748.7755,N,12217.8166,W,2.50,123.24,141211,,,D*79
$GPVTG,123.24,T,,M,2.50,N,4.6,K,D*0B
$GPGGA,200727.000,3748.7731,N,12217.8144,W,2,04,3.1,-2.0,M,-25.1,M,,0000*4B
$GPGSA,A,3,26,18,29,15,,,,,,,,,4.6,3.1,3.3*30
$GPGSV,3,1,12,29,71,111,30,18,46,209,37,15,28,119,37,26,23,078,27*7F
$GPGSV,3,2,12,21,57,297,22,30,29,293,23,05,21,044,21,25,15,185,40*79
$GPGSV,3,3,12,16,15,318,21,22,05,217,27,06,04,311,18,46,39,142,35*75
$GPRMC,200727.000,A,3748.7731,N,12217.8144,W,2.52,118.65,141211,,,D*75
$GPVTG,118.65,T,,M,2.52,N,4.7,K,D*05
$GPGGA,200728.000,3748.7726,N,12217.8134,W,2,04,3.1,-0.8,M,-25.1,M,,0000*4F
$GPGSA,A,3,26,18,29,15,,,,,,,,,4.6,3.1,3.3*30
$GPRMC,200728.000,A,3748.7726,N,12217.8134,W,2.86,125.41,141211,,,D*7A
$GPVTG,125.41,T,,M,2.86,N,5.3,K,D*01
$GPGGA,200729.000,3748.7702,N,12217.8116,W,2,04,3.1,3.1,M,-25.1,M,,0000*6F
$GPGSA,A,3,26,18,29,15,,,,,,,,,4.6,3.1,3.3*30
$GPRMC,200729.000,A,3748.7702,N,12217.8116,W,2.99,126.40,141211,,,D*71
$GPVTG,126.40,T,,M,2.99,N,5.5,K,D*0B
$GPGGA,200730.000,3748.7697,N,12217.8108,W,2,03,3.5,3.0,M,-25.1,M,2.8,0000*43
$GPGSA,A,2,18,29,15,,,,,,,,,,3.6,3.5,1.0*37
$GPRMC,200730.000,A,3748.7697,N,12217.8108,W,2.91,120.54,141211,,,D*70
$GPVTG,120.54,T,,M,2.91,N,5.4,K,D*01
$GPGGA,200731.000,3748.7682,N,12217.8095,W,2,04,3.1,5.5,M,-25.1,M,,0000*67
$GPGSA,A,3,26,18,29,15,,,,,,,,,4.6,3.1,3.3*30
$GPRMC,200731.000,A,3748.7682,N,12217.8095,W,2.63,124.02,141211,,,D*7A
$GPVTG,124.02,T,,M,2.63,N,4.9,K,D*07
$GPGGA,200732.000,3748.7683,N,12217.8090,W,2,04,3.1,4.8,M,-25.1,M,2.8,0000*48
$GPGSA,A,3,26,18,29,15,,,,,,,,,4.6,3.1,3.3*30
$GPGSV,3,1,12,29,71,111,31,18,46,209,37,15,28,119,37,26,23,078,26*7F
$GPGSV,3,2,12,21,57,297,21,30,29,293,23,05,21,044,22,25,15,185,40*79
$GPGSV,3,3,12,16,15,318,21,22,05,217,25,06,04,311,17,46,39,142,32*7F
$GPRMC,200732.000,A,3748.7683,N,12217.8090,W,2.12,117.28,141211,,,D*73
$GPVTG,117.28,T,,M,2.12,N,3.9,K,D*0E
$GPGGA,200733.000,3748.7683,N,12217.8085,W,2,04,3.1,4.0,M,-25.1,M,,0000*61
$GPGSA,A,3,26,18,29,15,,,,,,,,,4.6,3.1,3.3*30
$GPRMC,200733.000,A,3748.7683,N,12217.8085,W,2.38,126.49,141211,,,D*7B
$GPVTG,126.49,T,,M,2.38,N,4.4,K,D*09
$GPGGA,200734.000,3748.7683,N,12217.8080,W,2,04,3.1,3.4,M,-25.1,M,,0000*60
$GPGSA,A,3,26,18,29,15,,,,,,,,,4.6,3.1,3.3*30
$GPRMC,200734.000,A,3748.7683,N,12217.8080,W,2.29,119.31,141211,,,D*7A
$GPVTG,119.31,T,,M,2.29,N,4.2,K,D*0C
$GPGGA,200735.000,3748.7683,N,12217.8074,W,2,04,3.1,2.7,M,-25.1,M,,0000*68
$GPGSA,A,3,26,18,29,15,,,,,,,,,4.6,3.1,3.3*30
$GPRMC,200735.000,A,3748.7683,N,12217.8074,W,2.49,118.04,141211,,,D*71
$GPVTG,118.04,T,,M,2.49,N,4.6,K,D*09
$GPGGA,200736.000,3748.7684,N,12217.8068,W,2,04,3.1,2.0,M,-25.1,M,1.8,0000*41
$GPGSA,A,3,26,18,29,15,,,,,,,,,4.6,3.1,3.3*30
$GPRMC,200736.000,A,3748.7684,N,12217.8068,W,2.50,116.25,141211,,,D*7D
$GPVTG,116.25,T,,M,2.50,N,4.6,K,D*0C
$GPGGA,200737.000,3748.7685,N,12217.8062,W,2,04,3.1,2.1,M,-25.1,M,2.8,0000*49
$GPGSA,A,3,26,18,29,15,,,,,,,,,4.6,3.1,3.3*30
$GPGSV,3,1,12,29,71,111,28,18,46,209,26,15,28,119,32,26,23,078,36*73
$GPGSV,3,2,12,21,57,297,21,30,29,293,24,05,21,044,22,25,15,185,41*7F
$GPGSV,3,3,12,16,15,318,10,22,05,217,18,06,04,311,17,46,39,142,27*77
$GPRMC,200737.000,A,3748.7685,N,12217.8062,W,2.00,118.90,141211,,,D*72
$GPGGA,200738.000,3748.7685,N,12217.8053,W,2,04,3.1,2.6,M,-25.1,M,3.8,0000*42
$GPGSA,A,3,26,18,29,15,,,,,,,,,4.6,3.1,3.3*30
$GPRMC,200738.000,A,3748.7685,N,12217.8053,W,2.60,106.22,141211,,,D*7F
$GPVTG,106.22,T,,M,2.60,N,4.8,K,D*07
$GPGGA,200739.000,3748.7681,N,12217.8045,W,2,04,3.1,2.1,M,-25.1,M,,0000*62
$GPGSA,A,3,26,18,29,15,,,,,,,,,4.6,3.1,3.3*30
$GPRMC,200739.000,A,3748.7681,N,12217.8045,W,2.53,110.25,141211,,,D*7D
$GPVTG,110.25,T,,M,2.53,N,4.7,K,D*08
$GPGGA,200740.000,3748.7676,N,12217.8038,W,2,04,3.1,1.7,M,-25.1,M,,0000*6B
$GPGSA,A,3,26,18,29,15,,,,,,,,,4.6,3.1,3.3*30
$GPRMC,200740.000,A,3748.7676,N,12217.8038,W,2.32,108.02,141211,,,D*7A
$GPVTG,108.02,T,,M,2.32,N,4.3,K,D*07
$GPGGA,200741.000,3748.7673,N,12217.8032,W,2,04,3.1,1.3,M,-25.1,M,,0000*61
$GPGSA,A,3,26,18,29,15,,,,,,,,,4.6,3.1,3.3*30
$GPRMC,200741.000,A,3748.7673,N,12217.8032,W,2.31,110.09,141211,,,D*75
$GPVTG,110.09,T,,M,2.31,N,4.3,K,D*06
$GPGGA,200742.000,3748.7666,N,12217.8023,W,2,04,3.1,1.7,M,-25.1,M,,0000*62
$GPGSA,A,3,26,18,29,15,,,,,,,,,4.6,3.1,3.3*30
$GPGSV,3,1,12,29,71,111,29,18,46,209,37,15,28,119,37,26,23,078,23*73
$GPGSV,3,2,12,21,57,297,21,30,29,293,24,05,21,044,22,25,15,185,34*7D
$GPGSV,3,3,12,16,15,318,18,22,05,217,26,06,04,311,18,46,39,142,33*78
$GPRMC,200742.000,A,3748.7666,N,12217.8023,W,2.44,121.64,141211,,,D*79
$GPVTG,121.64,T,,M,2.44,N,4.5,K,D*0B
$GPGGA,200743.000,3748.7666,N,12217.8018,W,2,04,3.1,0.6,M,-25.1,M,2.8,0000*4F
$GPGSA,A,3,26,18,29,15,,,,,,,,,4.6,3.1,3.3*30
$GPRMC,200743.000,A,3748.7666,N,12217.8018,W,2.35,113.53,141211,,,D*73
$GPVTG,113.53,T,,M,2.35,N,4.3,K,D*0E
$GPGGA,200744.000,3748.7664,N,12217.8012,W,2,04,3.1,0.2,M,-25.1,M,3.8,0000*45
$GPGSA,A,3,26,18,29,15,,,,,,,,,4.6,3.1,3.3*30
$GPRMC,200744.000,A,3748.7664,N,12217.8012,W,2.16,105.13,141211,,,D*7E
$GPVTG,105.13,T,,M,2.16,N,4.0,K,D*0F
$GPGGA,200745.000,3748.7662,N,12217.8005,W,2,04,3.1,-0.2,M,-25.1,M,,0000*4C
$GPGSA,A,3,26,18,29,15,,,,,,,,,4.6,3.1,3.3*30
$GPRMC,200745.000,A,3748.7662,N,12217.8005,W,2.18,113.46,141211,,,D*76
$GPVTG,113.46,T,,M,2.18,N,4.0,K,D*06
$GPGGA,200746.000,3748.7659,N,12217.7998,W,2,04,3.1,-0.5,M,-25.1,M,,0000*42
$GPGSA,A,3,26,18,29,15,,,,,,,,,4.6,3.1,3.3*30
$GPRMC,200746.000,A,3748.7659,N,12217.7998,W,2.20,118.36,141211,,,D*78
$GPVTG,118.36,T,,M,2.20,N,4.1,K,D*00
$GPGGA,200747.000,3748.7655,N,12217.7991,W,2,04,3.1,-0.9,M,-25.1,M,,0000*4A
$GPGSA,A,3,26,18,29,15,,,,,,,,,4.6,3.1,3.3*30
$GPGSV,3,1,12,29,71,111,30,21,57,297,21,18,46,209,37,30,29,293,24*7B
$GPGSV,3,2,12,15,28,119,33,26,23,078,32,05,21,044,22,16,15,318,20*7A
$GPGSV,3,3,12,25,15,185,33,22,05,218,23,06,04,311,17,46,39,142,32*73
$GPRMC,200747.000,A,3748.7655,N,12217.7991,W,2.46,120.34,141211,,,D*75
$GPVTG,120.34,T,,M,2.46,N,4.6,K,D*0E
$GPGGA,200748.000,3748.7652,N,12217.7984,W,2,04,3.1,-1.4,M,-25.1,M,2.8,0000*6E
$GPGSA,A,3,26,18,29,15,,,,,,,,,4.6,3.1,3.3*30
$GPRMC,200748.000,A,3748.7652,N,12217.7984,W,2.46,118.50,141211,,,D*70
$GPVTG,118.50,T,,M,2.46,N,4.6,K,D*07
$GPGGA,200749.000,3748.7649,N,12217.7977,W,2,04,3.1,-2.0,M,-25.1,M,3.8,0000*6F
$GPGSA,A,3,26,18,29,15,,,,,,,,,4.6,3.1,3.3*30
$GPRMC,200749.000,A,3748.7649,N,12217.7977,W,2.53,129.58,141211,,,D*79
$GPVTG,129.58,T,,M,2.53,N,4.7,K,D*08
$GPGGA,200750.000,3748.7641,N,12217.7967,W,2,04,3.1,-2.0,M,-25.1,M,4.8,0000*69
$GPGSA,A,3,26,18,29,15,,,,,,,,,4.6,3.1,3.3*30
$GPRMC,200750.000,A,3748.7641,N,12217.7967,W,2.64,139.49,141211,,,D*7D
$GPVTG,139.49,T,,M,2.64,N,4.9,K,D*03
$GPGGA,200751.000,3748.7636,N,12217.7959,W,2,04,3.1,-2.3,M,-25.1,M,,0000*44
$GPGSA,A,3,26,18,29,15,,,,,,,,,4.6,3.1,3.3*30
$GPRMC,200751.000,A,3748.7636,N,12217.7959,W,2.62,126.28,141211,,,D*7E
$GPVTG,126.28,T,,M,2.62,N,4.9,K,D*0C
$GPGGA,200752.000,3748.7632,N,12217.7951,W,2,04,3.1,-2.7,M,-25.1,M,,0000*4F
$GPGSA,A,3,26,18,29,15,,,,,,,,,4.6,3.1,3.3*30
$GPGSV,3,1,12,29,71,111,30,21,57,297,22,18,46,209,38,30,29,293,25*76
$GPGSV,3,2,12,15,28,119,33,26,23,078,29,05,21,044,27,16,15,318,20*75
$GPGSV,3,3,12,25,15,185,41,22,05,218,22,06,04,311,17,46,39,142,34*71
$GPRMC,200752.000,A,3748.7632,N,12217.7951,W,2.48,119.32,141211,,,D*7E
$GPGGA,200753.000,3748.7626,N,12217.7941,W,2,04,3.1,-1.3,M,-25.1,M,,0000*4D
$GPGSA,A,3,26,18,29,15,,,,,,,,,4.6,3.1,3.3*30
$GPRMC,200753.000,A,3748.7626,N,12217.7941,W,2.48,123.87,141211,,,D*7C
$GPVTG,123.87,T,,M,2.48,N,4.6,K,D*0B
$GPGGA,200754.000,3748.7616,N,12217.7930,W,2,04,3.1,0.1,M,-25.1,M,,0000*61
$GPGSA,A,3,26,18,29,15,,,,,,,,,4.6,3.1,3.3*30
$GPRMC,200754.000,A,3748.7616,N,12217.7930,W,2.74,122.08,141211,,,D*77
$GPVTG,122.08,T,,M,2.74,N,5.1,K,D*04
$GPGGA,200755.000,3748.7613,N,12217.7921,W,2,04,3.1,0.4,M,-25.1,M,2.8,0000*44
$GPGSA,A,3,26,18,29,15,,,,,,,,,4.6,3.1,3.3*30
$GPRMC,200755.000,A,3748.7613,N,12217.7921,W,3.01,123.00,141211,,,D*79
$GPVTG,123.00,T,,M,3.01,N,5.6,K,D*09
$GPGGA,200756.000,3748.7614,N,12217.7913,W,2,04,3.1,0.2,M,-25.1,M,3.8,0000*46
$GPGSA,A,3,26,18,29,15,,,,,,,,,4.6,3.1,3.3*30
$GPRMC,200756.000,A,3748.7614,N,12217.7913,W,2.99,107.93,141211,,,D*70
$GPVTG,107.93,T,,M,2.99,N,5.5,K,D*06
$GPGGA,200757.000,3748.7613,N,12217.7903,W,2,04,3.1,0.6,M,-25.1,M,,0000*60
$GPGSA,A,3,26,18,29,15,,,,,,,,,4.6,3.1,3.3*30
$GPGSV,3,1,12,29,71,111,31,21,57,297,22,18,46,209,38,30,29,293,25*77
$GPGSV,3,2,12,15,28,119,34,26,23,078,32,05,21,044,22,16,15,318,25*78
$GPGSV,3,3,12,25,15,185,42,22,05,218,23,06,04,311,16,46,39,142,34*72
$GPRMC,200757.000,A,3748.7613,N,12217.7903,W,2.84,99.82,141211,,,D*4D
$GPVTG,99.82,T,,M,2.84,N,5.3,K,D*3A
$GPGGA,200758.000,3748.7613,N,12217.7893,W,2,04,3.1,0.9,M,-25.1,M,,0000*68
$GPGSA,A,3,26,18,29,15,,,,,,,,,4.6,3.1,3.3*30
$GPRMC,200758.000,A,3748.7613,N,12217.7893,W,2.73,96.58,141211,,,D*4A
$GPVTG,96.58,T,,M,2.73,N,5.1,K,D*38
$GPGGA,200759.000,3748.7613,N,12217.7883,W,2,04,3.1,1.1,M,-25.1,M,,0000*61
$GPGSA,A,3,26,18,29,15,,,,,,,,,4.6,3.1,3.3*30
$GPRMC,200759.000,A,3748.7613,N,12217.7883,W,2.90,102.53,141211,,,D*70
$GPVTG,102.53,T,,M,2.90,N,5.4,K,D*07
$GPGGA,200800.000,3748.7615,N,12217.7875,W,2,04,3.1,0.7,M,-25.1,M,2.8,0000*4E
$GPGSA,A,3,26,18,29,15,,,,,,,,,4.6,3.1,3.3*30
$GPRMC,200800.000,A,3748.7615,N,12217.7875,W,2.68,104.40,141211,,,D*7F
$GPVTG,104.40,T,,M,2.68,N,5.0,K,D*00
$GPGGA,200801.000,3748.7614,N,12217.7866,W,2,04,3.1,1.0,M,-25.1,M,3.8,0000*4B
$GPGSA,A,3,26,18,29,15,,,,,,,,,4.6,3.1,3.3*30
$GPRMC,200801.000,A,3748.7614,N,12217.7866,W,2.52,110.26,141211,,,D*71
$GPVTG,110.26,T,,M,2.52,N,4.7,K,D*0A
$GPGGA,200802.000,3748.7610,N,12217.7855,W,2,04,3.1,2.3,M,-25.1,M,4.8,0000*4B
$GPGSA,A,3,26,18,29,15,,,,,,,,,4.6,3.1,3.3*30
$GPGSV,3,1,12,29,71,111,31,21,57,297,21,18,46,209,37,30,29,293,21*7F
$GPGSV,3,2,12,15,28,119,27,26,23,078,27,05,21,044,26,16,15,318,25*7A
$GPGSV,3,3,12,25,15,185,42,22,05,218,35,06,04,311,17,46,39,142,29*78
$GPRMC,200802.000,A,3748.7610,N,12217.7855,W,2.40,120.21,141211,,,D*71
$GPVTG,120.21,T,,M,2.40,N,4.4,K,D*0E
$GPGGA,200803.000,3748.7608,N,12217.7849,W,2,04,3.1,3.0,M,-25.1,M,,0000*6E
$GPGSA,A,3,26,18,29,15,,,,,,,,,4.6,3.1,3.3*30
$GPRMC,200803.000,A,3748.7608,N,12217.7849,W,2.36,115.94,141211,,,D*7D
$GPVTG,115.94,T,,M,2.36,N,4.4,K,D*07
$GPGGA,200804.000,3748.7605,N,12217.7842,W,2,04,3.1,4.5,M,-25.1,M,,0000*6D
$GPGSA,A,3,26,18,29,15,,,,,,,,,4.6,3.1,3.3*30
$GPRMC,200804.000,A,3748.7605,N,12217.7842,W,2.50,115.23,141211,,,D*70
$GPVTG,115.23,T,,M,2.50,N,4.6,K,D*09
$GPGGA,200805.000,3748.7596,N,12217.7831,W,2,04,3.1,5.8,M,-25.1,M,,0000*6D
$GPGSA,A,3,26,18,29,15,,,,,,,,,4.6,3.1,3.3*30
$GPRMC,200805.000,A,3748.7596,N,12217.7831,W,2.41,122.45,141211,,,D*78
$GPVTG,122.45,T,,M,2.41,N,4.5,K,D*0E
$GPGGA,200806.000,3748.7587,N,12217.7823,W,2,04,3.1,6.3,M,-25.1,M,2.8,0000*41
$GPGSA,A,3,26,18,29,15,,,,,,,,,4.6,3.1,3.3*30
$GPRMC,200806.000,A,3748.7587,N,12217.7823,W,3.23,130.87,141211,,,D*70
$GPVTG,130.87,T,,M,3.23,N,6.0,K,D*01
$GPGGA,200807.000,3748.7581,N,12217.7814,W,2,04,3.1,6.7,M,-25.1,M,3.8,0000*47
$GPGSA,A,3,26,18,29,15,,,,,,,,,4.6,3.1,3.3*30
$GPGSV,3,1,12,29,71,111,28,21,57,297,22,18,46,209,37,30,29,293,24*71
$GPGSV,3,2,12,15,28,119,35,26,23,078,23,05,21,044,25,16,15,318,21*7A
$GPGSV,3,3,12,25,15,185,41,22,05,218,35,06,04,311,16,46,39,142,33*71
$GPRMC,200807.000,A,3748.7581,N,12217.7814,W,3.13,121.41,141211,,,D*7A
$GPGGA,200808.000,3748.7570,N,12217.7803,W,2,04,3.1,8.1,M,-25.1,M,4.8,0000*4F
$GPGSA,A,3,26,18,29,15,,,,,,,,,4.6,3.1,3.3*30
$GPRMC,200808.000,A,3748.7570,N,12217.7803,W,3.37,131.84,141211,,,D*73
$GPVTG,131.84,T,,M,3.37,N,6.2,K,D*04
$GPGGA,200809.000,3748.7558,N,12217.7791,W,2,04,3.1,9.5,M,-25.1,M,,0000*67
$GPGSA,A,3,26,18,29,15,,,,,,,,,4.6,3.1,3.3*30
$GPRMC,200809.000,A,3748.7558,N,12217.7791,W,3.46,123.07,141211,,,D*72
$GPVTG,123.07,T,,M,3.46,N,6.4,K,D*0C
$GPGGA,200810.000,3748.7551,N,12217.7780,W,2,04,3.1,10.2,M,-25.1,M,,0000*59
$GPGSA,A,3,26,18,29,15,,,,,,,,,4.6,3.1,3.3*30
$GPRMC,200810.000,A,3748.7551,N,12217.7780,W,3.34,120.56,141211,,,D*71
$GPVTG,120.56,T,,M,3.34,N,6.2,K,D*08
$GPGGA,200811.000,3748.7555,N,12217.7775,W,2,04,3.1,8.7,M,-25.1,M,,0000*6A
$GPGSA,A,3,26,18,29,15,,,,,,,,,4.6,3.1,3.3*30
$GPRMC,200811.000,A,3748.7555,N,12217.7775,W,2.81,108.67,141211,,,D*79
$GPVTG,108.67,T,,M,2.81,N,5.2,K,D*0C
$GPGGA,200812.000,3748.7558,N,12217.7770,W,2,04,3.1,7.4,M,-25.1,M,,0000*6D
$GPGSA,A,3,26,18,29,15,,,,,,,,,4.6,3.1,3.3*30
$GPGSV,3,1,12,29,71,112,30,21,57,297,21,18,46,209,37,30,29,293,25*79
$GPGSV,3,2,12,15,28,119,33,26,23,078,22,05,21,044,20,16,15,318,20*79
$GPGSV,3,3,12,25,15,185,30,22,05,218,25,06,04,311,15,46,39,142,33*75
$GPRMC,200812.000,A,3748.7558,N,12217.7770,W,2.62,110.65,141211,,,D*74
$GPVTG,110.65,T,,M,2.62,N,4.9,K,D*00
$GPGGA,200813.000,3748.7541,N,12217.7758,W,2,04,3.1,8.5,M,-25.1,M,2.8,0000*44
$GPGSA,A,3,26,18,29,15,,,,,,,,,4.6,3.1,3.3*30
$GPRMC,200813.000,A,3748.7541,N,12217.7758,W,3.03,127.17,141211,,,D*70
$GPVTG,127.17,T,,M,3.03,N,5.6,K,D*09
$GPGGA,200814.000,3748.7527,N,12217.7747,W,2,04,3.1,9.7,M,-25.1,M,,0000*6A
$GPGSA,A,3,26,18,29,15,,,,,,,,,4.6,3.1,3.3*30
$GPRMC,200814.000,A,3748.7527,N,12217.7747,W,3.41,131.44,141211,,,D*7E
$GPVTG,131.44,T,,M,3.41,N,6.3,K,D*08
$GPGGA,200815.000,3748.7513,N,12217.7735,W,2,04,3.1,11.3,M,-25.1,M,,0000*54
$GPGSA,A,3,26,18,29,15,,,,,,,,,4.6,3.1,3.3*30
$GPRMC,200815.000,A,3748.7513,N,12217.7735,W,3.36,128.24,141211,,,D*73
$GPVTG,128.24,T,,M,3.36,N,6.2,K,D*07
$GPGGA,200816.000,3748.7501,N,12217.7724,W,2,04,3.1,12.0,M,-25.1,M,,0000*54
$GPGSA,A,3,26,18,29,15,,,,,,,,,4.6,3.1,3.3*30
$GPRMC,200816.000,A,3748.7501,N,12217.7724,W,3.38,129.47,141211,,,D*79
$GPVTG,129.47,T,,M,3.38,N,6.3,K,D*0C
$GPGGA,200817.000,3748.7490,N,12217.7712,W,2,04,3.1,13.3,M,-25.1,M,,0000*5B
$GPGSA,A,3,26,18,29,15,,,,,,,,,4.6,3.1,3.3*30
$GPGSV,3,1,12,29,71,112,29,21,57,297,22,18,46,209,37,30,29,293,25*72
$GPGSV,3,2,12,15,28,119,30,26,23,078,22,05,21,044,20,16,15,318,19*70
$GPGSV,3,3,12,25,15,185,40,22,05,218,34,06,04,311,15,46,39,142,33*72
$GPRMC,200817.000,A,3748.7490,N,12217.7712,W,3.22,121.73,141211,,,D*70
$GPVTG,121.73,T,,M,3.22,N,6.0,K,D*0B
$GPGGA,200818.000,3748.7478,N,12217.7701,W,2,04,3.1,14.5,M,-25.1,M,2.8,0000*75
$GPGSA,A,3,26,18,29,15,,,,,,,,,4.6,3.1,3.3*30
$GPRMC,200818.000,A,3748.7478,N,12217.7701,W,3.21,130.42,141211,,,D*7A
$GPVTG,130.42,T,,M,3.21,N,5.9,K,D*00
$GPGGA,200819.000,3748.7473,N,12217.7693,W,2,04,3.1,14.5,M,-25.1,M,3.8,0000*74
$GPGSA,A,3,26,18,29,15,,,,,,,,,4.6,3.1,3.3*30
$GPRMC,200819.000,A,3748.7473,N,12217.7693,W,2.98,121.50,141211,,,D*7A
$GPVTG,121.50,T,,M,2.98,N,5.5,K,D*0C
$GPGGA,200820.000,3748.7463,N,12217.7683,W,2,04,3.1,15.7,M,-25.1,M,1.8,0000*7F
$GPGSA,A,3,26,18,29,15,,,,,,,,,4.6,3.1,3.3*30
$GPRMC,200820.000,A,3748.7463,N,12217.7683,W,2.91,122.87,141211,,,D*70
$GPVTG,122.87,T,,M,2.91,N,5.4,K,D*0D
$GPGGA,200821.000,3748.7448,N,12217.7672,W,2,04,3.1,17.6,M,-25.1,M,1.8,0000*7A
$GPGSA,A,3,26,18,29,15,,,,,,,,,4.6,3.1,3.3*30
$GPRMC,200821.000,A,3748.7448,N,12217.7672,W,3.24,133.36,141211,,,D*73
$GPVTG,133.36,T,,M,3.24,N,6.0,K,D*0F
$GPGGA,200822.000,3748.7432,N,12217.7660,W,2,04,3.1,19.5,M,-25.1,M,1.8,0000*7A
$GPGSA,A,3,26,18,29,15,,,,,,,,,4.6,3.1,3.3*30
$GPGSV,3,1,12,29,71,112,29,21,57,297,22,18,46,209,37,30,29,293,29*7E
$GPGSV,3,2,12,15,28,119,30,26,23,078,21,05,21,044,20,16,15,318,19*73
$GPGSV,3,3,12,25,15,185,40,22,05,218,28,06,04,311,16,46,39,142,32*7D
$GPVTG,138.70,T,,M,3.82,N,7.1,K,D*0A
$GPGGA,200823.000,3748.7415,N,12217.7648,W,2,04,3.1,21.5,M,-25.1,M,1.8,0000*7F
$GPGSA,A,3,26,18,29,15,,,,,,,,,4.6,3.1,3.3*30
$GPRMC,200823.000,A,3748.7415,N,12217.7648,W,4.34,139.92,141211,,,D*72
$GPVTG,139.92,T,,M,4.34,N,8.0,K,D*03
$GPGGA,200824.000,3748.7395,N,12217.7633,W,2,04,3.1,24.6,M,-25.1,M,2.8,0000*7E
$GPGSA,A,3,26,18,29,15,,,,,,,,,4.6,3.1,3.3*30
$GPRMC,200824.000,A,3748.7395,N,12217.7633,W,4.71,144.11,141211,,,D*76
$GPVTG,144.11,T,,M,4.71,N,8.7,K,D*04
$GPGGA,200825.000,3748.7381,N,12217.7622,W,2,04,3.1,26.5,M,-25.1,M,3.8,0000*7A
$GPGSA,A,3,26,18,29,15,,,,,,,,,4.6,3.1,3.3*30
$GPRMC,200825.000,A,3748.7381,N,12217.7622,W,4.80,146.94,141211,,,D*73
$GPVTG,146.94,T,,M,4.80,N,8.9,K,D*0B
$GPGGA,200826.000,3748.7369,N,12217.7612,W,2,04,3.1,28.1,M,-25.1,M,1.8,0000*74
$GPGSA,A,3,26,18,29,15,,,,,,,,,4.6,3.1,3.3*30
$GPRMC,200826.000,A,3748.7369,N,12217.7612,W,4.53,140.75,141211,,,D*72
$GPVTG,140.75,T,,M,4.53,N,8.4,K,D*01
$GPGGA,200827.000,3748.7359,N,12217.7603,W,2,04,3.1,29.1,M,-25.1,M,1.8,0000*77
$GPGSA,A,3,26,18,29,15,,,,,,,,,4.5,3.1,3.3*33
$GPGSV,3,1,12,29,71,112,30,21,57,297,22,18,46,209,38,30,29,293,28*78
$GPGSV,3,2,12,15,28,119,36,26,23,078,20,05,21,044,20,16,15,318,18*75
$GPGSV,3,3,12,25,15,185,30,22,05,218,28,06,04,311,15,46,39,142,32*79
$GPRMC,200827.000,A,3748.7359,N,12217.7603,W,4.10,135.00,141211,,,D*77
$GPVTG,135.00,T,,M,4.10,N,7.6,K,D*0B
$GPGGA,200828.000,3748.7353,N,12217.7595,W,2,04,3.1,29.1,M,-25.1,M,1.8,0000*7E
$GPGSA,A,3,26,18,29,15,,,,,,,,,4.5,3.1,3.3*33
$GPRMC,200828.000,A,3748.7353,N,12217.7595,W,3.91,137.82,141211,,,D*78
$GPVTG,137.82,T,,M,3.91,N,7.2,K,D*09
$GPGGA,200829.000,3748.7350,N,12217.7589,W,2,04,3.1,29.1,M,-25.1,M,1.8,0000*71
$GPGSA,A,3,26,18,29,15,,,,,,,,,4.5,3.1,3.3*33
$GPRMC,200829.000,A,3748.7350,N,12217.7589,W,3.64,135.35,141211,,,D*73
$GPVTG,135.35,T,,M,3.64,N,6.7,K,D*09
$GPGGA,200830.000,3748.7346,N,12217.7582,W,2,04,3.1,29.0,M,-25.1,M,2.8,0000*77
$GPGSA,A,3,26,18,29,15,,,,,,,,,4.5,3.1,3.3*33
$GPRMC,200830.000,A,3748.7346,N,12217.7582,W,3.40,127.25,141211,,,D*73
$GPVTG,127.25,T,,M,3.40,N,6.3,K,D*09
$GPGGA,200831.000,3748.7338,N,12217.7572,W,2,04,3.1,30.0,M,-25.1,M,3.8,0000*79
$GPGSA,A,3,26,18,29,15,,,,,,,,,4.5,3.1,3.3*33
$GPRMC,200831.000,A,3748.7338,N,12217.7572,W,3.19,122.28,141211,,,D*70
$GPVTG,122.28,T,,M,3.19,N,5.9,K,D*04
$GPGGA,200832.000,3748.7335,N,12217.7565,W,2,04,3.1,30.1,M,-25.1,M,4.8,0000*77
$GPGSA,A,3,26,18,29,15,,,,,,,,,4.5,3.1,3.3*33
$GPGSV,3,1,12,29,71,112,30,21,57,297,22,18,46,209,38,30,29,293,28*78
$GPGSV,3,2,12,15,28,119,37,26,23,078,21,05,21,044,19,16,15,318,18*7F
$GPGSV,3,3,12,25,15,185,25,22,05,218,28,06,04,311,15,46,39,142,32*7D
$GPRMC,200832.000,A,3748.7335,N,12217.7565,W,3.14,126.75,141211,,,D*79
$GPVTG,126.75,T,,M,3.14,N,5.8,K,D*04
$GPGGA,200833.000,3748.7326,N,12217.7556,W,2,04,3.1,31.0,M,-25.1,M,1.8,0000*71
$GPGSA,A,3,26,18,29,15,,,,,,,,,4.5,3.1,3.3*33
$GPRMC,200833.000,A,3748.7326,N,12217.7556,W,3.19,125.39,141211,,,D*7C
$GPVTG,125.39,T,,M,3.19,N,5.9,K,D*03
$GPGGA,200834.000,3748.7324,N,12217.7548,W,2,04,3.1,30.8,M,-25.1,M,1.8,0000*72
$GPGSA,A,3,26,18,29,15,,,,,,,,,4.5,3.1,3.3*33
$GPRMC,200834.000,A,3748.7324,N,12217.7548,W,3.24,120.21,141211,,,D*74
$GPVTG,120.21,T,,M,3.24,N,6.0,K,D*0B
$GPGGA,200835.000,3748.7326,N,12217.7542,W,2,04,3.1,29.5,M,-25.1,M,1.8,0000*7E
$GPGSA,A,3,26,18,29,15,,,,,,,,,4.5,3.1,3.3*33
$GPRMC,200835.000,A,3748.7326,N,12217.7542,W,3.11,124.01,141211,,,D*7D
$GPVTG,124.01,T,,M,3.11,N,5.8,K,D*00
$GPGGA,200836.000,3748.7320,N,12217.7534,W,2,04,3.1,29.9,M,-25.1,M,2.8,0000*75
$GPGSA,A,3,26,18,29,15,,,,,,,,,4.5,3.1,3.3*33
$GPRMC,200836.000,A,3748.7320,N,12217.7534,W,3.06,125.78,141211,,,D*70
$GPVTG,125.78,T,,M,3.06,N,5.7,K,D*06
$GPGGA,200837.000,3748.7313,N,12217.7524,W,2,04,3.1,30.4,M,-25.1,M,3.8,0000*71
$GPGSA,A,3,26,18,29,15,,,,,,,,,4.5,3.1,3.3*33
$GPGSV,3,1,12,29,71,112,30,21,57,297,22,18,46,209,38,30,29,293,27*77
$GPGSV,3,2,12,15,28,119,37,26,23,078,21,05,21,044,20,16,15,318,18*75
$GPGSV,3,3,12,25,15,185,26,22,05,218,28,06,04,311,16,46,39,142,33*7C
$GPVTG,120.68,T,,M,3.14,N,5.8,K,D*0E
$GPGGA,200838.000,3748.7301,N,12217.7513,W,2,04,3.1,31.7,M,-25.1,M,4.8,0000*7C
$GPGSA,A,3,26,18,29,15,,,,,,,,,4.5,3.1,3.3*33
$GPRMC,200838.000,A,3748.7301,N,12217.7513,W,3.04,123.31,141211,,,D*71
$GPVTG,123.31,T,,M,3.04,N,5.6,K,D*0E
$GPGGA,200839.000,3748.7303,N,12217.7507,W,2,04,3.1,30.8,M,-25.1,M,0.8,0000*70
$GPGSA,A,3,26,18,29,15,,,,,,,,,4.5,3.1,3.3*33
$GPRMC,200839.000,A,3748.7303,N,12217.7507,W,2.92,118.44,141211,,,D*73
$GPVTG,118.44,T,,M,2.92,N,5.4,K,D*08
$GPGGA,200840.000,3748.7307,N,12217.7502,W,2,04,3.1,29.6,M,-25.1,M,1.8,0000*78
$GPGSA,A,3,26,18,29,15,,,,,,,,,4.5,3.1,3.3*33
$GPRMC,200840.000,A,3748.7307,N,12217.7502,W,2.67,113.03,141211,,,D*7E
$GPVTG,113.03,T,,M,2.67,N,5.0,K,D*0E
$GPGGA,200841.000,3748.7312,N,12217.7498,W,2,04,3.1,28.2,M,-25.1,M,1.8,0000*7A
$GPGSA,A,3,26,18,29,15,,,,,,,,,4.5,3.1,3.3*33
$GPRMC,200841.000,A,3748.7312,N,12217.7498,W,2.40,110.70,141211,,,D*7B
$GPVTG,110.70,T,,M,2.40,N,4.4,K,D*09
$GPGGA,200842.000,3748.7314,N,12217.7493,W,2,04,3.1,27.1,M,-25.1,M,2.8,0000*7B
$GPGSA,A,3,26,18,29,15,,,,,,,,,4.5,3.1,3.3*33
$GPGSV,3,1,12,29,71,112,31,21,57,298,22,18,46,209,38,30,29,292,27*78
$GPGSV,3,2,12,15,29,118,33,26,23,078,21,05,21,044,20,16,15,318,19*70
$GPGSV,3,3,12,25,15,185,33,22,06,218,28,06,04,311,17,46,39,142,32*7B
$GPRMC,200842.000,A,3748.7314,N,12217.7493,W,2.26,115.07,141211,,,D*70
$GPVTG,115.07,T,,M,2.26,N,4.2,K,D*0A
$GPGGA,200843.000,3748.7325,N,12217.7491,W,2,04,3.1,24.3,M,-25.1,M,3.8,0000*7A
$GPGSA,A,3,26,18,29,15,,,,,,,,,4.5,3.1,3.3*33
$GPRMC,200843.000,A,3748.7325,N,12217.7491,W,2.34,115.88,141211,,,D*75
$GPVTG,115.88,T,,M,2.34,N,4.3,K,D*0F
$GPGGA,200844.000,3748.7333,N,12217.7489,W,2,04,3.1,22.0,M,-25.1,M,1.8,0000*74
$GPGSA,A,3,26,18,29,15,,,,,,,,,4.5,3.1,3.3*33
$GPRMC,200844.000,A,3748.7333,N,12217.7489,W,2.27,113.42,141211,,,D*7E
$GPVTG,113.42,T,,M,2.27,N,4.2,K,D*0C
$GPGGA,200845.000,3748.7339,N,12217.7486,W,2,04,3.1,20.0,M,-25.1,M,1.8,0000*72
$GPGSA,A,3,26,18,29,15,,,,,,,,,4.5,3.1,3.3*33
$GPRMC,200845.000,A,3748.7339,N,12217.7486,W,2.12,118.04,141211,,,D*75
$GPVTG,118.04,T,,M,2.12,N,3.9,K,D*0F
$GPGGA,200846.000,3748.7343,N,12217.7482,W,2,04,3.1,18.7,M,-25.1,M,2.8,0000*77
$GPGSA,A,3,26,18,29,15,,,,,,,,,4.5,3.1,3.3*33
$GPRMC,200846.000,A,3748.7343,N,12217.7482,W,2.22,116.75,141211,,,D*74
$GPVTG,116.75,T,,M,2.22,N,4.1,K,D*0B
$GPGGA,200847.000,3748.7348,N,12217.7477,W,2,04,3.1,17.5,M,-25.1,M,1.8,0000*79
$GPGSA,A,3,26,18,29,15,,,,,,,,,4.5,3.1,3.3*33
$GPGSV,3,1,12,29,71,113,30,21,57,298,24,18,46,209,38,30,29,292,27*7E
$GPGSV,3,2,12,15,29,118,34,26,23,078,29,05,21,044,25,16,15,318,19*7A
$GPGSV,3,3,12,25,15,185,38,22,06,218,28,06,04,311,18,46,39,142,33*7E
$GPRMC,200847.000,A,3748.7348,N,12217.7477,W,2.23,111.79,141211,,,D*7E
$GPVTG,111.79,T,,M,2.23,N,4.1,K,D*01
$GPGGA,200848.000,3748.7353,N,12217.7473,W,2,04,3.1,16.5,M,-25.1,M,2.8,0000*7A
$GPGSA,A,3,26,18,29,15,,,,,,,,,4.5,3.1,3.3*33
$GPRMC,200848.000,A,3748.7353,N,12217.7473,W,2.59,113.73,141211,,,D*7A
$GPVTG,113.73,T,,M,2.59,N,4.8,K,D*0D
$GPGGA,200849.000,3748.7359,N,12217.7470,W,2,04,3.1,15.5,M,-25.1,M,3.8,0000*70
$GPGSA,A,3,26,18,29,15,,,,,,,,,4.5,3.1,3.3*33
$GPRMC,200849.000,A,3748.7359,N,12217.7470,W,2.30,113.39,141211,,,D*73
$GPVTG,113.39,T,,M,2.30,N,4.3,K,D*07
$GPGGA,200850.000,3748.7363,N,12217.7465,W,2,04,3.1,14.2,M,-25.1,M,4.8,0000*74
$GPGSA,A,3,26,18,29,15,,,,,,,,,4.5,3.1,3.3*33
$GPRMC,200850.000,A,3748.7363,N,12217.7465,W,2.26,108.29,141211,,,D*7A
$GPVTG,108.29,T,,M,2.26,N,4.2,K,D*0A
$GPGGA,200851.000,3748.7363,N,12217.7459,W,2,04,3.1,13.8,M,-25.1,M,5.8,0000*76
$GPGSA,A,3,26,18,29,15,,,,,,,,,4.5,3.1,3.3*33
$GPRMC,200851.000,A,3748.7363,N,12217.7459,W,1.87,106.58,141211,,,D*74
$GPVTG,106.58,T,,M,1.87,N,3.5,K,D*0A
$GPGGA,200852.000,3748.7356,N,12217.7451,W,2,04,3.1,14.2,M,-25.1,M,6.8,0000*75
$GPGSA,A,3,26,18,29,15,,,,,,,,,4.5,3.1,3.3*33
$GPGSV,3,1,11,29,71,113,31,21,57,298,23,18,46,209,38,30,29,292,27*7B
$GPGSV,3,2,11,15,29,118,28,26,23,078,22,05,21,044,25,16,15,318,18*7E
$GPGSV,3,3,11,25,15,185,38,22,06,218,25,06,04,311,18*4F
$GPVTG,101.69,T,,M,1.24,N,2.3,K,D*01
$GPGGA,200853.000,3748.7347,N,12217.7443,W,2,04,3.1,15.6,M,-25.1,M,7.8,0000*73
$GPGSA,A,3,26,18,29,15,,,,,,,,,4.5,3.1,3.3*33
$GPRMC,200853.000,A,3748.7347,N,12217.7443,W,1.62,116.61,141211,,,D*7B
$GPVTG,116.61,T,,M,1.62,N,3.0,K,D*0F
$GPGGA,200854.000,3748.7340,N,12217.7436,W,2,04,3.1,16.7,M,-25.1,M,8.8,0000*7C
$GPGSA,A,3,26,18,29,15,,,,,,,,,4.5,3.1,3.3*33
$GPRMC,200854.000,A,3748.7340,N,12217.7436,W,2.13,120.40,141211,,,D*7A
$GPVTG,120.40,T,,M,2.13,N,3.9,K,D*05
$GPGGA,200855.000,3748.7337,N,12217.7431,W,2,04,3.1,16.1,M,-25.1,M,9.8,0000*7D
$GPGSA,A,3,26,18,29,15,,,,,,,,,4.5,3.1,3.3*33
$GPRMC,200855.000,A,3748.7337,N,12217.7431,W,2.28,118.13,141211,,,D*79
$GPVTG,118.13,T,,M,2.28,N,4.2,K,D*0C
$GPGGA,200856.000,3748.7332,N,12217.7423,W,2,04,3.1,16.0,M,-25.1,M,10.8,0000*41
$GPGSA,A,3,26,18,29,15,,,,,,,,,4.5,3.1,3.3*33
$GPRMC,200856.000,A,3748.7332,N,12217.7423,W,2.47,126.95,141211,,,D*76
$GPVTG,126.95,T,,M,2.47,N,4.6,K,D*02
$GPGGA,200857.000,3748.7330,N,12217.7413,W,2,04,3.1,17.5,M,-25.1,M,11.8,0000*44
$GPGSA,A,3,26,18,29,15,,,,,,,,,4.5,3.1,3.3*33
$GPGSV,3,1,12,29,71,113,28,21,57,298,23,18,46,209,29,30,29,292,26*71
$GPGSV,3,2,12,15,29,118,35,26,23,078,23,05,21,044,24,16,15,318,19*70
$GPGSV,3,3,12,25,15,185,38,22,06,218,20,06,04,311,18,46,39,142,25*71
$GPRMC,200857.000,A,3748.7330,N,12217.7413,W,2.48,135.08,141211,,,D*7F
$GPVTG,135.08,T,,M,2.48,N,4.6,K,D*0B
$GPGGA,200858.000,3748.7319,N,12217.7404,W,2,04,3.1,17.6,M,-25.1,M,12.8,0000*46
$GPGSA,A,3,26,18,29,15,,,,,,,,,4.5,3.1,3.3*33
$GPRMC,200858.000,A,3748.7319,N,12217.7404,W,3.34,141.49,141211,,,D*71
$GPVTG,141.49,T,,M,3.34,N,6.2,K,D*01
$GPGGA,200859.000,3748.7313,N,12217.7396,W,2,04,3.1,18.5,M,-25.1,M,13.8,0000*4C
$GPGSA,A,3,26,18,29,15,,,,,,,,,4.5,3.1,3.3*33
$GPRMC,200859.000,A,3748.7313,N,12217.7396,W,2.65,134.87,141211,,,D*73
$GPVTG,134.87,T,,M,2.65,N,4.9,K,D*0D
$GPGGA,200900.000,3748.7318,N,12217.7395,W,2,04,3.1,15.6,M,-25.1,M,14.8,0000*40
$GPGSA,A,3,26,18,29,15,,,,,,,,,4.5,3.1,3.3*33
$GPRMC,200900.000,A,3748.7318,N,12217.7395,W,2.53,129.59,141211,,,D*7C
$GPVTG,129.59,T,,M,2.53,N,4.7,K,D*09
$GPGGA,200901.000,3748.7321,N,12217.7390,W,2,04,3.1,14.8,M,-25.1,M,15.8,0000*40
$GPGSA,A,3,26,18,29,15,,,,,,,,,4.5,3.1,3.3*33
$GPRMC,200901.000,A,3748.7321,N,12217.7390,W,2.17,124.36,141211,,,D*76
$GPVTG,124.36,T,,M,2.17,N,4.0,K,D*0A
$GPGGA,200902.000,3748.7319,N,12217.7386,W,2,04,3.1,11.7,M,-25.1,M,16.8,0000*46
$GPGSA,A,3,26,18,29,15,,,,,,,,,4.5,3.1,3.3*33
$GPGSV,3,1,12,29,71,113,27,21,57,298,23,18,46,209,33,30,29,292,23*70
$GPGSV,3,2,12,15,29,118,28,26,23,078,27,05,21,044,19,16,15,318,20*7C
$GPGSV,3,3,12,25,15,185,39,22,06,218,26,06,04,311,,46,39,142,25*7F
$GPRMC,200902.000,A,3748.7319,N,12217.7386,W,2.27,114.33,141211,,,D*7C
$GPVTG,114.33,T,,M,2.27,N,4.2,K,D*0D
$GPGGA,200903.000,3748.7315,N,12217.7381,W,2,04,3.1,9.7,M,-25.1,M,17.8,0000*74
$GPGSA,A,3,26,18,29,15,,,,,,,,,4.5,3.1,3.3*33
$GPRMC,200903.000,A,3748.7315,N,12217.7381,W,1.95,125.15,141211,,,D*7A
$GPVTG,125.15,T,,M,1.95,N,3.6,K,D*02
$GPGGA,200904.000,3748.7314,N,12217.7377,W,1,04,3.1,7.9,M,-25.1,M,,0000*68
$GPGSA,A,3,26,18,29,15,,,,,,,,,4.5,3.1,3.3*33
$GPRMC,200904.000,A,3748.7314,N,12217.7377,W,2.17,129.32,141211,,,A*70
$GPVTG,129.32,T,,M,2.17,N,4.0,K,A*06
$GPGGA,200905.000,3748.7312,N,12217.7371,W,1,04,3.1,7.9,M,-25.1,M,,0000*69
$GPGSA,A,3,26,18,29,15,,,,,,,,,4.5,3.1,3.3*33
$GPRMC,200905.000,A,3748.7312,N,12217.7371,W,2.12,125.68,141211,,,A*77
$GPVTG,125.68,T,,M,2.12,N,3.9,K,A*0E
$GPGGA,200906.000,3748.7314,N,12217.7366,W,1,04,3.1,8.2,M,-25.1,M,,0000*6E
$GPGSA,A,3,26,18,29,15,,,,,,,,,4.5,3.1,3.3*33
$GPRMC,200906.000,A,3748.7314,N,12217.7366,W,1.79,128.42,141211,,,A*7F
$GPVTG,128.42,T,,M,1.79,N,3.3,K,A*0F
$GPGGA,200907.000,3748.7313,N,12217.7360,W,1,04,3.1,7.9,M,-25.1,M,,0000*6A
$GPGSA,A,3,26,18,29,15,,,,,,,,,4.5,3.1,3.3*33
$GPGSV,3,1,11,29,71,113,28,21,57,298,22,18,46,209,35,30,29,292,24*7C
$GPGSV,3,2,11,15,29,118,27,26,23,078,30,05,21,044,21,16,15,318,21*7C
$GPGSV,3,3,11,25,15,185,42,22,06,218,32,06,04,311,17*4B
$GPVTG,132.27,T,,M,2.38,N,4.4,K,A*01
$GPGGA,200908.000,3748.7317,N,12217.7356,W,1,04,3.1,8.8,M,-25.1,M,,0000*6A
$GPGSA,A,3,26,18,29,15,,,,,,,,,4.5,3.1,3.3*33
$GPRMC,200908.000,A,3748.7317,N,12217.7356,W,1.63,112.23,141211,,,A*74
$GPVTG,112.23,T,,M,1.63,N,3.0,K,A*09
$GPGGA,200909.000,3748.7314,N,12217.7346,W,1,04,3.1,9.8,M,-25.1,M,,0000*68
$GPGSA,A,3,26,18,29,15,,,,,,,,,4.5,3.1,3.3*33
$GPRMC,200909.000,A,3748.7314,N,12217.7346,W,2.20,117.77,141211,,,A*77
$GPVTG,117.77,T,,M,2.20,N,4.1,K,A*0F
$GPGGA,200910.000,3748.7305,N,12217.7341,W,1,04,3.1,7.8,M,-25.1,M,,0000*69
$GPGSA,A,3,26,18,29,15,,,,,,,,,4.5,3.1,3.3*33
$GPRMC,200910.000,A,3748.7305,N,12217.7341,W,2.82,145.18,141211,,,A*7E
$GPVTG,145.18,T,,M,2.82,N,5.2,K,A*0B
$GPGGA,200911.000,3748.7295,N,12217.7331,W,1,04,3.1,8.1,M,-25.1,M,,0000*61
$GPGSA,A,3,26,18,29,15,,,,,,,,,4.5,3.1,3.3*33
$GPRMC,200911.000,A,3748.7295,N,12217.7331,W,2.61,134.85,141211,,,A*7F
$GPVTG,134.85,T,,M,2.61,N,4.8,K,A*0F
$GPGGA,200912.000,3748.7293,N,12217.7321,W,1,04,3.1,7.2,M,-25.1,M,,0000*69
$GPGSA,A,3,26,18,29,15,,,,,,,,,4.5,3.1,3.3*33
$GPGSV,3,1,11,29,71,113,24,21,57,298,23,18,47,209,31,30,29,292,23*73
$GPGSV,3,2,11,15,29,118,27,26,23,078,23,05,21,044,21,16,16,318,20*7C
$GPGSV,3,3,11,25,14,185,34,22,06,218,,06,04,311,16*4B
$GPRMC,200912.000,A,3748.7293,N,12217.7321,W,2.30,130.49,141211,,,A*7B
$GPVTG,130.49,T,,M,2.30,N,4.3,K,A*04
$GPGGA,200913.000,3748.7291,N,12217.7316,W,1,04,3.1,4.7,M,-25.1,M,,0000*68
$GPGSA,A,3,26,18,29,15,,,,,,,,,4.5,3.1,3.3*33
$GPRMC,200913.000,A,3748.7291,N,12217.7316,W,2.00,132.95,141211,,,A*7C
$GPVTG,132.95,T,,M,2.00,N,3.7,K,A*07
$GPGGA,200914.000,3748.7291,N,12217.7317,W,1,04,3.1,1.5,M,-25.1,M,,0000*69
$GPGSA,A,3,26,18,29,15,,,,,,,,,4.5,3.1,3.3*33
$GPRMC,200914.000,A,3748.7291,N,12217.7317,W,1.82,133.51,141211,,,A*7A
$GPVTG,133.51,T,,M,1.82,N,3.4,K,A*04
$GPGGA,200915.000,3748.7291,N,12217.7311,W,1,04,3.1,0.9,M,-25.1,M,,0000*63
$GPGSA,A,3,26,18,29,15,,,,,,,,,4.5,3.1,3.3*33
$GPRMC,200915.000,A,3748.7291,N,12217.7311,W,1.79,116.81,141211,,,A*73
$GPVTG,116.81,T,,M,1.79,N,3.3,K,A*0D
$GPGGA,200916.000,3748.7290,N,12217.7306,W,1,04,3.1,-0.9,M,-25.1,M,,0000*4A
$GPGSA,A,3,26,18,29,15,,,,,,,,,4.5,3.1,3.3*33
$GPRMC,200916.000,A,3748.7290,N,12217.7306,W,1.92,108.77,141211,,,A*74
$GPVTG,108.77,T,,M,1.92,N,3.5,K,A*08
$GPGGA,200917.000,3748.7289,N,12217.7299,W,1,04,3.1,-1.6,M,-25.1,M,,0000*4A
$GPGSA,A,3,26,18,29,15,,,,,,,,,4.5,3.1,3.3*33
$GPGSV,3,1,12,29,71,113,27,21,57,298,22,18,47,209,32,30,29,292,21*73
$GPGSV,3,2,12,15,29,118,35,26,23,078,30,05,21,044,21,16,16,318,20*7E
$GPGSV,3,3,12,25,14,185,39,22,06,218,20,06,04,311,15,46,39,142,29*70
$GPRMC,200917.000,A,3748.7289,N,12217.7299,W,1.88,124.39,141211,,,A*75
$GPVTG,124.39,T,,M,1.88,N,3.5,K,A*07
$GPGGA,200918.000,3748.7286,N,12217.7291,W,1,04,3.1,-1.1,M,-25.1,M,,0000*45
$GPGSA,A,3,26,18,29,15,,,,,,,,,4.5,3.1,3.3*33
$GPRMC,200918.000,A,3748.7286,N,12217.7291,W,1.86,113.12,141211,,,A*7E
$GPVTG,113.12,T,,M,1.86,N,3.4,K,A*05
$GPGGA,200919.000,3748.7272,N,12217.7278,W,1,04,3.1,1.3,M,-25.1,M,,0000*67
$GPGSA,A,3,26,18,29,15,,,,,,,,,4.5,3.1,3.3*33
$GPRMC,200919.000,A,3748.7272,N,12217.7278,W,2.31,127.00,141211,,,A*78
$GPVTG,127.00,T,,M,2.31,N,4.3,K,A*0E
$GPGGA,200920.000,3748.7264,N,12217.7268,W,1,04,3.1,2.4,M,-25.1,M,,0000*6F
$GPGSA,A,3,26,18,29,15,,,,,,,,,4.5,3.1,3.3*33
$GPRMC,200920.000,A,3748.7264,N,12217.7268,W,2.55,131.96,141211,,,A*7E
$GPVTG,131.96,T,,M,2.55,N,4.7,K,A*00
$GPGGA,200921.000,3748.7255,N,12217.7257,W,1,04,3.1,3.8,M,-25.1,M,,0000*6D
$GPGSA,A,3,26,18,29,15,,,,,,,,,4.5,3.1,3.3*33
$GPRMC,200921.000,A,3748.7255,N,12217.7257,W,2.84,134.46,141211,,,A*75
$GPVTG,134.46,T,,M,2.84,N,5.3,K,A*01
$GPGGA,200922.000,3748.7245,N,12217.7247,W,1,04,3.1,4.9,M,-25.1,M,,0000*68
$GPGSA,A,3,26,18,29,15,,,,,,,,,4.5,3.1,3.3*33
$GPGSV,3,1,12,29,71,113,30,21,57,298,21,18,47,209,36,30,29,292,21*72
$GPGSV,3,2,12,15,29,118,35,26,23,078,20,05,21,044,27,16,16,318,16*7C
$GPGSV,3,3,12,25,14,185,37,22,06,218,19,06,04,311,15,46,39,142,35*79
$GPRMC,200922.000,A,3748.7245,N,12217.7247,W,2.94,128.30,141211,,,A*7B
$GPGGA,200923.000,3748.7236,N,12217.7237,W,1,04,3.1,5.3,M,-25.1,M,,0000*61
$GPGSA,A,3,26,18,29,15,,,,,,,,,4.5,3.1,3.3*33
$GPRMC,200923.000,A,3748.7236,N,12217.7237,W,2.84,120.89,141211,,,A*72
$GPVTG,120.89,T,,M,2.84,N,5.3,K,A*07
$GPGGA,200924.000,3748.7227,N,12217.7226,W,1,04,3.1,6.1,M,-25.1,M,,0000*67
$GPGSA,A,3,26,18,29,15,,,,,,,,,4.5,3.1,3.3*33
$GPRMC,200924.000,A,3748.7227,N,12217.7226,W,2.74,114.65,141211,,,A*7F
$GPVTG,114.65,T,,M,2.74,N,5.1,K,A*0F
$GPGGA,200925.000,3748.7218,N,12217.7214,W,1,04,3.1,7.2,M,-25.1,M,,0000*69
$GPGSA,A,3,26,18,29,15,,,,,,,,,4.5,3.1,3.3*33
$GPRMC,200925.000,A,3748.7218,N,12217.7214,W,2.97,128.69,141211,,,A*7D
$GPVTG,128.69,T,,M,2.97,N,5.5,K,A*05
$GPGGA,200926.000,3748.7197,N,12217.7200,W,1,04,3.1,9.7,M,-25.1,M,,0000*60
$GPGSA,A,3,26,18,29,15,,,,,,,,,4.5,3.1,3.3*33
$GPRMC,200926.000,A,3748.7197,N,12217.7200,W,3.81,143.77,141211,,,A*7B
$GPVTG,143.77,T,,M,3.81,N,7.1,K,A*07
$GPGGA,200927.000,3748.7178,N,12217.7186,W,2,04,3.1,12.4,M,-25.1,M,1.8,0000*70
$GPGSA,A,3,26,18,29,15,,,,,,,,,4.5,3.1,3.3*33
$GPGSV,3,1,12,29,71,113,30,21,57,298,23,18,47,209,37,30,29,292,21*71
$GPGSV,3,2,12,15,29,118,35,26,23,078,20,05,21,044,25,16,16,318,17*7F
$GPGSV,3,3,12,25,14,185,32,22,06,218,19,06,04,311,15,46,39,142,33*7A
$GPRMC,200927.000,A,3748.7178,N,12217.7186,W,3.92,142.14,141211,,,D*75
$GPVTG,142.14,T,,M,3.92,N,7.3,K,D*06
$GPGGA,200928.000,3748.7173,N,12217.7177,W,2,04,3.1,13.5,M,-25.1,M,1.8,0000*7A
$GPGSA,A,3,26,18,29,15,,,,,,,,,4.5,3.1,3.3*33
$GPRMC,200928.000,A,3748.7173,N,12217.7177,W,3.43,131.32,141211,,,D*73
$GPVTG,131.32,T,,M,3.43,N,6.4,K,D*0C
$GPGGA,200929.000,3748.7179,N,12217.7173,W,2,04,3.1,12.0,M,-25.1,M,1.8,0000*71
$GPGSA,A,3,26,18,29,15,,,,,,,,,4.5,3.1,3.3*33
$GPRMC,200929.000,A,3748.7179,N,12217.7173,W,3.09,121.60,141211,,,D*74
$GPVTG,121.60,T,,M,3.09,N,5.7,K,D*04
$GPGGA,200930.000,3748.7189,N,12217.7170,W,2,04,3.1,9.9,M,-25.1,M,1.8,0000*46
$GPGSA,A,3,26,18,29,15,,,,,,,,,4.5,3.1,3.3*33
$GPRMC,200930.000,A,3748.7189,N,12217.7170,W,2.69,115.55,141211,,,D*76
$GPVTG,115.55,T,,M,2.69,N,5.0,K,D*05
$GPGGA,200931.000,3748.7196,N,12217.7166,W,2,04,3.1,8.5,M,-25.1,M,2.8,0000*40
$GPGSA,A,3,26,18,29,15,,,,,,,,,4.5,3.1,3.3*33
$GPRMC,200931.000,A,3748.7196,N,12217.7166,W,2.49,116.61,141211,,,D*78
$GPVTG,116.61,T,,M,2.49,N,4.6,K,D*04
$GPGGA,200932.000,3748.7202,N,12217.7162,W,2,04,3.1,7.3,M,-25.1,M,3.8,0000*41
$GPGSA,A,3,26,18,29,15,,,,,,,,,4.5,3.1,3.3*33
$GPGSV,3,1,12,29,71,113,31,21,57,298,22,18,47,209,38,30,29,292,24*7B
$GPGSV,3,2,12,15,29,118,35,26,23,078,29,05,21,044,19,16,16,318,18*76
$GPGSV,3,3,12,25,14,185,41,22,06,218,20,06,04,311,15,46,39,142,33*74
$GPRMC,200932.000,A,3748.7202,N,12217.7162,W,2.48,116.44,141211,,,D*77
$GPVTG,116.44,T,,M,2.48,N,4.6,K,D*02
$GPGGA,200933.000,3748.7206,N,12217.7157,W,2,04,3.1,6.4,M,-25.1,M,1.8,0000*46
$GPGSA,A,3,26,18,29,15,,,,,,,,,4.5,3.1,3.3*33
$GPRMC,200933.000,A,3748.7206,N,12217.7157,W,2.32,112.93,141211,,,D*77
$GPVTG,112.93,T,,M,2.32,N,4.3,K,D*04
$GPGGA,200934.000,3748.7210,N,12217.7152,W,2,04,3.1,5.7,M,-25.1,M,1.8,0000*43
$GPGSA,A,3,26,18,29,15,,,,,,,,,4.5,3.1,3.3*33
$GPRMC,200934.000,A,3748.7210,N,12217.7152,W,2.32,116.17,141211,,,D*7A
$GPVTG,116.17,T,,M,2.32,N,4.3,K,D*0C
$GPGGA,200935.000,3748.7214,N,12217.7146,W,2,04,3.1,6.2,M,-25.1,M,2.8,0000*46
$GPGSA,A,3,26,18,29,15,,,,,,,,,4.5,3.1,3.3*33
$GPRMC,200935.000,A,3748.7214,N,12217.7146,W,2.25,114.07,141211,,,D*7F
$GPVTG,114.07,T,,M,2.25,N,4.2,K,D*08
$GPGGA,200936.000,3748.7217,N,12217.7140,W,2,04,3.1,4.8,M,-25.1,M,3.8,0000*49
$GPGSA,A,3,26,18,29,15,,,,,,,,,4.5,3.1,3.3*33
$GPRMC,200936.000,A,3748.7217,N,12217.7140,W,2.66,107.04,141211,,,D*7F
$GPVTG,107.04,T,,M,2.66,N,4.9,K,D*05
$GPGGA,200937.000,3748.7221,N,12217.7133,W,2,04,3.1,3.7,M,-25.1,M,4.8,0000*46
$GPGSA,A,3,26,18,29,15,,,,,,,,,4.5,3.1,3.3*33
$GPGSV,3,1,12,29,71,113,31,21,57,298,22,18,47,209,36,30,29,292,24*75
$GPGSV,3,2,12,15,29,118,35,26,23,078,32,05,21,044,27,16,16,318,19*70
$GPGSV,3,3,12,25,14,185,37,22,06,218,21,06,04,311,15,46,39,142,32*75
$GPVTG,86.84,T,,M,2.74,N,5.1,K,D*3F
$GPGGA,200938.000,3748.7228,N,12217.7122,W,2,04,3.1,3.1,M,-25.1,M,5.8,0000*47
$GPGSA,A,3,26,18,29,15,,,,,,,,,4.5,3.1,3.3*33
$GPRMC,200938.000,A,3748.7228,N,12217.7122,W,2.55,64.50,141211,,,D*4C
$GPVTG,64.50,T,,M,2.55,N,4.7,K,D*3E
$GPGGA,200939.000,3748.7235,N,12217.7112,W,2,04,3.1,2.8,M,-25.1,M,0.8,0000*44
$GPGSA,A,3,26,18,29,15,,,,,,,,,4.5,3.1,3.3*33
$GPRMC,200939.000,A,3748.7235,N,12217.7112,W,2.55,56.18,141211,,,D*4F
$GPVTG,56.18,T,,M,2.55,N,4.7,K,D*33
$GPGGA,200940.000,3748.7244,N,12217.7110,W,2,04,3.1,1.5,M,-25.1,M,1.8,0000*41
$GPGSA,A,3,26,18,29,15,,,,,,,,,4.5,3.1,3.3*33
$GPRMC,200940.000,A,3748.7244,N,12217.7110,W,2.63,45.95,141211,,,D*47
$GPVTG,45.95,T,,M,2.63,N,4.9,K,D*3F
$GPGGA,200941.000,3748.7253,N,12217.7112,W,2,04,3.1,-0.1,M,-25.1,M,1.8,0000*6C
$GPGSA,A,3,26,18,29,15,,,,,,,,,4.5,3.1,3.3*33
$GPRMC,200941.000,A,3748.7253,N,12217.7112,W,2.38,25.87,141211,,,D*49
$GPVTG,25.87,T,,M,2.38,N,4.4,K,D*39
$GPGGA,200942.000,3748.7262,N,12217.7108,W,2,04,3.1,-0.8,M,-25.1,M,2.8,0000*6C
$GPGSA,A,3,26,18,29,15,,,,,,,,,4.5,3.1,3.3*33
$GPGSV,3,1,12,29,71,113,32,21,57,298,22,18,47,209,23,30,29,292,20*76
$GPGSV,3,2,12,15,29,118,40,26,23,078,40,05,21,044,37,16,16,318,20*7C
$GPGSV,3,3,12,25,14,185,30,22,06,218,20,06,04,311,15,46,39,142,33*72
$GPRMC,200942.000,A,3748.7262,N,12217.7108,W,2.29,16.21,141211,,,D*4F
$GPVTG,16.21,T,,M,2.29,N,4.2,K,D*33
$GPGGA,200943.000,3748.7271,N,12217.7096,W,2,04,3.1,-0.0,M,-25.1,M,3.8,0000*60
$GPGSA,A,3,26,18,29,15,,,,,,,,,4.5,3.1,3.3*33
$GPRMC,200943.000,A,3748.7271,N,12217.7096,W,2.34,17.50,141211,,,D*41
$GPVTG,17.50,T,,M,2.34,N,4.3,K,D*39
$GPGGA,200944.000,3748.7278,N,12217.7085,W,2,04,3.1,0.6,M,-25.1,M,4.8,0000*40
$GPGSA,A,3,26,18,29,15,,,,,,,,,4.5,3.1,3.3*33
$GPRMC,200944.000,A,3748.7278,N,12217.7085,W,2.33,23.93,141211,,,D*42
$GPVTG,23.93,T,,M,2.33,N,4.3,K,D*36
$GPGGA,200945.000,3748.7286,N,12217.7080,W,2,04,3.1,0.3,M,-25.1,M,1.8,0000*45
$GPGSA,A,3,26,18,29,15,,,,,,,,,4.5,3.1,3.3*33
$GPRMC,200945.000,A,3748.7286,N,12217.7080,W,2.59,26.80,141211,,,D*4C
$GPVTG,26.80,T,,M,2.59,N,4.8,K,D*36
$GPGGA,200946.000,3748.7295,N,12217.7074,W,2,04,3.1,0.4,M,-25.1,M,2.8,0000*4B
$GPGSA,A,3,26,18,29,15,,,,,,,,,4.5,3.1,3.3*33
$GPRMC,200946.000,A,3748.7295,N,12217.7074,W,2.55,17.08,141211,,,D*48
$GPVTG,17.08,T,,M,2.55,N,4.7,K,D*37
$GPGGA,200947.000,3748.7303,N,12217.7076,W,2,04,3.1,-0.6,M,-25.1,M,3.8,0000*68
$GPGSA,A,3,26,18,29,15,,,,,,,,,4.5,3.1,3.3*33
$GPGSV,3,1,12,29,71,113,33,21,57,298,22,18,47,209,24,30,29,292,19*7A
$GPGSV,3,2,12,15,29,118,36,26,23,078,40,05,21,044,38,16,16,318,25*77
$GPGSV,3,3,12,25,14,185,30,22,06,218,19,06,04,311,15,46,39,142,33*78
$GPRMC,200947.000,A,3748.7303,N,12217.7076,W,2.50,18.23,141211,,,D*46
$GPVTG,18.23,T,,M,2.50,N,4.6,K,D*35
$GPGGA,200948.000,3748.7311,N,12217.7068,W,2,04,3.1,-0.0,M,-25.1,M,1.8,0000*6F
$GPGSA,A,3,26,18,29,15,,,,,,,,,4.5,3.1,3.3*33
$GPRMC,200948.000,A,3748.7311,N,12217.7068,W,2.35,16.50,141211,,,D*4C
$GPVTG,16.50,T,,M,2.35,N,4.4,K,D*3E
$GPGGA,200949.000,3748.7318,N,12217.7057,W,2,04,3.1,0.5,M,-25.1,M,2.8,0000*40
$GPGSA,A,3,26,18,29,15,,,,,,,,,4.5,3.1,3.3*33
$GPRMC,200949.000,A,3748.7318,N,12217.7057,W,2.51,21.35,141211,,,D*4D
$GPVTG,21.35,T,,M,2.51,N,4.6,K,D*39
$GPGGA,200950.000,3748.7325,N,12217.7044,W,2,04,3.1,1.8,M,-25.1,M,3.8,0000*49
$GPGSA,A,3,26,18,29,15,,,,,,,,,4.5,3.1,3.3*33
$GPRMC,200950.000,A,3748.7325,N,12217.7044,W,2.40,25.00,141211,,,D*4B
$GPVTG,25.00,T,,M,2.40,N,4.4,K,D*39
$GPGGA,200951.000,3748.7332,N,12217.7037,W,2,04,3.1,2.2,M,-25.1,M,4.8,0000*44
$GPGSA,A,3,26,18,29,15,,,,,,,,,4.5,3.1,3.3*33
$GPRMC,200951.000,A,3748.7332,N,12217.7037,W,2.35,21.66,141211,,,D*4E
$GPVTG,21.66,T,,M,2.35,N,4.4,K,D*3F
$GPGGA,200952.000,3748.7340,N,12217.7032,W,2,04,3.1,2.2,M,-25.1,M,1.8,0000*42
$GPGSA,A,3,26,18,29,15,,,,,,,,,4.5,3.1,3.3*33
$GPGSV,3,1,12,29,71,113,32,21,57,298,23,18,47,209,25,30,29,292,22*73
$GPGSV,3,2,12,15,29,118,38,26,23,078,40,05,21,044,40,16,16,318,25*76
$GPGSV,3,3,12,25,14,185,24,22,06,218,19,06,04,311,16,46,39,142,31*7C
$GPRMC,200952.000,A,3748.7340,N,12217.7032,W,2.51,18.48,141211,,,D*49
$GPGGA,200953.000,3748.7348,N,12217.7028,W,2,04,3.1,2.1,M,-25.1,M,1.8,0000*43
$GPGSA,A,3,26,18,29,15,,,,,,,,,4.5,3.1,3.3*33
$GPRMC,200953.000,A,3748.7348,N,12217.7028,W,2.59,19.98,141211,,,D*4F
$GPVTG,19.98,T,,M,2.59,N,4.8,K,D*33
$GPGGA,200954.000,3748.7357,N,12217.7031,W,2,04,3.1,0.8,M,-25.1,M,2.8,0000*4A
$GPGSA,A,3,26,18,29,15,,,,,,,,,4.5,3.1,3.3*33
$GPRMC,200954.000,A,3748.7357,N,12217.7031,W,2.55,15.71,141211,,,D*49
$GPVTG,15.71,T,,M,2.55,N,4.7,K,D*3B
$GPGGA,200955.000,3748.7365,N,12217.7030,W,2,04,3.1,0.2,M,-25.1,M,1.8,0000*42
$GPGSA,A,3,26,18,29,15,,,,,,,,,4.5,3.1,3.3*33
$GPRMC,200955.000,A,3748.7365,N,12217.7030,W,2.64,17.45,141211,,,D*4F
$GPVTG,17.45,T,,M,2.64,N,4.9,K,D*32
$GPGGA,200956.000,3748.7373,N,12217.7020,W,2,04,3.1,0.8,M,-25.1,M,2.8,0000*4E
$GPGSA,A,3,26,18,29,15,,,,,,,,,4.5,3.1,3.3*33
$GPRMC,200956.000,A,3748.7373,N,12217.7020,W,2.87,20.32,141211,,,D*43
$GPVTG,20.32,T,,M,2.87,N,5.3,K,D*30
$GPGGA,200957.000,3748.7381,N,12217.7014,W,2,04,3.1,0.8,M,-25.1,M,1.8,0000*46
$GPGSA,A,3,26,18,29,15,,,,,,,,,4.5,3.1,3.3*33
$GPGSV,3,1,12,29,71,113,33,21,57,298,21,18,47,209,25,30,29,292,24*76
$GPGSV,3,2,12,15,29,118,38,26,23,078,40,05,21,044,39,16,16,318,20*7D
$GPGSV,3,3,12,25,14,185,25,22,06,218,18,06,04,311,15,46,39,142,32*7C
$GPRMC,200957.000,A,3748.7381,N,12217.7014,W,2.62,19.96,141211,,,D*47
$GPVTG,19.96,T,,M,2.62,N,4.9,K,D*34
$GPGGA,200958.000,3748.7389,N,12217.7012,W,2,04,3.1,0.1,M,-25.1,M,1.8,0000*4E
$GPGSA,A,3,26,18,29,15,,,,,,,,,4.5,3.1,3.3*33
$GPRMC,200958.000,A,3748.7389,N,12217.7012,W,2.42,19.37,141211,,,D*4F
$GPVTG,19.37,T,,M,2.42,N,4.5,K,D*31
$GPGGA,200959.000,3748.7396,N,12217.7007,W,2,04,3.1,0.1,M,-25.1,M,2.8,0000*46
$GPGSA,A,3,26,18,29,15,,,,,,,,,4.5,3.1,3.3*33
$GPRMC,200959.000,A,3748.7396,N,12217.7007,W,2.45,14.84,141211,,,D*46
