$ADVER,3080,2.3
$GPRMC,180604.070,A,3748.7989,N,12217.8576,W,0.23,230.04,270312,,,A*7D
$GPGGA,180605.070,3748.7989,N,12217.8576,W,1,04,2.6,-5.4,M,-25.1,M,,0000*48
$GPGSA,A,3,19,11,14,22,,,,,,,,,5.8,2.6,5.2*31
$GPRMC,180605.070,A,3748.7989,N,12217.8576,W,0.15,195.38,270312,,,A*7A
$GPVTG,195.38,T,,M,0.15,N,0.3,K,A*0C
$GPGGA,180606.070,3748.7989,N,12217.8576,W,1,04,2.6,-5.3,M,-25.1,M,,0000*4C
$GPGSA,A,3,19,11,14,22,,,,,,,,,5.8,2.6,5.2*31
$GPRMC,180606.070,A,3748.7989,N,12217.8576,W,0.13,210.88,270312,,,A*7A
$GPVTG,210.88,T,,M,0.13,N,0.2,K,A*0E
$GPGGA,180607.000,3748.7989,N,12217.8576,W,1,04,2.6,-5.2,M,-25.1,M,,0000*4B
$GPGSA,A,3,19,11,14,22,,,,,,,,,5.8,2.6,5.2*31
$GPGSV,3,1,12,14,73,039,35,24,54,308,42,22,51,068,39,11,38,301,42*70
$GPGSV,3,2,12,19,33,249,39,31,28,158,35,01,22,315,32,03,13,214,38*7E
$GPGSV,3,3,12,18,12,088,,06,12,204,29,09,03,030,24,48,00,000,40*7F
$GPRMC,180607.000,A,3748.7989,N,12217.8576,W,0.10,207.98,270312,,,A*78
$GPVTG,207.98,T,,M,0.10,N,0.2,K,A*0A
$GPGGA,180608.000,3748.7989,N,12217.8577,W,1,04,2.6,-5.2,M,-25.1,M,,0000*45
$GPGSA,A,3,19,11,14,22,,,,,,,,,5.8,2.6,5.2*31
$GPRMC,180608.000,A,3748.7989,N,12217.8577,W,0.27,293.98,270312,,,A*7F
$GPVTG,293.98,T,,M,0.27,N,0.5,K,A*04
$GPGGA,180609.000,3748.7990,N,12217.8577,W,1,04,2.6,-5.1,M,-25.1,M,,0000*4F
$GPGSA,A,3,19,11,14,22,,,,,,,,,5.8,2.6,5.2*31
$GPRMC,180609.000,A,3748.7990,N,12217.8577,W,0.12,182.84,270312,,,A*7E
$GPVTG,182.84,T,,M,0.12,N,0.2,K,A*0B
$GPGGA,180610.000,3748.7990,N,12217.8577,W,1,04,2.6,-5.1,M,-25.1,M,,0000*47
$GPGSA,A,3,19,11,14,22,,,,,,,,,5.8,2.6,5.2*31
$GPRMC,180610.000,A,3748.7990,N,12217.8577,W,0.16,190.95,270312,,,A*71
$GPVTG,190.95,T,,M,0.16,N,0.3,K,A*0D
$GPGGA,180611.000,3748.7990,N,12217.8577,W,1,04,2.6,-5.1,M,-25.1,M,,0000*46
$GPGSA,A,3,19,11,14,22,,,,,,,,,5.8,2.6,5.2*31
$GPRMC,180611.000,A,3748.7990,N,12217.8577,W,0.19,195.33,270312,,,A*76
$GPVTG,195.33,T,,M,0.19,N,0.3,K,A*0B
$GPGGA,180612.000,3748.7990,N,12217.8577,W,1,04,2.6,-5.1,M,-25.1,M,,0000*45
$GPGSA,A,3,19,11,14,22,,,,,,,,,5.8,2.6,5.2*31
$GPGSV,3,1,12,14,73,039,36,24,54,308,41,22,51,068,39,11,38,301,38*7D
$GPGSV,3,2,12,19,33,249,39,31,28,158,38,01,22,315,37,03,13,214,30*7E
$GPGSV,3,3,12,18,12,088,,06,12,204,22,09,03,030,20,48,44,197,40*7F
$GPRMC,180612.000,A,3748.7990,N,12217.8577,W,0.10,180.71,270312,,,A*7E
$GPGGA,180613.000,3748.7990,N,12217.8578,W,1,04,2.6,-5.0,M,-25.1,M,,0000*4A
$GPGSA,A,3,19,11,14,22,,,,,,,,,5.8,2.6,5.2*31
$GPRMC,180613.000,A,3748.7990,N,12217.8578,W,0.13,198.06,270312,,,A*7A
$GPVTG,198.06,T,,M,0.13,N,0.2,K,A*0B
$GPGGA,180614.000,3748.7990,N,12217.8578,W,1,04,2.6,-4.9,M,-25.1,M,,0000*45
$GPGSA,A,3,19,11,14,22,,,,,,,,,5.8,2.6,5.2*31
$GPRMC,180614.000,A,3748.7990,N,12217.8578,W,0.21,183.77,270312,,,A*70
$GPVTG,183.77,T,,M,0.21,N,0.4,K,A*00
$GPGGA,180615.000,3748.7990,N,12217.8578,W,1,04,2.6,-4.9,M,-25.1,M,,0000*44
$GPGSA,A,3,19,11,14,22,,,,,,,,,5.8,2.6,5.2*31
$GPRMC,180615.000,A,3748.7990,N,12217.8578,W,0.13,185.67,270312,,,A*77
$GPVTG,185.67,T,,M,0.13,N,0.2,K,A*00
$GPGGA,180616.000,3748.7990,N,12217.8578,W,1,04,2.6,-4.8,M,-25.1,M,,0000*46
$GPGSA,A,3,19,11,14,22,,,,,,,,,5.8,2.6,5.2*31
$GPRMC,180616.000,A,3748.7990,N,12217.8578,W,0.34,190.26,270312,,,A*70
$GPVTG,190.26,T,,M,0.34,N,0.6,K,A*00
$GPGGA,180617.000,3748.7989,N,12217.8579,W,1,04,2.6,-4.7,M,-25.1,M,,0000*41
$GPGSA,A,3,19,11,14,22,,,,,,,,,5.8,2.6,5.2*31
$GPGSV,3,1,12,14,73,039,36,24,54,308,41,22,51,068,38,11,38,301,38*7C
$GPGSV,3,2,12,19,33,249,39,31,28,157,37,01,23,315,37,03,13,214,35*7A
$GPGSV,3,3,12,18,12,088,,06,12,204,21,09,03,030,20,48,44,197,40*7C
$GPRMC,180617.000,A,3748.7989,N,12217.8579,W,0.20,191.38,270312,,,A*73
$GPVTG,191.38,T,,M,0.20,N,0.4,K,A*09
$GPGGA,180618.000,3748.7989,N,12217.8579,W,1,04,2.6,-4.6,M,-25.1,M,,0000*4F
$GPGSA,A,3,19,11,14,22,,,,,,,,,5.8,2.6,5.2*31
$GPRMC,180618.000,A,3748.7989,N,12217.8579,W,0.10,167.00,270312,,,A*7D
$GPVTG,167.00,T,,M,0.10,N,0.2,K,A*0E
$GPGGA,180619.000,3748.7989,N,12217.8579,W,1,04,2.6,-4.6,M,-25.1,M,,0000*4E
$GPGSA,A,3,19,11,14,22,,,,,,,,,5.8,2.6,5.2*31
$GPRMC,180619.000,A,3748.7989,N,12217.8579,W,0.11,178.19,270312,,,A*7B
$GPVTG,178.19,T,,M,0.11,N,0.2,K,A*09
$GPGGA,180620.000,3748.7990,N,12217.8579,W,1,04,2.6,-4.6,M,-25.1,M,,0000*4C
$GPGSA,A,3,19,11,14,22,,,,,,,,,5.8,2.6,5.2*31
$GPRMC,180620.000,A,3748.7990,N,12217.8579,W,0.08,227.80,270312,,,A*78
$GPVTG,227.80,T,,M,0.08,N,0.1,K,A*0B
$GPGGA,180621.000,3748.7990,N,12217.8579,W,1,04,2.6,-4.6,M,-25.1,M,,0000*4D
$GPGSA,A,3,19,11,14,22,,,,,,,,,5.8,2.6,5.2*31
$GPRMC,180621.000,A,3748.7990,N,12217.8579,W,0.12,251.00,270312,,,A*7B
$GPVTG,251.00,T,,M,0.12,N,0.2,K,A*0A
$GPGGA,180622.000,3748.7990,N,12217.8579,W,1,04,2.6,-4.6,M,-25.1,M,,0000*4E
$GPGSA,A,3,19,11,14,22,,,,,,,,,5.8,2.6,5.2*31
$GPGSV,3,1,12,14,73,039,37,24,54,308,41,22,51,068,37,11,38,301,40*7D
$GPGSV,3,2,12,19,33,249,39,31,28,157,37,01,23,315,37,03,13,214,36*79
$GPGSV,3,3,12,18,12,088,,06,12,204,25,09,03,030,21,48,44,197,42*7B
$GPRMC,180622.000,A,3748.7990,N,12217.8579,W,0.15,207.87,270312,,,A*73
$GPVTG,207.87,T,,M,0.15,N,0.3,K,A*00
$GPGGA,180623.000,3748.7990,N,12217.8579,W,1,04,2.6,-4.6,M,-25.1,M,,0000*4F
$GPGSA,A,3,19,11,14,22,,,,,,,,,5.8,2.6,5.2*31
$GPRMC,180623.000,A,3748.7990,N,12217.8579,W,0.11,174.02,270312,,,A*7C
$GPVTG,174.02,T,,M,0.11,N,0.2,K,A*0F
$GPGGA,180624.000,3748.7990,N,12217.8579,W,1,04,2.6,-4.6,M,-25.1,M,,0000*48
$GPGSA,A,3,19,11,14,22,,,,,,,,,5.8,2.6,5.2*31
$GPRMC,180624.000,A,3748.7990,N,12217.8579,W,0.10,177.27,270312,,,A*7E
$GPVTG,177.27,T,,M,0.10,N,0.2,K,A*0A
$GPGGA,180625.000,3748.7990,N,12217.8579,W,1,04,2.6,-4.6,M,-25.1,M,,0000*49
$GPGSA,A,3,19,11,14,22,,,,,,,,,5.8,2.6,5.2*31
$GPRMC,180625.000,A,3748.7990,N,12217.8579,W,0.15,182.35,270312,,,A*73
$GPVTG,182.35,T,,M,0.15,N,0.3,K,A*07
$GPGGA,180626.000,3748.7990,N,12217.8579,W,1,04,2.6,-4.6,M,-25.1,M,,0000*4A
$GPGSA,A,3,19,11,14,22,,,,,,,,,5.8,2.6,5.2*31
$GPRMC,180626.000,A,3748.7990,N,12217.8579,W,0.11,196.38,270312,,,A*7C
$GPVTG,196.38,T,,M,0.11,N,0.2,K,A*0A
$GPGGA,180627.000,3748.7990,N,12217.8579,W,1,04,2.6,-4.6,M,-25.1,M,,0000*4B
$GPGSA,A,3,19,11,14,22,,,,,,,,,5.8,2.6,5.2*31
$GPGSV,3,1,12,14,73,039,37,24,54,308,41,22,51,068,38,11,38,301,40*72
$GPGSV,3,2,12,19,33,249,40,31,28,157,38,01,23,315,36,03,13,214,36*79
$GPGSV,3,3,12,18,12,088,,06,12,204,14,09,03,030,21,48,44,197,41*7A
$GPRMC,180627.000,A,3748.7990,N,12217.8579,W,0.11,186.36,270312,,,A*72
$GPGGA,180628.000,3748.7991,N,12217.8579,W,1,05,2.1,-5.1,M,-25.1,M,,0000*45
$GPGSA,A,3,19,11,14,22,01,,,,,,,,4.4,2.1,3.9*37
$GPRMC,180628.000,A,3748.7991,N,12217.8579,W,0.14,172.91,270312,,,A*7F
$GPVTG,172.91,T,,M,0.14,N,0.3,K,A*07
$GPGGA,180629.000,3748.7992,N,12217.8579,W,1,05,2.1,-5.4,M,-25.1,M,,0000*42
$GPGSA,A,3,19,11,14,22,01,,,,,,,,4.4,2.1,3.9*37
$GPRMC,180629.000,A,3748.7992,N,12217.8579,W,0.11,200.73,270312,,,A*72
$GPVTG,200.73,T,,M,0.11,N,0.2,K,A*09
$GPGGA,180630.000,3748.7992,N,12217.8579,W,1,05,2.1,-5.6,M,-25.1,M,,0000*48
$GPGSA,A,3,19,11,14,22,01,,,,,,,,4.4,2.1,3.9*37
$GPRMC,180630.000,A,3748.7992,N,12217.8579,W,0.12,173.44,270312,,,A*7A
$GPVTG,173.44,T,,M,0.12,N,0.2,K,A*09
$GPGGA,180631.000,3748.7992,N,12217.8579,W,1,05,2.1,-5.7,M,-25.1,M,,0000*48
$GPGSA,A,3,19,11,14,22,01,,,,,,,,4.4,2.1,3.9*37
$GPRMC,180631.000,A,3748.7992,N,12217.8579,W,0.14,177.79,270312,,,A*77
$GPVTG,177.79,T,,M,0.14,N,0.3,K,A*04
$GPGGA,180632.000,3748.7993,N,12217.8579,W,1,05,2.1,-5.8,M,-25.1,M,,0000*45
$GPGSA,A,3,19,11,14,22,01,,,,,,,,4.4,2.1,3.9*37
$GPGSV,3,1,12,14,73,039,36,24,54,308,41,22,51,068,38,11,38,301,41*72
$GPGSV,3,2,12,19,33,249,40,31,28,157,39,01,23,315,36,03,13,214,36*78
$GPGSV,3,3,12,18,12,088,,06,11,203,20,09,03,030,07,48,44,197,41*7D
$GPRMC,180632.000,A,3748.7993,N,12217.8579,W,0.12,180.05,270312,,,A*70
$GPVTG,180.05,T,,M,0.12,N,0.2,K,A*00
$GPGGA,180633.000,3748.7993,N,12217.8579,W,1,05,2.1,-5.8,M,-25.1,M,,0000*44
$GPGSA,A,3,19,11,14,22,01,,,,,,,,4.4,2.1,3.9*37
$GPRMC,180633.000,A,3748.7993,N,12217.8579,W,0.13,195.87,270312,,,A*7E
$GPVTG,195.87,T,,M,0.13,N,0.2,K,A*0F
$GPGGA,180634.000,3748.7995,N,12217.8581,W,1,06,1.5,-4.8,M,-25.1,M,,0000*47
$GPGSA,A,3,19,03,11,14,22,01,,,,,,,3.0,1.5,2.7*3F
$GPRMC,180634.000,A,3748.7995,N,12217.8581,W,0.08,173.11,270312,,,A*75
$GPVTG,173.11,T,,M,0.08,N,0.1,K,A*01
$GPGGA,180635.000,3748.7996,N,12217.8582,W,1,06,1.5,-4.1,M,-25.1,M,,0000*4F
$GPGSA,A,3,19,03,11,14,22,01,,,,,,,3.0,1.5,2.7*3F
$GPRMC,180635.000,A,3748.7996,N,12217.8582,W,0.10,190.84,270312,,,A*7C
$GPVTG,190.84,T,,M,0.10,N,0.2,K,A*0A
$GPGGA,180636.000,3748.7997,N,12217.8583,W,1,06,1.5,-3.5,M,-25.1,M,,0000*4F
$GPGSA,A,3,19,03,11,14,22,01,,,,,,,3.0,1.5,2.7*3F
$GPRMC,180636.000,A,3748.7997,N,12217.8583,W,0.09,187.74,270312,,,A*7E
$GPVTG,187.74,T,,M,0.09,N,0.2,K,A*0B
$GPGGA,180637.000,3748.7998,N,12217.8584,W,1,06,1.5,-3.0,M,-25.1,M,,0000*43
$GPGSA,A,3,19,03,11,14,22,01,,,,,,,3.0,1.5,2.7*3F
$GPGSV,3,1,12,14,73,039,36,24,54,308,40,22,51,068,39,11,38,301,41*72
$GPGSV,3,2,12,19,33,249,41,31,28,157,39,01,23,315,35,03,13,214,36*7A
$GPGSV,3,3,12,18,12,088,,06,11,203,27,09,03,030,,48,44,197,42*7E
$GPRMC,180637.000,A,3748.7998,N,12217.8584,W,0.16,206.60,270312,,,A*76
$GPVTG,206.60,T,,M,0.16,N,0.3,K,A*0B
$GPGGA,180638.000,3748.7999,N,12217.8585,W,1,06,1.5,-2.5,M,-25.1,M,,0000*48
$GPGSA,A,3,19,03,11,14,22,01,,,,,,,3.0,1.5,2.7*3F
$GPRMC,180638.000,A,3748.7999,N,12217.8585,W,0.14,181.96,270312,,,A*7E
$GPVTG,181.96,T,,M,0.14,N,0.3,K,A*0C
$GPGGA,180639.000,3748.7999,N,12217.8585,W,1,06,1.5,-2.2,M,-25.1,M,,0000*4E
$GPGSA,A,3,19,03,11,14,22,01,,,,,,,3.0,1.5,2.7*3F
$GPRMC,180639.000,A,3748.7999,N,12217.8585,W,0.47,152.56,270312,,,A*7B
$GPVTG,152.56,T,,M,0.47,N,0.9,K,A*02
$GPGGA,180640.000,3748.7999,N,12217.8585,W,1,06,1.5,-1.8,M,-25.1,M,,0000*49
$GPGSA,A,3,19,03,11,14,22,01,,,,,,,3.0,1.5,2.7*3F
$GPRMC,180640.000,A,3748.7999,N,12217.8585,W,0.17,217.59,270312,,,A*7D
$GPVTG,217.59,T,,M,0.17,N,0.3,K,A*00
$GPGGA,180641.000,3748.7999,N,12217.8585,W,1,06,1.5,-1.9,M,-25.1,M,,0000*49
$GPGSA,A,3,19,03,11,14,22,01,,,,,,,3.0,1.5,2.7*3F
$GPRMC,180641.000,A,3748.7999,N,12217.8585,W,0.14,230.95,270312,,,A*7A
$GPVTG,230.95,T,,M,0.14,N,0.3,K,A*06
$GPGGA,180642.000,3748.7999,N,12217.8585,W,1,06,1.5,-2.0,M,-25.1,M,,0000*40
$GPGSA,A,3,19,03,11,14,22,01,,,,,,,3.0,1.5,2.7*3F
$GPGSV,3,1,12,14,73,039,36,24,54,308,40,22,51,068,38,11,38,301,41*73
$GPGSV,3,2,12,19,33,249,40,31,28,157,,01,23,315,35,03,13,214,32*75
$GPGSV,3,3,12,18,12,088,,06,11,203,18,09,03,030,,48,44,197,39*7E
$GPVTG,176.28,T,,M,0.17,N,0.3,K,A*02
$GPGGA,180643.000,3748.7999,N,12217.8585,W,1,06,1.5,-2.0,M,-25.1,M,,0000*41
$GPGSA,A,3,19,03,11,14,22,01,,,,,,,3.0,1.5,2.7*3F
$GPRMC,180643.000,A,3748.7999,N,12217.8585,W,0.13,217.24,270312,,,A*70
$GPVTG,217.24,T,,M,0.13,N,0.2,K,A*0F
$GPGGA,180644.000,3748.7998,N,12217.8586,W,1,06,1.5,-2.1,M,-25.1,M,,0000*45
$GPGSA,A,3,19,03,11,14,22,01,,,,,,,3.0,1.5,2.7*3F
$GPRMC,180644.000,A,3748.7998,N,12217.8586,W,0.50,219.35,270312,,,A*7C
$GPVTG,219.35,T,,M,0.50,N,0.9,K,A*0D
$GPGGA,180645.000,3748.7998,N,12217.8587,W,1,06,1.5,-1.7,M,-25.1,M,,0000*40
$GPGSA,A,3,19,03,11,14,22,01,,,,,,,3.0,1.5,2.7*3F
$GPRMC,180645.000,A,3748.7998,N,12217.8587,W,0.56,231.98,270312,,,A*77
$GPVTG,231.98,T,,M,0.56,N,1.0,K,A*0E
$GPGGA,180646.000,3748.7998,N,12217.8589,W,1,06,1.5,-1.4,M,-25.1,M,,0000*4E
$GPGSA,A,3,19,03,11,14,22,01,,,,,,,3.0,1.5,2.7*3F
$GPRMC,180646.000,A,3748.7998,N,12217.8589,W,0.15,227.89,270312,,,A*7A
$GPVTG,227.89,T,,M,0.15,N,0.3,K,A*0C
$GPGGA,180647.000,3748.7999,N,12217.8589,W,1,06,1.5,-1.2,M,-25.1,M,,0000*48
$GPGSA,A,3,19,03,11,14,22,01,,,,,,,3.0,1.5,2.7*3F
$GPGSV,3,1,12,14,73,039,36,24,54,308,41,22,51,068,33,11,38,301,37*78
$GPGSV,3,2,12,19,33,249,35,31,28,157,38,01,23,315,29,03,13,214,33*70
$GPGSV,3,3,12,18,12,088,,06,11,203,20,09,02,030,,48,44,197,42*78
$GPRMC,180647.000,A,3748.7999,N,12217.8589,W,0.42,343.60,270312,,,A*7C
$GPVTG,343.60,T,,M,0.42,N,0.8,K,A*01
$GPGGA,180648.000,3748.8000,N,12217.8589,W,1,06,1.5,-0.9,M,-25.1,M,,0000*4B
$GPGSA,A,3,19,03,11,14,22,01,,,,,,,3.0,1.5,2.7*3F
$GPRMC,180648.000,A,3748.8000,N,12217.8589,W,0.09,260.92,270312,,,A*77
$GPVTG,260.92,T,,M,0.09,N,0.2,K,A*09
$GPGGA,180649.000,3748.8000,N,12217.8590,W,1,06,1.5,-0.5,M,-25.1,M,,0000*4E
$GPGSA,A,3,19,03,11,14,22,01,,,,,,,3.0,1.5,2.7*3F
$GPRMC,180649.000,A,3748.8000,N,12217.8590,W,0.11,219.86,270312,,,A*7C
$GPVTG,219.86,T,,M,0.11,N,0.2,K,A*0B
$GPGGA,180650.000,3748.8000,N,12217.8590,W,1,06,1.5,-0.2,M,-25.1,M,,0000*41
$GPGSA,A,3,19,03,11,14,22,01,,,,,,,3.0,1.5,2.7*3F
$GPRMC,180650.000,A,3748.8000,N,12217.8590,W,0.08,230.08,270312,,,A*71
$GPVTG,230.08,T,,M,0.08,N,0.1,K,A*0D
$GPGGA,180651.000,3748.8001,N,12217.8591,W,1,06,1.5,0.0,M,-25.1,M,,0000*6F
$GPGSA,A,3,19,03,11,14,22,01,,,,,,,3.0,1.5,2.7*3F
$GPRMC,180651.000,A,3748.8001,N,12217.8591,W,0.57,350.63,270312,,,A*70
$GPVTG,350.63,T,,M,0.57,N,1.1,K,A*0C
$GPGGA,180652.000,3748.8003,N,12217.8592,W,1,07,1.3,0.6,M,-25.1,M,,0000*6C
$GPGSA,A,3,19,03,11,14,22,31,01,,,,,,2.9,1.3,2.5*31
$GPGSV,3,1,12,14,73,039,35,24,54,308,42,22,51,068,36,11,38,301,40*7D
$GPGSV,3,2,12,19,33,249,34,31,28,157,34,01,23,315,34,03,13,214,27*74
$GPGSV,3,3,12,18,12,088,,06,11,203,26,09,02,030,,48,44,197,36*7D
$GPRMC,180652.000,A,3748.8003,N,12217.8592,W,0.31,20.48,270312,,,A*4F
$GPVTG,20.48,T,,M,0.31,N,0.6,K,A*37
$GPGGA,180653.000,3748.8005,N,12217.8592,W,1,07,1.3,1.0,M,-25.1,M,,0000*6C
$GPGSA,A,3,19,03,11,14,22,31,01,,,,,,2.9,1.3,2.5*31
$GPRMC,180653.000,A,3748.8005,N,12217.8592,W,0.10,346.64,270312,,,A*76
$GPVTG,346.64,T,,M,0.10,N,0.2,K,A*0D
$GPGGA,180654.000,3748.8005,N,12217.8593,W,1,07,1.3,1.1,M,-25.1,M,,0000*6B
$GPGSA,A,3,19,03,11,14,22,31,01,,,,,,2.9,1.3,2.5*31
$GPRMC,180654.000,A,3748.8005,N,12217.8593,W,0.14,211.87,270312,,,A*7A
$GPVTG,211.87,T,,M,0.14,N,0.3,K,A*06
$GPGGA,180655.000,3748.8005,N,12217.8593,W,1,07,1.3,1.2,M,-25.1,M,,0000*69
$GPGSA,A,3,19,03,11,14,22,31,01,,,,,,2.9,1.3,2.5*31
$GPRMC,180655.000,A,3748.8005,N,12217.8593,W,0.18,186.87,270312,,,A*7A
$GPVTG,186.87,T,,M,0.18,N,0.3,K,A*07
$GPGGA,180656.000,3748.8003,N,12217.8591,W,1,07,1.3,0.8,M,-25.1,M,,0000*65
$GPGSA,A,3,19,03,11,14,22,31,01,,,,,,2.9,1.3,2.5*31
$GPRMC,180656.000,A,3748.8003,N,12217.8591,W,0.60,150.47,270312,,,A*75
$GPVTG,150.47,T,,M,0.60,N,1.1,K,A*0C
$GPGGA,180657.000,3748.7999,N,12217.8590,W,1,07,1.3,1.0,M,-25.1,M,,0000*69
$GPGSA,A,3,19,03,11,14,22,31,01,,,,,,2.9,1.3,2.5*31
$GPGSV,3,1,12,14,73,039,31,24,54,308,35,22,50,068,22,11,38,301,34*7E
$GPGSV,3,2,12,19,33,249,34,31,28,157,34,01,23,315,22,03,13,214,28*7C
$GPGSV,3,3,12,18,12,088,,06,11,203,12,09,02,030,,48,44,197,33*7F
$GPVTG,166.13,T,,M,0.56,N,1.0,K,A*0C
$GPGGA,180658.000,3748.7998,N,12217.8590,W,1,07,1.3,1.2,M,-25.1,M,,0000*65
$GPGSA,A,3,19,03,11,14,22,31,01,,,,,,2.9,1.3,2.5*31
$GPRMC,180658.000,A,3748.7998,N,12217.8590,W,0.29,304.69,270312,,,A*7C
$GPVTG,304.69,T,,M,0.29,N,0.5,K,A*0B
$GPGGA,180659.000,3748.7996,N,12217.8593,W,1,05,2.2,2.3,M,-25.1,M,,0000*6B
$GPGSA,A,3,19,03,11,14,01,,,,,,,,3.8,2.2,3.1*34
$GPRMC,180659.000,A,3748.7996,N,12217.8593,W,0.21,273.41,270312,,,A*73
$GPVTG,273.41,T,,M,0.21,N,0.4,K,A*09
$GPGGA,180700.000,3748.7995,N,12217.8593,W,1,07,1.3,2.4,M,-25.1,M,,0000*62
$GPGSA,A,3,19,03,11,14,22,01,31,,,,,,2.9,1.3,2.5*31
$GPRMC,180700.000,A,3748.7995,N,12217.8593,W,0.43,212.07,270312,,,A*7C
$GPVTG,212.07,T,,M,0.43,N,0.8,K,A*04
$GPGGA,180701.000,3748.7995,N,12217.8591,W,1,05,1.8,2.6,M,-25.1,M,,0000*6A
$GPGSA,A,3,03,11,14,22,01,,,,,,,,3.6,1.8,3.1*3B
$GPRMC,180701.000,A,3748.7995,N,12217.8591,W,0.48,202.36,270312,,,A*77
$GPVTG,202.36,T,,M,0.48,N,0.9,K,A*0D
$GPGGA,180702.000,3748.7992,N,12217.8589,W,1,05,2.2,3.1,M,-25.1,M,,0000*68
$GPGSA,A,3,03,11,14,22,19,,,,,,,,4.6,2.2,4.1*3B
$GPGSV,3,1,12,14,73,039,24,24,54,308,31,22,50,068,27,11,38,301,24*7A
$GPGSV,3,2,12,19,33,249,28,31,28,157,,01,23,315,,03,13,214,29*77
$GPGSV,3,3,12,18,12,088,,06,11,203,,09,02,030,,48,44,197,31*7E
$GPRMC,180702.000,A,3748.7992,N,12217.8589,W,0.78,152.45,270312,,,A*7B
$GPVTG,152.45,T,,M,0.78,N,1.5,K,A*01
$GPGGA,180703.000,3748.7992,N,12217.8590,W,1,06,1.5,3.9,M,-25.1,M,,0000*6E
$GPGSA,A,3,03,11,14,22,19,01,,,,,,,3.0,1.5,2.7*3F
$GPRMC,180703.000,A,3748.7992,N,12217.8590,W,0.14,104.53,270312,,,A*7C
$GPVTG,104.53,T,,M,0.14,N,0.3,K,A*08
$GPGGA,180704.000,3748.7991,N,12217.8594,W,1,06,1.5,4.2,M,-25.1,M,,0000*62
$GPGSA,A,3,03,11,14,22,19,01,,,,,,,3.0,1.5,2.7*3F
$GPRMC,180704.000,A,3748.7991,N,12217.8594,W,0.12,241.76,270312,,,A*7F
$GPVTG,241.76,T,,M,0.12,N,0.2,K,A*0A
$GPGGA,180705.000,3748.7989,N,12217.8598,W,1,06,1.5,5.1,M,-25.1,M,,0000*64
$GPGSA,A,3,03,11,14,22,19,01,,,,,,,3.0,1.5,2.7*3F
$GPRMC,180705.000,A,3748.7989,N,12217.8598,W,0.19,124.28,270312,,,A*7B
$GPVTG,124.28,T,,M,0.19,N,0.3,K,A*0B
$GPGGA,180706.000,3748.7987,N,12217.8598,W,1,06,1.5,5.6,M,-25.1,M,,0000*6E
$GPGSA,A,3,03,11,14,22,19,01,,,,,,,3.0,1.5,2.7*3F
$GPRMC,180706.000,A,3748.7987,N,12217.8598,W,0.50,18.35,270312,,,A*49
$GPVTG,18.35,T,,M,0.50,N,0.9,K,A*3E
$GPGGA,180707.000,3748.7993,N,12217.8599,W,1,07,1.3,5.7,M,-25.1,M,,0000*6D
$GPGSA,A,3,03,11,14,22,19,01,31,,,,,,2.9,1.3,2.5*31
$GPGSV,3,1,12,14,73,039,28,24,54,308,31,22,50,068,28,11,38,301,39*75
$GPGSV,3,2,12,19,33,249,40,31,28,157,29,01,23,315,29,03,13,214,24*74
$GPGSV,3,3,12,18,12,088,,06,11,203,,09,02,030,,48,44,197,27*79
$GPRMC,180707.000,A,3748.7993,N,12217.8599,W,0.13,210.61,270312,,,A*70
$GPVTG,210.61,T,,M,0.13,N,0.2,K,A*09
$GPGGA,180708.000,3748.8000,N,12217.8605,W,1,07,1.3,7.3,M,-25.1,M,,0000*6E
$GPGSA,A,3,03,11,14,22,19,01,31,,,,,,2.9,1.3,2.5*31
$GPRMC,180708.000,A,3748.8000,N,12217.8605,W,0.47,200.78,270312,,,A*7D
$GPVTG,200.78,T,,M,0.47,N,0.9,K,A*0A
$GPGGA,180709.000,3748.8001,N,12217.8605,W,1,07,1.3,7.2,M,-25.1,M,,0000*6F
$GPGSA,A,3,03,11,14,22,19,01,31,,,,,,2.9,1.3,2.5*31
$GPRMC,180709.000,A,3748.8001,N,12217.8605,W,0.35,280.18,270312,,,A*76
$GPVTG,280.18,T,,M,0.35,N,0.6,K,A*0E
$GPGGA,180710.000,3748.8006,N,12217.8606,W,1,06,1.7,8.3,M,-25.1,M,,0000*68
$GPGSA,A,3,03,11,14,22,01,31,,,,,,,3.5,1.7,3.0*34
$GPRMC,180710.000,A,3748.8006,N,12217.8606,W,0.33,56.09,270312,,,A*45
$GPVTG,56.09,T,,M,0.33,N,0.6,K,A*31
$GPGGA,180711.000,3748.8009,N,12217.8603,W,1,05,1.8,7.0,M,-25.1,M,,0000*63
$GPGSA,A,3,03,11,14,22,01,,,,,,,,3.6,1.8,3.1*3B
$GPRMC,180711.000,A,3748.8009,N,12217.8603,W,0.60,57.18,270312,,,A*49
$GPVTG,57.18,T,,M,0.60,N,1.1,K,A*30
$GPGGA,180712.000,3748.8009,N,12217.8601,W,1,06,1.5,6.7,M,-25.1,M,,0000*6A
$GPGSA,A,3,03,11,14,22,19,01,,,,,,,3.1,1.5,2.7*3E
$GPGSV,3,1,11,14,73,039,25,24,54,308,26,22,50,068,26,11,38,301,32*78
$GPGSV,3,2,11,19,33,249,32,31,28,157,,01,23,315,35,03,13,214,27*77
$GPGSV,3,3,11,18,12,088,,06,11,203,,09,02,030,*4C
$GPVTG,71.37,T,,M,0.75,N,1.4,K,A*38
$GPGGA,180713.000,3748.8012,N,12217.8596,W,1,07,1.3,5.8,M,-25.1,M,,0000*67
$GPGSA,A,3,31,03,11,14,22,19,01,,,,,,2.9,1.3,2.5*31
$GPRMC,180713.000,A,3748.8012,N,12217.8596,W,0.24,167.52,270312,,,A*72
$GPVTG,167.52,T,,M,0.24,N,0.4,K,A*08
$GPGGA,180714.000,3748.8012,N,12217.8593,W,1,07,1.3,5.7,M,-25.1,M,,0000*6A
$GPGSA,A,3,31,03,11,14,22,19,01,,,,,,2.9,1.3,2.5*31
$GPRMC,180714.000,A,3748.8012,N,12217.8593,W,0.34,136.86,270312,,,A*7C
$GPVTG,136.86,T,,M,0.34,N,0.6,K,A*06
$GPGGA,180715.000,3748.8009,N,12217.8593,W,1,07,1.3,6.2,M,-25.1,M,,0000*67
$GPGSA,A,3,31,03,11,14,22,19,01,,,,,,2.9,1.3,2.5*31
$GPRMC,180715.000,A,3748.8009,N,12217.8593,W,0.47,196.15,270312,,,A*73
$GPVTG,196.15,T,,M,0.47,N,0.9,K,A*0D
$GPGGA,180716.000,3748.8008,N,12217.8591,W,1,07,1.3,6.1,M,-25.1,M,,0000*64
$GPGSA,A,3,31,03,11,14,22,19,01,,,,,,2.9,1.3,2.5*31
$GPRMC,180716.000,A,3748.8008,N,12217.8591,W,0.15,211.74,270312,,,A*7F
$GPVTG,211.74,T,,M,0.15,N,0.3,K,A*0B
$GPGGA,180717.000,3748.8007,N,12217.8590,W,1,07,1.3,5.0,M,-25.1,M,,0000*69
$GPGSA,A,3,31,03,11,14,22,19,01,,,,,,2.9,1.3,2.5*31
$GPGSV,3,1,12,14,73,039,32,24,54,308,28,22,50,068,30,11,38,301,38*7E
$GPGSV,3,2,12,19,33,249,31,31,28,157,25,01,23,315,38,03,13,214,26*7C
$GPGSV,3,3,12,18,12,088,,06,11,203,22,09,02,030,23,48,44,197,26*79
$GPRMC,180717.000,A,3748.8007,N,12217.8590,W,0.24,185.94,270312,,,A*72
$GPVTG,185.94,T,,M,0.24,N,0.4,K,A*0E
$GPGGA,180718.000,3748.8013,N,12217.8592,W,1,07,1.3,5.7,M,-25.1,M,,0000*66
$GPGSA,A,3,31,03,11,14,22,19,01,,,,,,2.9,1.3,2.5*31
$GPRMC,180718.000,A,3748.8013,N,12217.8592,W,0.09,246.89,270312,,,A*75
$GPVTG,246.89,T,,M,0.09,N,0.2,K,A*07
$GPGGA,180719.000,3748.8010,N,12217.8594,W,1,07,1.3,6.1,M,-25.1,M,,0000*67
$GPGSA,A,3,31,03,11,14,22,19,01,,,,,,2.9,1.3,2.5*31
$GPRMC,180719.000,A,3748.8010,N,12217.8594,W,0.43,189.44,270312,,,A*7E
$GPVTG,189.44,T,,M,0.43,N,0.8,K,A*02
$GPGGA,180720.000,3748.8011,N,12217.8596,W,1,07,1.3,6.5,M,-25.1,M,,0000*6A
$GPGSA,A,3,31,03,11,14,22,19,01,,,,,,2.9,1.3,2.6*32
$GPRMC,180720.000,A,3748.8011,N,12217.8596,W,0.19,265.58,270312,,,A*74
$GPVTG,265.58,T,,M,0.19,N,0.4,K,A*0D
$GPGGA,180721.000,3748.8010,N,12217.8597,W,1,07,1.3,6.6,M,-25.1,M,,0000*68
$GPGSA,A,3,31,03,11,14,22,19,01,,,,,,2.9,1.3,2.6*32
$GPRMC,180721.000,A,3748.8010,N,12217.8597,W,0.22,200.17,270312,,,A*75
$GPVTG,200.17,T,,M,0.22,N,0.4,K,A*0D
$GPGGA,180722.000,3748.8009,N,12217.8596,W,1,07,1.3,6.2,M,-25.1,M,,0000*66
$GPGSA,A,3,31,03,11,14,22,19,01,,,,,,2.9,1.3,2.6*32
$GPGSV,3,1,12,14,73,039,25,24,54,308,35,22,50,068,29,11,38,301,39*7D
$GPGSV,3,2,12,19,33,249,38,31,28,157,33,01,23,315,36,03,13,214,41*7D
$GPGSV,3,3,12,18,12,088,,06,11,203,32,09,02,030,23,48,44,197,37*78
$GPRMC,180722.000,A,3748.8009,N,12217.8596,W,0.22,193.61,270312,,,A*77
$GPVTG,193.61,T,,M,0.22,N,0.4,K,A*05
$GPGGA,180723.000,3748.8008,N,12217.8594,W,1,07,1.3,5.9,M,-25.1,M,,0000*6C
$GPGSA,A,3,31,03,11,14,22,19,01,,,,,,2.9,1.3,2.6*32
$GPRMC,180723.000,A,3748.8008,N,12217.8594,W,0.16,61.68,270312,,,A*47
$GPVTG,61.68,T,,M,0.16,N,0.3,K,A*30
$GPGGA,180724.000,3748.8007,N,12217.8593,W,1,07,1.3,5.7,M,-25.1,M,,0000*6D
$GPGSA,A,3,31,03,11,14,22,19,01,,,,,,2.9,1.3,2.6*32
$GPRMC,180724.000,A,3748.8007,N,12217.8593,W,0.13,121.29,270312,,,A*7D
$GPVTG,121.29,T,,M,0.13,N,0.2,K,A*04
$GPGGA,180725.000,3748.8007,N,12217.8593,W,1,07,1.3,5.4,M,-25.1,M,,0000*6F
$GPGSA,A,3,31,03,11,14,22,19,01,,,,,,2.9,1.3,2.6*32
$GPRMC,180725.000,A,3748.8007,N,12217.8593,W,0.30,239.82,270312,,,A*76
$GPVTG,239.82,T,,M,0.30,N,0.6,K,A*0A
$GPGGA,180726.000,3748.8005,N,12217.8589,W,1,07,1.3,4.5,M,-25.1,M,,0000*65
$GPGSA,A,3,31,03,11,14,22,19,01,,,,,,2.9,1.3,2.6*32
$GPRMC,180726.000,A,3748.8005,N,12217.8589,W,0.22,156.74,270312,,,A*7C
$GPVTG,156.74,T,,M,0.22,N,0.4,K,A*08
$GPGGA,180727.000,3748.8004,N,12217.8589,W,1,07,1.3,4.4,M,-25.1,M,,0000*64
$GPGSA,A,3,31,03,11,14,22,19,01,,,,,,2.9,1.3,2.6*32
$GPGSV,3,1,12,14,73,039,21,24,54,308,32,22,50,068,23,11,38,301,39*74
$GPGSV,3,2,12,19,33,249,38,31,28,157,27,01,23,315,35,03,13,214,37*7A
$GPGSV,3,3,12,18,12,088,,06,11,203,32,09,02,030,22,48,44,197,34*7A
$GPVTG,149.07,T,,M,0.08,N,0.2,K,A*0C
$GPGGA,180728.000,3748.8004,N,12217.8589,W,1,07,1.3,4.5,M,-25.1,M,,0000*6A
$GPGSA,A,3,31,03,11,14,22,19,01,,,,,,2.9,1.3,2.6*32
$GPRMC,180728.000,A,3748.8004,N,12217.8589,W,0.22,71.88,270312,,,A*44
$GPVTG,71.88,T,,M,0.22,N,0.4,K,A*3F
$GPGGA,180729.000,3748.8005,N,12217.8590,W,1,07,1.3,4.6,M,-25.1,M,,0000*61
$GPGSA,A,3,31,03,11,14,22,19,01,,,,,,2.9,1.3,2.6*32
$GPRMC,180729.000,A,3748.8005,N,12217.8590,W,0.08,283.97,270312,,,A*75
$GPVTG,283.97,T,,M,0.08,N,0.1,K,A*03
$GPGGA,180730.000,3748.8005,N,12217.8590,W,1,07,1.3,4.6,M,-25.1,M,,0000*69
$GPGSA,A,3,31,03,11,14,22,19,01,,,,,,2.9,1.3,2.6*32
$GPRMC,180730.000,A,3748.8005,N,12217.8590,W,0.06,270.44,270312,,,A*71
$GPVTG,270.44,T,,M,0.06,N,0.1,K,A*0F
$GPGGA,180731.000,3748.8005,N,12217.8592,W,1,07,1.3,4.9,M,-25.1,M,,0000*65
$GPGSA,A,3,31,03,11,14,22,19,01,,,,,,2.9,1.3,2.6*32
$GPRMC,180731.000,A,3748.8005,N,12217.8592,W,0.11,168.19,270312,,,A*76
$GPVTG,168.19,T,,M,0.11,N,0.2,K,A*08
$GPGGA,180732.000,3748.8005,N,12217.8593,W,1,07,1.3,4.9,M,-25.1,M,,0000*67
$GPGSA,A,3,31,03,11,14,22,19,01,,,,,,2.9,1.3,2.6*32
$GPGSV,3,1,11,14,73,039,22,24,54,308,24,22,50,068,32,11,38,301,36*7C
$GPGSV,3,2,11,19,33,249,33,31,28,157,21,01,23,315,30,03,13,214,27*70
$GPGSV,3,3,11,18,12,088,,06,11,203,23,09,02,030,21*4E
$GPRMC,180732.000,A,3748.8005,N,12217.8593,W,0.38,38.83,270312,,,A*48
$GPVTG,38.83,T,,M,0.38,N,0.7,K,A*31
$GPGGA,180733.000,3748.8005,N,12217.8594,W,1,07,1.3,4.8,M,-25.1,M,,0000*60
$GPGSA,A,3,31,03,11,14,22,19,01,,,,,,2.9,1.3,2.6*32
$GPRMC,180733.000,A,3748.8005,N,12217.8594,W,0.12,295.62,270312,,,A*7C
$GPVTG,295.62,T,,M,0.12,N,0.2,K,A*06
$GPGGA,180734.000,3748.8005,N,12217.8594,W,1,07,1.3,3.9,M,-25.1,M,,0000*61
$GPGSA,A,3,31,03,11,14,22,19,01,,,,,,2.9,1.3,2.6*32
$GPRMC,180734.000,A,3748.8005,N,12217.8594,W,0.28,180.65,270312,,,A*72
$GPVTG,180.65,T,,M,0.28,N,0.5,K,A*08
$GPGGA,180735.000,3748.8004,N,12217.8595,W,1,07,1.3,3.0,M,-25.1,M,,0000*69
$GPGSA,A,3,31,03,11,14,22,19,01,,,,,,2.9,1.3,2.6*32
$GPRMC,180735.000,A,3748.8004,N,12217.8595,W,0.10,203.46,270312,,,A*71
$GPVTG,203.46,T,,M,0.10,N,0.2,K,A*0D
$GPGGA,180736.000,3748.8004,N,12217.8595,W,1,07,1.3,4.8,M,-25.1,M,,0000*65
$GPGSA,A,3,31,03,11,14,22,19,01,,,,,,2.9,1.3,2.6*32
$GPRMC,180736.000,A,3748.8004,N,12217.8595,W,0.34,123.31,270312,,,A*75
$GPVTG,123.31,T,,M,0.34,N,0.6,K,A*0E
$GPGGA,180737.000,3748.8007,N,12217.8594,W,1,07,1.3,5.9,M,-25.1,M,,0000*66
$GPGSA,A,3,31,03,11,14,22,19,01,,,,,,2.9,1.3,2.6*32
$GPGSV,3,1,11,14,73,039,24,24,54,308,27,22,50,068,34,11,38,301,37*7E
$GPGSV,3,2,11,19,33,249,23,31,28,157,18,01,23,315,34,03,13,214,26*7E
$GPGSV,3,3,11,18,12,088,,06,11,203,20,09,02,030,*4E
$GPRMC,180737.000,A,3748.8007,N,12217.8594,W,0.87,15.06,270312,,,A*4E
$GPVTG,15.06,T,,M,0.87,N,1.6,K,A*37
$GPGGA,180738.000,3748.8008,N,12217.8593,W,1,07,1.3,5.2,M,-25.1,M,,0000*6A
$GPGSA,A,3,31,03,11,14,22,19,01,,,,,,2.9,1.3,2.6*32
$GPRMC,180738.000,A,3748.8008,N,12217.8593,W,0.13,157.07,270312,,,A*72
$GPVTG,157.07,T,,M,0.13,N,0.2,K,A*09
$GPGGA,180739.000,3748.8008,N,12217.8594,W,1,07,1.3,4.7,M,-25.1,M,,0000*68
$GPGSA,A,3,31,03,11,14,22,19,01,,,,,,2.9,1.3,2.6*32
$GPRMC,180739.000,A,3748.8008,N,12217.8594,W,0.08,176.21,270312,,,A*79
$GPVTG,176.21,T,,M,0.08,N,0.2,K,A*04
$GPGGA,180740.000,3748.8009,N,12217.8594,W,1,07,1.3,4.4,M,-25.1,M,,0000*64
$GPGSA,A,3,31,03,11,14,22,19,01,,,,,,2.9,1.3,2.6*32
$GPRMC,180740.000,A,3748.8009,N,12217.8594,W,0.15,50.07,270312,,,A*4B
$GPVTG,50.07,T,,M,0.15,N,0.3,K,A*38
$GPGGA,180741.000,3748.8009,N,12217.8594,W,1,07,1.3,4.1,M,-25.1,M,,0000*60
$GPGSA,A,3,31,03,11,14,22,19,01,,,,,,2.9,1.3,2.6*32
$GPRMC,180741.000,A,3748.8009,N,12217.8594,W,0.14,159.95,270312,,,A*78
$GPVTG,159.95,T,,M,0.14,N,0.3,K,A*0A
$GPGGA,180742.000,3748.8009,N,12217.8595,W,1,07,1.3,3.9,M,-25.1,M,,0000*6D
$GPGSA,A,3,31,03,11,14,22,19,01,,,,,,2.9,1.3,2.6*32
$GPGSV,3,1,11,14,73,039,27,24,54,308,27,22,50,068,38,11,38,301,39*7F
$GPGSV,3,2,11,19,33,249,29,31,28,157,27,01,23,315,38,03,13,214,27*75
$GPGSV,3,3,11,18,12,088,,06,11,203,24,09,02,030,30*49
$GPVTG,209.28,T,,M,0.05,N,0.1,K,A*08
$GPGGA,180743.000,3748.8009,N,12217.8595,W,1,07,1.3,3.7,M,-25.1,M,,0000*62
$GPGSA,A,3,31,03,11,14,22,19,01,,,,,,2.9,1.3,2.6*32
$GPRMC,180743.000,A,3748.8009,N,12217.8595,W,0.14,221.73,270312,,,A*7F
$GPVTG,221.73,T,,M,0.14,N,0.3,K,A*0E
$GPGGA,180744.000,3748.8009,N,12217.8595,W,1,07,1.3,3.6,M,-25.1,M,,0000*64
$GPGSA,A,3,31,03,11,14,22,19,01,,,,,,2.9,1.3,2.6*32
$GPRMC,180744.000,A,3748.8009,N,12217.8595,W,0.06,188.16,270312,,,A*78
$GPVTG,188.16,T,,M,0.06,N,0.1,K,A*0C
$GPGGA,180745.000,3748.8008,N,12217.8595,W,1,07,1.3,3.4,M,-25.1,M,,0000*66
$GPGSA,A,3,31,03,11,14,22,19,01,,,,,,2.9,1.3,2.6*32
$GPRMC,180745.000,A,3748.8008,N,12217.8595,W,0.09,193.09,270312,,,A*73
$GPVTG,193.09,T,,M,0.09,N,0.2,K,A*04
$GPGGA,180746.000,3748.8010,N,12217.8595,W,1,07,1.3,4.1,M,-25.1,M,,0000*6E
$GPGSA,A,3,31,03,11,14,22,19,01,,,,,,2.9,1.3,2.6*32
$GPRMC,180746.000,A,3748.8010,N,12217.8595,W,0.09,246.72,270312,,,A*7E
$GPVTG,246.72,T,,M,0.09,N,0.2,K,A*03
$GPGGA,180747.000,3748.8012,N,12217.8593,W,1,07,1.3,1.8,M,-25.1,M,,0000*67
$GPGSA,A,3,31,03,11,14,22,19,01,,,,,,2.9,1.3,2.6*32
$GPGSV,3,1,11,14,72,038,33,24,55,307,28,22,50,069,38,11,39,300,40*74
$GPGSV,3,2,11,19,33,249,30,31,28,157,28,01,23,315,40,03,13,214,34*7F
$GPGSV,3,3,11,18,11,089,,06,11,203,22,09,02,030,29*45
$GPRMC,180747.000,A,3748.8012,N,12217.8593,W,0.18,160.73,270312,,,A*7D
$GPVTG,160.73,T,,M,0.18,N,0.3,K,A*04
$GPGGA,180748.000,3748.8012,N,12217.8591,W,1,07,1.3,-0.4,M,-25.1,M,,0000*4A
$GPGSA,A,3,31,03,11,14,22,19,01,,,,,,2.9,1.3,2.6*32
$GPRMC,180748.000,A,3748.8012,N,12217.8591,W,0.09,252.29,270312,,,A*7D
$GPVTG,252.29,T,,M,0.09,N,0.2,K,A*08
$GPGGA,180749.000,3748.8012,N,12217.8590,W,1,07,1.3,-2.2,M,-25.1,M,,0000*4E
$GPGSA,A,3,31,03,11,14,22,19,01,,,,,,2.9,1.3,2.6*32
$GPRMC,180749.000,A,3748.8012,N,12217.8590,W,0.10,73.49,270312,,,A*42
$GPVTG,73.49,T,,M,0.10,N,0.2,K,A*37
$GPGGA,180750.000,3748.8012,N,12217.8589,W,1,07,1.3,-3.8,M,-25.1,M,,0000*45
$GPGSA,A,3,31,03,11,14,22,19,01,,,,,,2.9,1.3,2.6*32
$GPRMC,180750.000,A,3748.8012,N,12217.8589,W,0.06,208.48,270312,,,A*7A
$GPVTG,208.48,T,,M,0.06,N,0.1,K,A*0C
$GPGGA,180751.000,3748.8012,N,12217.8588,W,1,07,1.3,-4.0,M,-25.1,M,,0000*4A
$GPGSA,A,3,31,03,11,14,22,19,01,,,,,,2.9,1.3,2.6*32
$GPRMC,180751.000,A,3748.8012,N,12217.8588,W,0.16,108.90,270312,,,A*7D
$GPVTG,108.90,T,,M,0.16,N,0.3,K,A*09
$GPGGA,180752.000,3748.8012,N,12217.8587,W,1,07,1.3,-5.2,M,-25.1,M,,0000*45
$GPGSA,A,3,31,03,11,14,22,19,01,,,,,,2.9,1.3,2.6*32
$GPGSV,3,1,11,14,72,038,33,24,55,307,27,22,50,069,39,11,39,300,40*7A
$GPGSV,3,2,11,19,33,249,31,31,28,157,28,01,23,315,40,03,13,214,26*7D
$GPGSV,3,3,11,18,11,089,,06,11,203,22,09,02,030,28*44
$GPRMC,180752.000,A,3748.8012,N,12217.8587,W,0.08,28.13,270312,,,A*46
$GPVTG,28.13,T,,M,0.08,N,0.1,K,A*3C
$GPGGA,180753.000,3748.8012,N,12217.8586,W,1,07,1.3,-6.1,M,-25.1,M,,0000*45
$GPGSA,A,3,31,03,11,14,22,19,01,,,,,,2.9,1.3,2.6*32
$GPRMC,180753.000,A,3748.8012,N,12217.8586,W,0.19,129.26,270312,,,A*70
$GPVTG,129.26,T,,M,0.19,N,0.4,K,A*0F
$GPGGA,180754.000,3748.8013,N,12217.8584,W,1,07,1.3,-5.4,M,-25.1,M,,0000*47
$GPGSA,A,3,31,03,11,14,22,19,01,,,,,,2.9,1.3,2.6*32
$GPRMC,180754.000,A,3748.8013,N,12217.8584,W,0.12,156.40,270312,,,A*77
$GPVTG,156.40,T,,M,0.12,N,0.2,K,A*0A
$GPGGA,180755.000,3748.8013,N,12217.8584,W,1,07,1.3,-4.8,M,-25.1,M,,0000*4B
$GPGSA,A,3,31,03,11,14,22,19,01,,,,,,2.9,1.3,2.6*32
$GPRMC,180755.000,A,3748.8013,N,12217.8584,W,0.15,321.60,270312,,,A*71
$GPVTG,321.60,T,,M,0.15,N,0.3,K,A*0C
$GPGGA,180756.000,3748.8013,N,12217.8587,W,1,07,1.3,-3.9,M,-25.1,M,,0000*4D
$GPGSA,A,3,31,03,11,14,22,19,01,,,,,,2.9,1.3,2.6*32
$GPRMC,180756.000,A,3748.8013,N,12217.8587,W,0.41,276.32,270312,,,A*74
$GPVTG,276.32,T,,M,0.41,N,0.8,K,A*02
$GPGGA,180757.000,3748.8010,N,12217.8585,W,1,07,1.3,-4.5,M,-25.1,M,,0000*46
$GPGSA,A,3,31,03,11,14,22,19,01,,,,,,2.9,1.3,2.6*32
$GPGSV,3,1,11,14,72,038,24,24,55,307,25,22,50,069,33,11,39,300,33*70
$GPGSV,3,2,11,19,33,249,27,31,28,157,28,01,23,315,33,03,13,214,26*7E
$GPGSV,3,3,11,18,11,089,,06,11,203,21,09,02,030,25*4A
$GPVTG,147.93,T,,M,0.45,N,0.8,K,A*0C
$GPGGA,180758.000,3748.8010,N,12217.8580,W,1,07,1.3,-4.2,M,-25.1,M,,0000*4B
$GPGSA,A,3,31,03,11,14,22,19,01,,,,,,2.9,1.3,2.6*32
$GPRMC,180758.000,A,3748.8010,N,12217.8580,W,0.99,104.20,270312,,,A*7E
$GPVTG,104.20,T,,M,0.99,N,1.8,K,A*03
$GPGGA,180759.000,3748.8009,N,12217.8575,W,1,07,1.3,-2.4,M,-25.1,M,,0000*48
$GPGSA,A,3,31,03,11,14,22,19,01,,,,,,2.9,1.3,2.6*32
$GPRMC,180759.000,A,3748.8009,N,12217.8575,W,2.29,112.42,270312,,,A*77
$GPVTG,112.42,T,,M,2.29,N,4.2,K,A*06
$GPGGA,180800.000,3748.8005,N,12217.8568,W,1,06,2.0,-1.9,M,-25.1,M,,0000*44
$GPGSA,A,3,31,03,11,14,22,19,,,,,,,4.6,2.0,4.1*3B
$GPRMC,180800.000,A,3748.8005,N,12217.8568,W,2.47,126.47,270312,,,A*7E
$GPVTG,126.47,T,,M,2.47,N,4.6,K,A*08
$GPGGA,180801.000,3748.7999,N,12217.8558,W,1,06,2.0,-3.5,M,-25.1,M,,0000*4B
$GPGSA,A,3,31,03,11,14,22,19,,,,,,,4.6,2.0,4.1*3B
$GPRMC,180801.000,A,3748.7999,N,12217.8558,W,2.08,124.41,270312,,,A*70
$GPVTG,124.41,T,,M,2.08,N,3.9,K,A*0F
$GPGGA,180802.000,3748.7993,N,12217.8552,W,1,06,2.0,-4.0,M,-25.1,M,,0000*4A
$GPGSA,A,3,31,03,11,14,22,19,,,,,,,4.6,2.0,4.1*3B
$GPGSV,3,1,12,14,72,038,25,24,55,307,28,22,50,069,34,11,39,300,25*7F
$GPGSV,3,2,12,19,33,249,36,31,28,157,45,01,23,315,,03,13,214,26*76
$GPGSV,3,3,12,18,11,089,,06,11,203,30,09,02,030,30,51,43,156,40*78
$GPRMC,180802.000,A,3748.7993,N,12217.8552,W,1.51,108.85,270312,,,A*7A
$GPVTG,108.85,T,,M,1.51,N,2.8,K,A*06
$GPGGA,180803.000,3748.7991,N,12217.8548,W,1,06,2.0,-4.4,M,-25.1,M,,0000*46
$GPGSA,A,3,31,03,11,14,22,19,,,,,,,4.6,2.0,4.1*3B
$GPRMC,180803.000,A,3748.7991,N,12217.8548,W,1.33,137.05,270312,,,A*72
$GPVTG,137.05,T,,M,1.33,N,2.5,K,A*0B
$GPGGA,180804.000,3748.7988,N,12217.8543,W,1,06,2.0,-5.4,M,-25.1,M,,0000*43
$GPGSA,A,3,31,03,11,14,22,19,,,,,,,4.6,2.0,4.2*38
$GPRMC,180804.000,A,3748.7988,N,12217.8543,W,1.62,112.04,270312,,,A*74
$GPVTG,112.04,T,,M,1.62,N,3.0,K,A*0D
$GPGGA,180805.000,3748.7984,N,12217.8536,W,2,06,2.0,-6.5,M,-25.1,M,1.8,0000*6A
$GPGSA,A,3,31,03,11,14,22,19,,,,,,,4.6,2.0,4.2*38
$GPRMC,180805.000,A,3748.7984,N,12217.8536,W,1.88,109.32,270312,,,D*75
$GPVTG,109.32,T,,M,1.88,N,3.5,K,D*06
$GPGGA,180806.000,3748.7982,N,12217.8528,W,2,06,2.0,-6.6,M,-25.1,M,1.8,0000*63
$GPGSA,A,3,31,03,11,14,22,19,,,,,,,4.6,2.0,4.2*38
$GPRMC,180806.000,A,3748.7982,N,12217.8528,W,1.98,103.77,270312,,,D*75
$GPVTG,103.77,T,,M,1.98,N,3.7,K,D*0E
$GPGGA,180807.000,3748.7981,N,12217.8521,W,2,06,2.0,-6.9,M,-25.1,M,1.8,0000*67
$GPGSA,A,3,31,03,11,14,22,19,,,,,,,4.6,2.0,4.2*38
$GPGSV,3,1,12,14,72,038,25,24,55,307,28,22,50,069,34,11,39,300,25*7F
$GPGSV,3,2,12,19,33,249,36,31,28,157,40,01,23,315,,03,13,214,32*76
$GPGSV,3,3,12,18,11,089,,06,11,203,33,09,02,030,34,51,43,156,39*71
$GPRMC,180807.000,A,3748.7981,N,12217.8521,W,1.61,115.32,270312,,,D*7E
$GPVTG,115.32,T,,M,1.61,N,3.0,K,D*09
$GPGGA,180808.000,3748.7976,N,12217.8512,W,2,06,2.0,-8.3,M,-25.1,M,2.8,0000*67
$GPGSA,A,3,31,03,11,14,22,19,,,,,,,4.6,2.0,4.2*38
$GPRMC,180808.000,A,3748.7976,N,12217.8512,W,2.10,121.30,270312,,,D*79
$GPVTG,121.30,T,,M,2.10,N,3.9,K,D*00
$GPGGA,180809.000,3748.7973,N,12217.8504,W,2,06,2.0,-8.9,M,-25.1,M,3.8,0000*6F
$GPGSA,A,3,31,03,11,14,22,19,,,,,,,4.6,2.0,4.2*38
$GPRMC,180809.000,A,3748.7973,N,12217.8504,W,1.88,114.17,270312,,,D*7B
$GPVTG,114.17,T,,M,1.88,N,3.5,K,D*0D
$GPGGA,180810.000,3748.7971,N,12217.8497,W,2,06,2.0,-9.6,M,-25.1,M,1.8,0000*62
$GPGSA,A,3,31,03,11,14,22,19,,,,,,,4.6,2.0,4.2*38
$GPRMC,180810.000,A,3748.7971,N,12217.8497,W,1.71,119.01,270312,,,D*76
$GPVTG,119.01,T,,M,1.71,N,3.2,K,D*06
$GPGGA,180811.000,3748.7970,N,12217.8493,W,2,06,2.0,-9.2,M,-25.1,M,1.8,0000*62
$GPGSA,A,3,31,03,11,14,22,19,,,,,,,4.6,2.0,4.2*38
$GPRMC,180811.000,A,3748.7970,N,12217.8493,W,1.46,116.51,270312,,,D*7C
$GPVTG,116.51,T,,M,1.46,N,2.7,K,D*0C
$GPGGA,180812.000,3748.7969,N,12217.8489,W,2,07,1.3,-8.7,M,-25.1,M,2.8,0000*64
$GPGSA,A,3,31,03,11,14,22,19,01,,,,,,2.9,1.3,2.6*32
$GPGSV,3,1,12,14,72,038,25,24,55,307,28,22,50,069,35,11,39,300,26*7D
$GPGSV,3,2,12,19,33,249,36,31,28,157,34,01,23,315,23,03,13,214,33*75
$GPGSV,3,3,12,18,11,089,,06,11,203,35,09,02,030,21,51,43,156,31*7B
$GPRMC,180812.000,A,3748.7969,N,12217.8489,W,1.74,108.18,270312,,,D*7F
$GPVTG,108.18,T,,M,1.74,N,3.2,K,D*0B
$GPGGA,180813.000,3748.7965,N,12217.8483,W,2,07,1.3,-8.0,M,-25.1,M,3.8,0000*65
$GPGSA,A,3,31,03,11,14,22,19,01,,,,,,2.9,1.3,2.6*32
$GPRMC,180813.000,A,3748.7965,N,12217.8483,W,1.39,120.48,270312,,,D*7E
$GPVTG,120.48,T,,M,1.39,N,2.6,K,D*08
$GPGGA,180814.000,3748.7957,N,12217.8478,W,2,07,1.3,-4.9,M,-25.1,M,1.8,0000*60
$GPGSA,A,3,31,03,11,14,22,19,01,,,,,,2.9,1.3,2.6*32
$GPRMC,180814.000,A,3748.7957,N,12217.8478,W,1.71,108.61,270312,,,D*71
$GPVTG,108.61,T,,M,1.71,N,3.2,K,D*00
$GPGGA,180815.000,3748.7953,N,12217.8471,W,2,07,1.3,-4.6,M,-25.1,M,2.8,0000*60
$GPGSA,A,3,31,03,11,14,22,19,01,,,,,,2.9,1.3,2.6*32
$GPRMC,180815.000,A,3748.7953,N,12217.8471,W,1.51,101.12,270312,,,D*72
$GPVTG,101.12,T,,M,1.51,N,2.8,K,D*04
$GPGGA,180816.000,3748.7948,N,12217.8468,W,2,07,1.3,-3.2,M,-25.1,M,1.8,0000*61
$GPGSA,A,3,31,03,11,14,22,19,01,,,,,,2.9,1.3,2.6*32
$GPRMC,180816.000,A,3748.7948,N,12217.8468,W,1.43,111.97,270312,,,D*7C
$GPVTG,111.97,T,,M,1.43,N,2.7,K,D*04
$GPGGA,180817.000,3748.7945,N,12217.8463,W,2,07,1.3,-3.4,M,-25.1,M,1.8,0000*60
$GPGSA,A,3,31,03,11,14,22,19,01,,,,,,2.9,1.3,2.6*32
$GPGSV,3,1,12,14,72,038,29,24,55,307,29,22,50,069,35,11,39,300,27*71
$GPGSV,3,2,12,19,33,249,36,31,28,157,42,01,23,315,25,03,13,214,34*75
$GPGSV,3,3,12,18,11,089,35,06,11,203,33,09,02,030,21,51,43,156,35*7F
$GPRMC,180817.000,A,3748.7945,N,12217.8463,W,1.69,119.15,270312,,,D*71
$GPGGA,180818.000,3748.7944,N,12217.8455,W,2,07,1.3,-5.0,M,-25.1,M,1.8,0000*69
$GPGSA,A,3,31,03,11,14,22,19,01,,,,,,2.9,1.3,2.6*32
$GPRMC,180818.000,A,3748.7944,N,12217.8455,W,1.42,115.21,270312,,,D*78
$GPVTG,115.21,T,,M,1.42,N,2.6,K,D*0D
$GPGGA,180819.000,3748.7942,N,12217.8452,W,2,07,1.3,-4.1,M,-25.1,M,1.8,0000*69
$GPGSA,A,3,31,03,11,14,22,19,01,,,,,,2.9,1.3,2.6*32
$GPRMC,180819.000,A,3748.7942,N,12217.8452,W,1.15,97.95,270312,,,D*4E
$GPVTG,97.95,T,,M,1.15,N,2.1,K,D*3C
$GPGGA,180820.000,3748.7939,N,12217.8447,W,2,07,1.3,-3.2,M,-25.1,M,2.8,0000*6C
$GPGSA,A,3,31,03,11,14,22,19,01,,,,,,2.9,1.3,2.6*32
$GPRMC,180820.000,A,3748.7939,N,12217.8447,W,1.39,96.46,270312,,,D*4D
$GPVTG,96.46,T,,M,1.39,N,2.6,K,D*3A
$GPGGA,180821.000,3748.7937,N,12217.8443,W,2,07,1.3,-2.6,M,-25.1,M,3.8,0000*63
$GPGSA,A,3,31,03,11,14,22,19,01,,,,,,2.9,1.3,2.6*32
$GPRMC,180821.000,A,3748.7937,N,12217.8443,W,1.35,99.07,270312,,,D*40
$GPVTG,99.07,T,,M,1.35,N,2.5,K,D*3F
$GPGGA,180822.000,3748.7931,N,12217.8439,W,2,07,1.3,-0.8,M,-25.1,M,4.8,0000*60
$GPGSA,A,3,31,03,11,14,22,19,01,,,,,,2.9,1.3,2.6*32
$GPGSV,3,1,12,14,72,038,24,24,55,307,29,22,50,069,30,11,39,300,26*78
$GPGSV,3,2,12,19,33,249,33,31,28,157,37,01,23,315,25,03,13,214,34*72
$GPGSV,3,3,12,18,11,089,29,06,11,203,33,09,02,030,19,51,43,156,34*78
$GPRMC,180822.000,A,3748.7931,N,12217.8439,W,1.17,108.69,270312,,,D*79
$GPVTG,108.69,T,,M,1.17,N,2.2,K,D*09
$GPGGA,180823.000,3748.7924,N,12217.8433,W,2,07,1.3,1.0,M,-25.1,M,5.8,0000*4A
$GPGSA,A,3,31,03,11,14,22,19,01,,,,,,2.9,1.3,2.6*32
$GPRMC,180823.000,A,3748.7924,N,12217.8433,W,1.50,133.12,270312,,,D*71
$GPVTG,133.12,T,,M,1.50,N,2.8,K,D*04
$GPGGA,180824.000,3748.7917,N,12217.8426,W,2,06,2.0,2.2,M,-25.1,M,6.8,0000*4A
$GPGSA,A,3,31,03,11,14,22,19,,,,,,,4.6,2.0,4.2*38
$GPRMC,180824.000,A,3748.7917,N,12217.8426,W,2.22,136.60,270312,,,D*74
$GPVTG,136.60,T,,M,2.22,N,4.1,K,D*0D
$GPGGA,180825.000,3748.7910,N,12217.8419,W,2,06,2.0,2.7,M,-25.1,M,1.8,0000*42
$GPGSA,A,3,31,03,11,14,22,19,,,,,,,4.6,2.0,4.2*38
$GPRMC,180825.000,A,3748.7910,N,12217.8419,W,2.30,131.73,270312,,,D*78
$GPVTG,131.73,T,,M,2.30,N,4.3,K,D*09
$GPGGA,180826.000,3748.7904,N,12217.8413,W,2,06,2.0,3.7,M,-25.1,M,1.8,0000*4F
$GPGSA,A,3,31,03,11,14,22,19,,,,,,,4.6,2.0,4.2*38
$GPRMC,180826.000,A,3748.7904,N,12217.8413,W,2.17,126.76,270312,,,D*72
$GPVTG,126.76,T,,M,2.17,N,4.0,K,D*0C
$GPGGA,180827.000,3748.7897,N,12217.8406,W,2,06,2.0,4.7,M,-25.1,M,2.8,0000*45
$GPGSA,A,3,31,03,11,14,22,19,,,,,,,4.6,2.0,4.2*38
$GPGSV,3,1,12,14,72,038,24,24,55,307,28,22,50,069,35,11,39,300,26*7C
$GPGSV,3,2,12,19,33,249,35,31,28,157,44,01,23,315,,03,13,214,35*76
$GPGSV,3,3,12,18,11,089,30,06,11,203,32,09,02,030,19,51,43,156,41*73
$GPRMC,180827.000,A,3748.7897,N,12217.8406,W,2.42,126.02,270312,,,D*7F
$GPVTG,126.02,T,,M,2.42,N,4.5,K,D*0A
$GPGGA,180828.000,3748.7890,N,12217.8398,W,2,06,2.0,5.2,M,-25.1,M,3.8,0000*48
$GPGSA,A,3,31,03,11,14,22,19,,,,,,,4.6,2.0,4.2*38
$GPRMC,180828.000,A,3748.7890,N,12217.8398,W,2.33,119.03,270312,,,D*7C
$GPVTG,119.03,T,,M,2.33,N,4.3,K,D*07
$GPGGA,180829.000,3748.7886,N,12217.8392,W,2,07,1.3,6.2,M,-25.1,M,1.8,0000*44
$GPGSA,A,3,31,03,11,14,22,19,01,,,,,,2.9,1.3,2.6*32
$GPRMC,180829.000,A,3748.7886,N,12217.8392,W,2.04,111.80,270312,,,D*77
$GPVTG,111.80,T,,M,2.04,N,3.8,K,D*0C
$GPGGA,180830.000,3748.7871,N,12217.8388,W,2,07,1.3,11.7,M,-25.1,M,2.8,0000*7F
$GPGSA,A,3,31,03,11,14,22,19,01,,,,,,2.9,1.3,2.6*32
$GPRMC,180830.000,A,3748.7871,N,12217.8388,W,2.35,124.48,270312,,,D*7C
$GPVTG,124.48,T,,M,2.35,N,4.4,K,D*07
$GPGGA,180831.000,3748.7869,N,12217.8382,W,2,07,1.3,11.3,M,-25.1,M,3.8,0000*78
$GPGSA,A,3,31,03,11,14,22,19,01,,,,,,2.9,1.3,2.6*32
$GPRMC,180831.000,A,3748.7869,N,12217.8382,W,2.19,131.84,270312,,,D*74
$GPVTG,131.84,T,,M,2.19,N,4.1,K,D*08
$GPGGA,180832.000,3748.7869,N,12217.8374,W,2,07,1.3,9.9,M,-25.1,M,4.8,0000*46
$GPGSA,A,3,31,03,11,14,22,19,01,,,,,,2.9,1.3,2.6*32
$GPGSV,3,1,12,14,72,038,24,24,55,307,28,22,50,069,35,11,39,300,25*7F
$GPGSV,3,2,12,19,33,249,36,31,28,157,41,01,23,315,26,03,13,214,35*74
$GPGSV,3,3,12,18,11,089,25,06,11,203,22,09,02,030,25,51,43,156,39*76
$GPRMC,180832.000,A,3748.7869,N,12217.8374,W,2.32,125.24,270312,,,D*78
$GPVTG,125.24,T,,M,2.32,N,4.3,K,D*0C
$GPGGA,180833.000,3748.7866,N,12217.8367,W,2,07,1.3,9.8,M,-25.1,M,5.8,0000*4A
$GPGSA,A,3,31,03,11,14,22,19,01,,,,,,2.9,1.3,2.6*32
$GPRMC,180833.000,A,3748.7866,N,12217.8367,W,2.20,121.75,270312,,,D*77
$GPVTG,121.75,T,,M,2.20,N,4.1,K,D*0D
$GPGGA,180834.000,3748.7860,N,12217.8361,W,2,07,1.3,11.5,M,-25.1,M,6.8,0000*7A
$GPGSA,A,3,31,03,11,14,22,19,01,,,,,,2.9,1.3,2.6*32
$GPRMC,180834.000,A,3748.7860,N,12217.8361,W,2.08,120.82,270312,,,D*73
$GPVTG,120.82,T,,M,2.08,N,3.8,K,D*00
$GPGGA,180835.000,3748.7855,N,12217.8352,W,2,07,1.3,11.5,M,-25.1,M,1.8,0000*7A
$GPGSA,A,3,31,03,11,14,22,19,01,,,,,,2.9,1.3,2.6*32
$GPRMC,180835.000,A,3748.7855,N,12217.8352,W,1.88,120.16,270312,,,D*72
$GPVTG,120.16,T,,M,1.88,N,3.5,K,D*0B
$GPGGA,180836.000,3748.7851,N,12217.8345,W,2,07,1.3,11.3,M,-25.1,M,1.8,0000*7D
$GPGSA,A,3,31,03,11,14,22,19,01,,,,,,2.9,1.3,2.6*32
$GPRMC,180836.000,A,3748.7851,N,12217.8345,W,2.02,116.17,270312,,,D*76
$GPVTG,116.17,T,,M,2.02,N,3.7,K,D*0C
$GPGGA,180837.000,3748.7848,N,12217.8335,W,2,06,2.0,9.7,M,-25.1,M,1.8,0000*4F
$GPGSA,A,3,31,03,11,14,22,19,,,,,,,4.6,2.0,4.2*38
$GPGSV,3,1,12,14,72,038,24,24,55,307,28,22,50,069,34,11,39,300,25*7E
$GPGSV,3,2,12,19,33,249,35,31,28,157,43,01,23,315,,03,13,214,27*72
$GPGSV,3,3,12,18,11,089,25,06,11,203,32,09,02,030,23,51,43,156,42*7D
$GPRMC,180837.000,A,3748.7848,N,12217.8335,W,2.18,117.18,270312,,,D*7D
$GPGGA,180838.000,3748.7847,N,12217.8327,W,2,06,2.0,7.9,M,-25.1,M,2.8,0000*4F
$GPGSA,A,3,31,03,11,14,22,19,,,,,,,4.6,2.0,4.2*38
$GPRMC,180838.000,A,3748.7847,N,12217.8327,W,2.15,116.24,270312,,,D*7D
$GPVTG,116.24,T,,M,2.15,N,4.0,K,D*0A
$GPGGA,180839.000,3748.7844,N,12217.8318,W,2,06,2.0,6.8,M,-25.1,M,3.8,0000*40
$GPGSA,A,3,31,03,11,14,22,19,,,,,,,4.6,2.0,4.2*38
$GPRMC,180839.000,A,3748.7844,N,12217.8318,W,2.06,117.37,270312,,,D*72
$GPVTG,117.37,T,,M,2.06,N,3.8,K,D*04
$GPGGA,180840.000,3748.7838,N,12217.8309,W,2,06,2.0,7.5,M,-25.1,M,4.8,0000*4E
$GPGSA,A,3,31,03,11,14,22,19,,,,,,,4.6,2.0,4.2*38
$GPRMC,180840.000,A,3748.7838,N,12217.8309,W,2.08,121.20,270312,,,D*7A
$GPVTG,121.20,T,,M,2.08,N,3.9,K,D*08
$GPGGA,180841.000,3748.7833,N,12217.8300,W,2,06,2.0,6.4,M,-25.1,M,5.8,0000*4C
$GPGSA,A,3,31,03,11,14,22,19,,,,,,,4.6,2.0,4.2*38
$GPRMC,180841.000,A,3748.7833,N,12217.8300,W,2.07,124.38,270312,,,D*7A
$GPVTG,124.38,T,,M,2.07,N,3.8,K,D*0A
$GPGGA,180842.000,3748.7830,N,12217.8291,W,2,06,2.0,4.0,M,-25.1,M,1.8,0000*47
$GPGSA,A,3,31,03,11,14,22,19,,,,,,,4.6,2.0,4.2*38
$GPGSV,3,1,12,14,72,038,24,24,55,307,26,22,50,069,34,11,39,300,25*70
$GPGSV,3,2,12,19,33,249,37,31,28,157,43,01,23,315,,03,13,214,35*73
$GPGSV,3,3,12,18,11,089,25,06,11,203,38,09,02,030,20,51,43,156,35*74
$GPRMC,180842.000,A,3748.7830,N,12217.8291,W,2.19,115.50,270312,,,D*70
$GPVTG,115.50,T,,M,2.19,N,4.1,K,D*07
$GPGGA,180843.000,3748.7825,N,12217.8283,W,2,07,1.3,4.8,M,-25.1,M,2.8,0000*4B
$GPGSA,A,3,31,03,11,14,22,19,01,,,,,,2.9,1.3,2.6*32
$GPRMC,180843.000,A,3748.7825,N,12217.8283,W,2.34,111.55,270312,,,D*78
$GPVTG,111.55,T,,M,2.34,N,4.3,K,D*0B
$GPGGA,180844.000,3748.7818,N,12217.8274,W,2,07,1.3,6.1,M,-25.1,M,3.8,0000*40
$GPGSA,A,3,31,03,11,14,22,19,01,,,,,,2.9,1.3,2.6*32
$GPRMC,180844.000,A,3748.7818,N,12217.8274,W,2.24,110.89,270312,,,D*78
$GPVTG,110.89,T,,M,2.24,N,4.2,K,D*0B
$GPGGA,180845.000,3748.7811,N,12217.8267,W,2,07,1.3,7.6,M,-25.1,M,4.8,0000*4B
$GPGSA,A,3,31,03,11,14,22,19,01,,,,,,2.9,1.3,2.6*32
$GPRMC,180845.000,A,3748.7811,N,12217.8267,W,2.06,120.03,270312,,,D*73
$GPVTG,120.03,T,,M,2.06,N,3.8,K,D*07
$GPGGA,180846.000,3748.7807,N,12217.8260,W,2,07,1.3,7.4,M,-25.1,M,1.8,0000*4F
$GPGSA,A,3,31,03,11,14,22,19,01,,,,,,2.9,1.3,2.6*32
$GPRMC,180846.000,A,3748.7807,N,12217.8260,W,2.01,115.08,270312,,,D*7A
$GPVTG,115.08,T,,M,2.01,N,3.7,K,D*02
$GPGGA,180847.000,3748.7794,N,12217.8255,W,2,07,1.3,11.9,M,-25.1,M,1.8,0000*77
$GPGSA,A,3,31,03,11,14,22,19,01,,,,,,2.9,1.3,2.6*32
$GPGSV,3,1,12,14,72,038,24,24,55,307,26,22,50,069,34,11,39,300,25*70
$GPGSV,3,2,12,19,32,248,35,31,29,157,43,01,24,315,25,03,12,214,35*71
$GPGSV,3,3,12,18,11,089,28,06,11,203,30,09,02,030,20,51,43,156,42*71
$GPRMC,180847.000,A,3748.7794,N,12217.8255,W,1.81,121.46,270312,,,D*7E
$GPVTG,121.46,T,,M,1.81,N,3.4,K,D*07
$GPGGA,180848.000,3748.7785,N,12217.8248,W,2,07,1.3,14.3,M,-25.1,M,1.8,0000*7B
$GPGSA,A,3,31,03,11,14,22,19,01,,,,,,2.9,1.3,2.6*32
$GPRMC,180848.000,A,3748.7785,N,12217.8248,W,2.14,124.23,270312,,,D*74
$GPVTG,124.23,T,,M,2.14,N,4.0,K,D*0D
$GPGGA,180849.000,3748.7780,N,12217.8239,W,2,07,1.3,14.4,M,-25.1,M,1.8,0000*7E
$GPGSA,A,3,31,03,11,14,22,19,01,,,,,,2.9,1.3,2.6*32
$GPRMC,180849.000,A,3748.7780,N,12217.8239,W,2.20,121.51,270312,,,D*71
$GPVTG,121.51,T,,M,2.20,N,4.1,K,D*0B
$GPGGA,180850.000,3748.7776,N,12217.8230,W,2,06,2.0,13.5,M,-25.1,M,2.8,0000*72
$GPGSA,A,3,31,03,11,14,22,19,,,,,,,4.6,2.0,4.2*38
$GPRMC,180850.000,A,3748.7776,N,12217.8230,W,2.44,129.06,270312,,,D*71
$GPVTG,129.06,T,,M,2.44,N,4.5,K,D*07
$GPGGA,180851.000,3748.7768,N,12217.8222,W,2,06,2.0,15.1,M,-25.1,M,3.8,0000*7C
$GPGSA,A,3,31,03,11,14,22,19,,,,,,,4.6,2.0,4.2*38
$GPRMC,180851.000,A,3748.7768,N,12217.8222,W,2.31,125.40,270312,,,D*70
$GPVTG,125.40,T,,M,2.31,N,4.3,K,D*0D
$GPGGA,180852.000,3748.7763,N,12217.8215,W,2,06,2.0,16.3,M,-25.1,M,4.8,0000*76
$GPGSA,A,3,31,03,11,14,22,19,,,,,,,4.6,2.0,4.2*38
$GPGSV,3,1,12,14,72,038,24,24,55,307,29,22,50,069,34,11,39,300,26*7C
$GPGSV,3,2,12,19,32,248,37,31,29,157,44,01,24,315,,03,12,214,30*76
$GPGSV,3,3,12,18,11,089,25,06,11,203,30,09,02,030,19,51,43,156,41*75
$GPRMC,180852.000,A,3748.7763,N,12217.8215,W,2.21,131.28,270312,,,D*76
$GPVTG,131.28,T,,M,2.21,N,4.1,K,D*05
$GPGGA,180853.000,3748.7760,N,12217.8208,W,2,06,2.0,16.1,M,-25.1,M,1.8,0000*7F
$GPGSA,A,3,31,03,11,14,22,19,,,,,,,4.6,2.0,4.2*38
$GPRMC,180853.000,A,3748.7760,N,12217.8208,W,2.22,120.70,270312,,,D*76
$GPVTG,120.70,T,,M,2.22,N,4.1,K,D*0B
$GPGGA,180854.000,3748.7758,N,12217.8200,W,2,07,1.3,15.8,M,-25.1,M,1.8,0000*70
$GPGSA,A,3,31,03,11,14,22,19,01,,,,,,2.9,1.3,2.6*32
$GPRMC,180854.000,A,3748.7758,N,12217.8200,W,2.21,112.24,270312,,,D*71
$GPVTG,112.24,T,,M,2.21,N,4.1,K,D*08
$GPGGA,180855.000,3748.7755,N,12217.8193,W,2,07,1.3,16.5,M,-25.1,M,1.8,0000*7B
$GPGSA,A,3,31,03,11,14,22,19,01,,,,,,2.9,1.3,2.6*32
$GPRMC,180855.000,A,3748.7755,N,12217.8193,W,1.94,119.70,270312,,,D*73
$GPVTG,119.70,T,,M,1.94,N,3.6,K,D*0F
$GPGGA,180856.000,3748.7749,N,12217.8186,W,2,07,1.3,17.8,M,-25.1,M,2.8,0000*7E
$GPGSA,A,3,31,03,11,14,22,19,01,,,,,,2.9,1.3,2.6*32
$GPRMC,180856.000,A,3748.7749,N,12217.8186,W,2.21,130.38,270312,,,D*73
$GPVTG,130.38,T,,M,2.21,N,4.1,K,D*05
$GPGGA,180857.000,3748.7744,N,12217.8180,W,2,07,1.3,18.5,M,-25.1,M,3.8,0000*77
$GPGSA,A,3,31,03,11,14,22,19,01,,,,,,2.9,1.3,2.6*32
$GPGSV,3,1,12,14,72,038,29,24,55,307,29,22,50,069,36,11,39,300,26*73
$GPGSV,3,2,12,19,32,248,36,31,29,157,44,01,24,315,24,03,12,214,34*75
$GPGSV,3,3,12,18,11,089,26,06,11,203,35,09,02,030,18,51,43,156,40*73
$GPRMC,180857.000,A,3748.7744,N,12217.8180,W,2.31,124.46,270312,,,D*74
$GPGGA,180858.000,3748.7740,N,12217.8173,W,2,06,2.0,18.8,M,-25.1,M,1.8,0000*7E
$GPGSA,A,3,31,03,11,14,22,19,,,,,,,4.7,2.0,4.2*39
$GPRMC,180858.000,A,3748.7740,N,12217.8173,W,2.49,126.05,270312,,,D*79
$GPVTG,126.05,T,,M,2.49,N,4.6,K,D*05
$GPGGA,180859.000,3748.7732,N,12217.8164,W,2,06,2.0,19.6,M,-25.1,M,1.8,0000*73
$GPGSA,A,3,31,03,11,14,22,19,,,,,,,4.7,2.0,4.2*39
$GPRMC,180859.000,A,3748.7732,N,12217.8164,W,2.56,125.29,270312,,,D*78
$GPVTG,125.29,T,,M,2.56,N,4.7,K,D*07
$GPGGA,180900.000,3748.7727,N,12217.8155,W,2,06,2.0,18.5,M,-25.1,M,1.8,0000*7A
$GPGSA,A,3,31,03,11,14,22,19,,,,,,,4.7,2.0,4.2*39
$GPRMC,180900.000,A,3748.7727,N,12217.8155,W,2.49,123.13,270312,,,D*72
$GPVTG,123.13,T,,M,2.49,N,4.6,K,D*07
$GPGGA,180901.000,3748.7724,N,12217.8147,W,2,06,2.0,17.8,M,-25.1,M,1.8,0000*79
$GPGSA,A,3,31,03,11,14,22,19,,,,,,,4.7,2.0,4.2*39
$GPRMC,180901.000,A,3748.7724,N,12217.8147,W,2.38,120.86,270312,,,D*7A
$GPVTG,120.86,T,,M,2.38,N,4.4,K,D*0C
$GPGGA,180902.000,3748.7721,N,12217.8139,W,2,06,2.0,16.9,M,-25.1,M,1.8,0000*76
$GPGSA,A,3,31,03,11,14,22,19,,,,,,,4.7,2.0,4.2*39
$GPGSV,3,1,12,14,72,038,24,24,55,307,29,22,50,069,37,11,39,300,25*7C
$GPGSV,3,2,12,19,32,248,37,31,29,157,46,01,24,315,,03,12,214,34*70
$GPGSV,3,3,12,18,11,089,28,06,11,203,39,09,02,030,16,51,43,156,41*7E
$GPRMC,180902.000,A,3748.7721,N,12217.8139,W,2.30,123.11,270312,,,D*70
$GPVTG,123.11,T,,M,2.30,N,4.3,K,D*0E
$GPGGA,180903.000,3748.7719,N,12217.8129,W,2,06,2.0,14.6,M,-25.1,M,2.8,0000*73
$GPGSA,A,3,31,03,11,14,22,19,,,,,,,4.7,2.0,4.2*39
$GPRMC,180903.000,A,3748.7719,N,12217.8129,W,2.28,117.38,270312,,,D*7E
$GPVTG,117.38,T,,M,2.28,N,4.2,K,D*0A
$GPGGA,180904.000,3748.7715,N,12217.8123,W,2,06,2.0,15.4,M,-25.1,M,3.8,0000*70
$GPGSA,A,3,31,03,11,14,22,19,,,,,,,4.7,2.0,4.2*39
$GPRMC,180904.000,A,3748.7715,N,12217.8123,W,2.31,116.50,270312,,,D*78
$GPVTG,116.50,T,,M,2.31,N,4.3,K,D*0C
$GPGGA,180905.000,3748.7712,N,12217.8116,W,2,06,2.0,15.9,M,-25.1,M,1.8,0000*7F
$GPGSA,A,3,31,03,11,14,22,19,,,,,,,4.7,2.0,4.2*39
$GPRMC,180905.000,A,3748.7712,N,12217.8116,W,2.25,120.94,270312,,,D*70
$GPVTG,120.94,T,,M,2.25,N,4.2,K,D*05
$GPGGA,180906.000,3748.7707,N,12217.8108,W,2,06,2.0,16.4,M,-25.1,M,1.8,0000*79
$GPGSA,A,3,31,03,11,14,22,19,,,,,,,4.7,2.0,4.2*39
$GPRMC,180906.000,A,3748.7707,N,12217.8108,W,2.26,123.55,270312,,,D*75
$GPVTG,123.55,T,,M,2.26,N,4.2,K,D*08
$GPGGA,180907.000,3748.7704,N,12217.8100,W,2,06,2.0,14.4,M,-25.1,M,1.8,0000*71
$GPGSA,A,3,31,03,11,14,22,19,,,,,,,4.7,2.0,4.2*39
$GPGSV,3,1,12,14,72,038,24,24,55,307,28,22,50,069,37,11,39,300,25*7D
$GPGSV,3,2,12,19,32,248,37,31,29,157,46,01,24,315,,03,12,214,34*70
$GPGSV,3,3,12,18,11,089,29,06,11,203,39,09,02,030,23,51,43,156,41*79
$GPRMC,180907.000,A,3748.7704,N,12217.8100,W,2.09,125.05,270312,,,D*71
$GPVTG,125.05,T,,M,2.09,N,3.9,K,D*0A
$GPGGA,180908.000,3748.7701,N,12217.8093,W,2,07,1.3,14.6,M,-25.1,M,1.8,0000*73
$GPGSA,A,3,31,03,11,14,22,19,01,,,,,,2.9,1.3,2.6*32
$GPRMC,180908.000,A,3748.7701,N,12217.8093,W,1.98,123.68,270312,,,D*76
$GPVTG,123.68,T,,M,1.98,N,3.7,K,D*02
$GPGGA,180909.000,3748.7696,N,12217.8088,W,2,07,1.3,15.4,M,-25.1,M,2.8,0000*77
$GPGSA,A,3,31,03,11,14,22,19,01,,,,,,2.9,1.3,2.6*32
$GPRMC,180909.000,A,3748.7696,N,12217.8088,W,1.87,120.84,270312,,,D*7D
$GPVTG,120.84,T,,M,1.87,N,3.5,K,D*0F
$GPGGA,180910.000,3748.7691,N,12217.8084,W,2,07,1.3,17.3,M,-25.1,M,3.8,0000*70
$GPGSA,A,3,31,03,11,14,22,19,01,,,,,,2.9,1.3,2.6*32
$GPRMC,180910.000,A,3748.7691,N,12217.8084,W,1.47,115.84,270312,,,D*74
$GPVTG,115.84,T,,M,1.47,N,2.7,K,D*06
$GPGGA,180911.000,3748.7690,N,12217.8080,W,2,07,1.3,17.4,M,-25.1,M,4.8,0000*74
$GPGSA,A,3,31,03,11,14,22,19,01,,,,,,2.9,1.3,2.6*32
$GPRMC,180911.000,A,3748.7690,N,12217.8080,W,0.83,113.83,270312,,,D*78
$GPVTG,113.83,T,,M,0.83,N,1.5,K,D*0F
$GPGGA,180912.000,3748.7687,N,12217.8078,W,2,07,1.3,18.4,M,-25.1,M,0.8,0000*7D
$GPGSA,A,3,31,03,11,14,22,19,01,,,,,,2.9,1.3,2.6*32
$GPGSV,3,1,12,14,72,038,28,24,55,307,28,22,50,069,37,11,39,300,26*72
$GPGSV,3,2,12,19,32,248,34,31,29,157,45,01,24,315,26,03,12,214,31*71
$GPGSV,3,3,12,18,11,089,24,06,11,203,33,09,02,030,20,51,43,156,41*7D
$GPRMC,180912.000,A,3748.7687,N,12217.8078,W,0.12,114.28,270312,,,D*74
$GPVTG,114.28,T,,M,0.12,N,0.2,K,D*07
$GPGGA,180913.000,3748.7685,N,12217.8076,W,2,07,1.3,19.0,M,-25.1,M,1.8,0000*74
$GPGSA,A,3,31,03,11,14,22,19,01,,,,,,2.9,1.3,2.6*32
$GPRMC,180913.000,A,3748.7685,N,12217.8076,W,0.28,82.84,270312,,,D*48
$GPVTG,82.84,T,,M,0.28,N,0.5,K,D*31
$GPGGA,180914.000,3748.7679,N,12217.8075,W,2,07,1.3,21.0,M,-25.1,M,2.8,0000*7B
$GPGSA,A,3,31,03,11,14,22,19,01,,,,,,2.9,1.3,2.6*32
$GPRMC,180914.000,A,3748.7679,N,12217.8075,W,0.69,159.97,270312,,,D*7F
$GPVTG,159.97,T,,M,0.69,N,1.3,K,D*06
$GPGGA,180915.000,3748.7677,N,12217.8070,W,2,07,1.3,20.7,M,-25.1,M,3.8,0000*76
$GPGSA,A,3,31,03,11,14,22,19,01,,,,,,2.9,1.3,2.6*32
$GPRMC,180915.000,A,3748.7677,N,12217.8070,W,1.09,124.04,270312,,,D*72
$GPVTG,124.04,T,,M,1.09,N,2.0,K,D*01
$GPGGA,180916.000,3748.7677,N,12217.8066,W,2,07,1.3,19.6,M,-25.1,M,1.8,0000*7B
$GPGSA,A,3,31,03,11,14,22,19,01,,,,,,2.9,1.3,2.6*32
$GPRMC,180916.000,A,3748.7677,N,12217.8066,W,0.92,145.64,270312,,,D*74
$GPVTG,145.64,T,,M,0.92,N,1.7,K,D*07
$GPGGA,180917.000,3748.7679,N,12217.8062,W,2,07,1.3,17.3,M,-25.1,M,1.8,0000*7B
$GPGSA,A,3,31,03,11,14,22,19,01,,,,,,2.9,1.3,2.6*32
$GPGSV,3,1,12,14,72,038,23,24,55,307,27,22,50,070,31,11,39,300,32*7D
$GPGSV,3,2,12,19,32,248,38,31,29,157,45,01,24,315,26,03,12,214,42*79
$GPGSV,3,3,12,18,11,089,29,06,11,203,38,09,02,029,19,51,43,156,41*79
$GPRMC,180917.000,A,3748.7679,N,12217.8062,W,1.91,148.22,270312,,,D*72
$GPGGA,180918.000,3748.7676,N,12217.8056,W,2,07,1.3,17.0,M,-25.1,M,1.8,0000*7F
$GPGSA,A,3,31,03,11,14,22,19,01,,,,,,2.9,1.3,2.6*32
$GPRMC,180918.000,A,3748.7676,N,12217.8056,W,2.38,117.86,270312,,,D*71
$GPVTG,117.86,T,,M,2.38,N,4.4,K,D*08
$GPGGA,180919.000,3748.7674,N,12217.8047,W,2,06,2.0,15.6,M,-25.1,M,1.8,0000*79
$GPGSA,A,3,31,03,11,14,22,19,,,,,,,4.7,2.0,4.2*39
$GPRMC,180919.000,A,3748.7674,N,12217.8047,W,2.44,105.81,270312,,,D*7D
$GPVTG,105.81,T,,M,2.44,N,4.5,K,D*06
$GPGGA,180920.000,3748.7671,N,12217.8038,W,2,06,2.0,15.2,M,-25.1,M,2.8,0000*79
$GPGSA,A,3,31,03,11,14,22,19,,,,,,,4.7,2.0,4.2*39
$GPRMC,180920.000,A,3748.7671,N,12217.8038,W,2.39,107.84,270312,,,D*77
$GPVTG,107.84,T,,M,2.39,N,4.4,K,D*0A
$GPGGA,180921.000,3748.7672,N,12217.8029,W,2,07,1.3,13.7,M,-25.1,M,3.8,0000*78
$GPGSA,A,3,31,03,11,14,22,19,01,,,,,,2.9,1.3,2.6*32
$GPRMC,180921.000,A,3748.7672,N,12217.8029,W,1.61,91.19,270312,,,D*41
$GPVTG,91.19,T,,M,1.61,N,3.0,K,D*3D
$GPGGA,180922.000,3748.7672,N,12217.8020,W,2,08,1.3,13.1,M,-25.1,M,4.8,0000*7C
$GPGSA,A,3,31,03,11,14,22,19,06,01,,,,,2.8,1.3,2.5*36
$GPGSV,3,1,12,14,72,038,24,24,55,307,28,22,50,070,35,11,39,300,28*7A
$GPGSV,3,2,12,19,32,248,31,31,29,157,44,01,24,315,25,03,12,214,39*7E
$GPGSV,3,3,12,18,11,089,41,06,11,203,33,09,02,029,,51,43,156,39*7B
$GPRMC,180922.000,A,3748.7672,N,12217.8020,W,2.01,90.53,270312,,,D*41
$GPVTG,90.53,T,,M,2.01,N,3.7,K,D*30
$GPGGA,180923.000,3748.7669,N,12217.8011,W,2,08,1.3,13.0,M,-25.1,M,5.8,0000*75
$GPGSA,A,3,31,03,11,14,22,19,06,01,,,,,2.8,1.3,2.5*36
$GPRMC,180923.000,A,3748.7669,N,12217.8011,W,2.30,106.11,270312,,,D*72
$GPVTG,106.11,T,,M,2.30,N,4.3,K,D*09
$GPGGA,180924.000,3748.7670,N,12217.7998,W,2,08,1.3,11.9,M,-25.1,M,1.8,0000*72
$GPGSA,A,3,31,03,11,14,22,19,06,01,,,,,2.8,1.3,2.5*36
$GPRMC,180924.000,A,3748.7670,N,12217.7998,W,2.48,88.41,270312,,,D*47
$GPVTG,88.41,T,,M,2.48,N,4.6,K,D*31
$GPGGA,180925.000,3748.7669,N,12217.7990,W,2,08,1.3,11.8,M,-25.1,M,1.8,0000*72
$GPGSA,A,3,31,03,11,14,22,19,06,01,,,,,2.8,1.3,2.5*36
$GPRMC,180925.000,A,3748.7669,N,12217.7990,W,2.41,92.91,270312,,,D*49
$GPVTG,92.91,T,,M,2.41,N,4.5,K,D*3D
$GPGGA,180926.000,3748.7665,N,12217.7981,W,2,08,1.3,12.0,M,-25.1,M,1.8,0000*76
$GPGSA,A,3,31,03,11,14,22,19,06,01,,,,,2.8,1.3,2.5*36
$GPRMC,180926.000,A,3748.7665,N,12217.7981,W,2.27,102.37,270312,,,D*72
$GPVTG,102.37,T,,M,2.27,N,4.2,K,D*0E
$GPGGA,180927.000,3748.7662,N,12217.7974,W,2,08,1.3,12.3,M,-25.1,M,2.8,0000*7A
$GPGSA,A,3,31,03,11,14,22,19,06,01,,,,,2.8,1.3,2.5*36
$GPGSV,3,1,12,14,72,038,24,24,55,307,28,22,50,070,35,11,39,300,28*7A
$GPGSV,3,2,12,19,32,248,33,31,29,157,43,01,24,315,25,03,12,214,28*7B
$GPGSV,3,3,12,18,11,089,34,06,10,203,30,09,02,029,,51,43,156,42*77
$GPRMC,180927.000,A,3748.7662,N,12217.7974,W,1.75,102.61,270312,,,D*79
$GPVTG,102.61,T,,M,1.75,N,3.2,K,D*0E
$GPGGA,180928.000,3748.7661,N,12217.7970,W,2,08,1.3,12.7,M,-25.1,M,3.8,0000*77
$GPGSA,A,3,31,03,11,14,22,19,06,01,,,,,2.8,1.3,2.5*36
$GPRMC,180928.000,A,3748.7661,N,12217.7970,W,1.82,105.79,270312,,,D*77
$GPVTG,105.79,T,,M,1.82,N,3.4,K,D*0E
$GPGGA,180929.000,3748.7660,N,12217.7964,W,2,08,1.3,12.7,M,-25.1,M,1.8,0000*70
$GPGSA,A,3,31,03,11,14,22,19,06,01,,,,,2.8,1.3,2.5*36
$GPRMC,180929.000,A,3748.7660,N,12217.7964,W,1.69,102.49,270312,,,D*73
$GPVTG,102.49,T,,M,1.69,N,3.1,K,D*0A
$GPGGA,180930.000,3748.7655,N,12217.7960,W,2,08,1.3,13.6,M,-25.1,M,1.8,0000*7A
$GPGSA,A,3,31,03,11,14,22,19,06,01,,,,,2.8,1.3,2.5*36
$GPRMC,180930.000,A,3748.7655,N,12217.7960,W,1.76,119.14,270312,,,D*75
$GPVTG,119.14,T,,M,1.76,N,3.3,K,D*04
$GPGGA,180931.000,3748.7649,N,12217.7954,W,2,08,1.3,14.6,M,-25.1,M,1.8,0000*76
$GPGSA,A,3,31,03,11,14,22,19,06,01,,,,,2.8,1.3,2.5*36
$GPRMC,180931.000,A,3748.7649,N,12217.7954,W,2.15,114.82,270312,,,D*7A
$GPVTG,114.82,T,,M,2.15,N,4.0,K,D*04
$GPGGA,180932.000,3748.7644,N,12217.7947,W,2,08,1.3,15.1,M,-25.1,M,1.8,0000*7C
$GPGSA,A,3,31,03,11,14,22,19,06,01,,,,,2.8,1.3,2.5*36
$GPGSV,3,1,12,14,72,038,25,24,55,307,28,22,50,070,35,11,39,300,27*74
$GPGSV,3,2,12,19,32,248,35,31,29,157,44,01,24,315,25,03,12,214,34*77
$GPGSV,3,3,12,18,11,089,28,06,10,203,39,09,02,029,16,51,43,156,40*76
$GPRMC,180932.000,A,3748.7644,N,12217.7947,W,2.12,122.16,270312,,,D*79
$GPVTG,122.16,T,,M,2.12,N,3.9,K,D*05
$GPGGA,180933.000,3748.7639,N,12217.7942,W,2,08,1.3,16.1,M,-25.1,M,1.8,0000*71
$GPGSA,A,3,31,03,11,14,22,19,06,01,,,,,2.8,1.3,2.5*36
$GPRMC,180933.000,A,3748.7639,N,12217.7942,W,2.13,115.90,270312,,,D*7C
$GPVTG,115.90,T,,M,2.13,N,3.9,K,D*0E
$GPGGA,180934.000,3748.7636,N,12217.7935,W,2,08,1.3,16.2,M,-25.1,M,2.8,0000*79
$GPGSA,A,3,31,03,11,14,22,19,06,01,,,,,2.8,1.3,2.5*36
$GPRMC,180934.000,A,3748.7636,N,12217.7935,W,2.44,117.08,270312,,,D*75
$GPVTG,117.08,T,,M,2.44,N,4.5,K,D*04
$GPGGA,180935.000,3748.7634,N,12217.7926,W,2,08,1.3,14.6,M,-25.1,M,1.8,0000*7D
$GPGSA,A,3,31,03,11,14,22,19,06,01,,,,,2.8,1.3,2.5*36
$GPRMC,180935.000,A,3748.7634,N,12217.7926,W,2.85,114.37,270312,,,D*76
$GPVTG,114.37,T,,M,2.85,N,5.3,K,D*01
$GPGGA,180936.000,3748.7634,N,12217.7915,W,2,08,1.3,11.4,M,-25.1,M,1.8,0000*79
$GPGSA,A,3,31,03,11,14,22,19,06,01,,,,,2.8,1.3,2.5*36
$GPRMC,180936.000,A,3748.7634,N,12217.7915,W,2.53,103.18,270312,,,D*75
$GPVTG,103.18,T,,M,2.53,N,4.7,K,D*04
$GPGGA,180937.000,3748.7636,N,12217.7904,W,2,08,1.3,8.3,M,-25.1,M,1.8,0000*45
$GPGSA,A,3,31,03,11,14,22,19,06,01,,,,,2.8,1.3,2.5*36
$GPGSV,3,1,12,14,72,038,25,24,55,307,29,22,50,070,35,11,39,300,23*71
$GPGSV,3,2,12,19,32,248,36,31,29,157,43,01,24,315,24,03,12,214,38*7E
$GPGSV,3,3,12,18,11,089,26,06,10,203,36,09,02,029,,51,43,156,39*7E
$GPVTG,89.54,T,,M,2.50,N,4.6,K,D*3D
$GPGGA,180938.000,3748.7639,N,12217.7894,W,2,08,1.3,6.1,M,-25.1,M,2.8,0000*42
$GPGSA,A,3,31,03,11,14,22,19,06,01,,,,,2.8,1.3,2.5*36
$GPRMC,180938.000,A,3748.7639,N,12217.7894,W,2.46,81.71,270312,,,D*4E
$GPVTG,81.71,T,,M,2.46,N,4.6,K,D*35
$GPGGA,180939.000,3748.7641,N,12217.7886,W,2,08,1.3,4.1,M,-25.1,M,3.8,0000*4C
$GPGSA,A,3,31,03,11,14,22,19,06,01,,,,,2.8,1.3,2.5*36
$GPRMC,180939.000,A,3748.7641,N,12217.7886,W,2.08,87.44,270312,,,D*49
$GPVTG,87.44,T,,M,2.08,N,3.8,K,D*36
$GPGGA,180940.000,3748.7637,N,12217.7878,W,2,08,1.3,4.7,M,-25.1,M,1.8,0000*46
$GPGSA,A,3,31,03,11,14,22,19,06,01,,,,,2.8,1.3,2.5*36
$GPRMC,180940.000,A,3748.7637,N,12217.7878,W,2.70,102.44,270312,,,D*74
$GPVTG,102.44,T,,M,2.70,N,5.0,K,D*0B
$GPGGA,180941.000,3748.7634,N,12217.7869,W,2,08,1.3,4.8,M,-25.1,M,1.8,0000*4B
$GPGSA,A,3,31,03,11,14,22,19,06,01,,,,,2.8,1.3,2.5*36
$GPRMC,180941.000,A,3748.7634,N,12217.7869,W,2.45,99.78,270312,,,D*4C
$GPVTG,99.78,T,,M,2.45,N,4.5,K,D*35
$GPGGA,180942.000,3748.7631,N,12217.7862,W,2,08,1.3,4.9,M,-25.1,M,1.8,0000*47
$GPGSA,A,3,31,03,11,14,22,19,06,01,,,,,2.8,1.3,2.5*36
$GPGSV,3,1,12,14,72,038,24,24,55,307,27,22,50,070,35,11,39,300,24*79
$GPGSV,3,2,12,19,32,248,35,31,29,157,42,01,24,315,24,03,12,214,37*73
$GPGSV,3,3,12,18,11,089,26,06,10,203,36,09,02,029,23,51,43,156,40*71
$GPRMC,180942.000,A,3748.7631,N,12217.7862,W,2.42,109.70,270312,,,D*76
$GPVTG,109.70,T,,M,2.42,N,4.5,K,D*02
$GPGGA,180943.000,3748.7624,N,12217.7854,W,2,08,1.3,5.9,M,-25.1,M,1.8,0000*46
$GPGSA,A,3,31,03,11,14,22,19,06,01,,,,,2.8,1.3,2.5*36
$GPRMC,180943.000,A,3748.7624,N,12217.7854,W,2.81,116.33,270312,,,D*70
$GPVTG,116.33,T,,M,2.81,N,5.2,K,D*02
$GPGGA,180944.000,3748.7620,N,12217.7846,W,2,08,1.3,6.1,M,-25.1,M,2.8,0000*4E
