$ADVER,3080,2.3
$GPRMC,180230.255,A,3748.7957,N,12217.8517,W,1.09,93.37,061011,,,A*4F
$GPGGA,180231.255,3748.7970,N,12217.8526,W,1,03,3.0,25.1,M,-25.1,M,,0000*57
$GPGSA,A,2,17,28,04,,,,,,,,,,3.2,3.0,1.0*38
$GPGSV,3,1,11,17,68,040,33,28,37,074,34,04,34,152,38,27,52,308,23*7B
$GPGSV,3,2,11,09,35,314,23,26,21,212,22,01,09,037,34,08,09,140,35*7F
$GPGSV,3,3,11,02,08,184,23,12,06,284,,24,02,032,*41
$GPRMC,180231.255,A,3748.7970,N,12217.8526,W,1.07,346.19,061011,,,A*70
$GPVTG,346.19,T,,M,1.07,N,2.0,K,N*0F
$GPGGA,180232.255,3748.7976,N,12217.8531,W,1,03,3.0,25.1,M,-25.1,M,,0000*54
$GPGSA,A,2,17,28,04,,,,,,,,,,3.2,3.0,1.0*38
$GPRMC,180232.255,A,3748.7976,N,12217.8531,W,0.39,348.41,061011,,,A*7C
$GPVTG,348.41,T,,M,0.39,N,0.7,K,N*05
$GPGGA,180233.255,3748.7972,N,12217.8599,W,1,03,3.0,25.1,M,-25.1,M,,0000*53
$GPGSA,A,2,17,28,04,,,,,,,,,,3.2,3.0,1.0*38
$GPRMC,180233.255,A,3748.7972,N,12217.8599,W,1.10,273.02,061011,,,A*7F
$GPVTG,273.02,T,,M,1.10,N,2.0,K,N*04
$GPGGA,180234.255,3748.7977,N,12217.8591,W,1,03,3.0,25.1,M,-25.1,M,,0000*59
$GPGSA,A,2,17,28,04,,,,,,,,,,3.2,3.0,1.0*38
$GPRMC,180234.255,A,3748.7977,N,12217.8591,W,0.07,78.37,061011,,,A*4D
$GPVTG,78.37,T,,M,0.07,N,0.1,K,N*3F
$GPGGA,180235.255,3748.7976,N,12217.8590,W,1,03,3.0,25.1,M,-25.1,M,,0000*58
$GPGSA,A,2,17,28,04,,,,,,,,,,3.2,3.0,1.0*38
$GPRMC,180235.255,A,3748.7976,N,12217.8590,W,0.21,244.78,061011,,,A*7E
$GPVTG,244.78,T,,M,0.21,N,0.4,K,N*08
$GPGGA,180236.255,3748.7972,N,12217.8582,W,1,03,3.0,25.1,M,-25.1,M,,0000*5C
$GPGSA,A,2,17,28,04,,,,,,,,,,3.2,3.0,1.0*38
$GPGSV,3,1,12,17,68,040,34,28,37,074,38,04,34,152,39,27,52,308,27*76
$GPGSV,3,2,12,09,35,314,24,26,21,212,31,01,09,037,37,08,09,140,39*76
$GPGSV,3,3,12,02,08,184,28,12,06,284,,24,02,032,,48,00,000,34*72
$GPRMC,180236.255,A,3748.7972,N,12217.8582,W,0.57,165.38,061011,,,A*7F
$GPGGA,180237.255,3748.7970,N,12217.8568,W,1,03,3.0,25.1,M,-25.1,M,,0000*5B
$GPGSA,A,2,17,28,04,,,,,,,,,,3.2,3.0,1.0*38
$GPRMC,180237.255,A,3748.7970,N,12217.8568,W,0.45,329.50,061011,,,A*7F
$GPVTG,329.50,T,,M,0.45,N,0.8,K,N*06
$GPGGA,180238.255,3748.7968,N,12217.8560,W,1,03,3.0,25.1,M,-25.1,M,,0000*55
$GPGSA,A,2,17,28,04,,,,,,,,,,3.2,3.0,1.0*38
$GPRMC,180238.255,A,3748.7968,N,12217.8560,W,0.22,294.33,061011,,,A*72
$GPVTG,294.33,T,,M,0.22,N,0.4,K,N*09
$GPGGA,180239.255,3748.7967,N,12217.8558,W,1,03,3.0,25.1,M,-25.1,M,,0000*50
$GPGSA,A,2,17,28,04,,,,,,,,,,3.2,3.0,1.0*38
$GPRMC,180239.255,A,3748.7967,N,12217.8558,W,0.15,321.47,061011,,,A*7F
$GPVTG,321.47,T,,M,0.15,N,0.3,K,N*06
$GPGGA,180240.255,3748.7967,N,12217.8557,W,1,03,3.0,25.1,M,-25.1,M,,0000*51
$GPGSA,A,2,17,28,04,,,,,,,,,,3.2,3.0,1.0*38
$GPRMC,180240.255,A,3748.7967,N,12217.8557,W,0.22,269.82,061011,,,A*7E
$GPVTG,269.82,T,,M,0.22,N,0.4,K,N*01
$GPGGA,180241.255,3748.7967,N,12217.8556,W,1,03,3.0,25.1,M,-25.1,M,,0000*51
$GPGSA,A,2,17,28,04,,,,,,,,,,3.2,3.0,1.0*38
$GPGSV,3,1,12,17,68,040,34,28,37,074,37,04,34,152,41,27,52,308,*73
$GPGSV,3,2,12,09,35,314,25,26,21,212,33,01,09,037,32,08,09,140,39*70
$GPGSV,3,3,12,02,08,184,27,12,06,284,,24,02,032,,48,00,000,36*7F
$GPRMC,180241.255,A,3748.7967,N,12217.8556,W,0.12,343.72,061011,,,A*7B
$GPVTG,343.72,T,,M,0.12,N,0.2,K,N*02
$GPGGA,180242.255,3748.7967,N,12217.8558,W,1,03,3.0,25.1,M,-25.1,M,,0000*5C
$GPGSA,A,2,17,28,04,,,,,,,,,,3.2,3.0,1.0*38
$GPRMC,180242.255,A,3748.7967,N,12217.8558,W,0.16,311.66,061011,,,A*70
$GPVTG,311.66,T,,M,0.16,N,0.3,K,N*05
$GPGGA,180243.255,3748.7967,N,12217.8559,W,1,03,3.0,25.1,M,-25.1,M,,0000*5C
$GPGSA,A,2,17,28,04,,,,,,,,,,3.2,3.0,1.0*38
$GPRMC,180243.255,A,3748.7967,N,12217.8559,W,0.16,325.83,061011,,,A*7C
$GPVTG,325.83,T,,M,0.16,N,0.3,K,N*09
$GPGGA,180244.255,3748.7968,N,12217.8558,W,1,03,3.0,25.1,M,-25.1,M,,0000*55
$GPGSA,A,2,17,28,04,,,,,,,,,,3.2,3.0,1.0*38
$GPRMC,180244.255,A,3748.7968,N,12217.8558,W,0.13,326.43,061011,,,A*7F
$GPVTG,326.43,T,,M,0.13,N,0.2,K,N*02
$GPGGA,180245.255,3748.7968,N,12217.8552,W,1,03,3.0,25.1,M,-25.1,M,,0000*5E
$GPGSA,A,2,17,28,04,,,,,,,,,,3.2,3.0,1.0*38
$GPRMC,180245.255,A,3748.7968,N,12217.8552,W,0.17,337.78,061011,,,A*78
$GPVTG,337.78,T,,M,0.17,N,0.3,K,N*0F
$GPGGA,180246.255,3748.7969,N,12217.8546,W,1,03,3.0,25.1,M,-25.1,M,,0000*59
$GPGSA,A,2,17,28,04,,,,,,,,,,3.2,3.0,1.0*38
$GPGSV,3,1,12,17,68,040,34,28,37,074,36,04,34,152,42,27,52,308,*71
$GPGSV,3,2,12,09,35,314,25,26,21,212,34,01,09,037,32,08,09,140,41*78
$GPGSV,3,3,12,02,08,184,29,12,06,284,,24,02,032,,48,00,000,38*7F
$GPRMC,180246.255,A,3748.7969,N,12217.8546,W,0.25,12.68,061011,,,A*4B
$GPVTG,12.68,T,,M,0.25,N,0.5,K,N*3D
$GPGGA,180247.255,3748.7968,N,12217.8545,W,1,03,3.0,25.1,M,-25.1,M,,0000*5A
$GPGSA,A,2,17,28,04,,,,,,,,,,3.2,3.0,1.0*38
$GPRMC,180247.255,A,3748.7968,N,12217.8545,W,0.41,139.45,061011,,,A*7D
$GPVTG,139.45,T,,M,0.41,N,0.8,K,N*05
$GPGGA,180248.255,3748.7966,N,12217.8540,W,1,03,3.0,25.1,M,-25.1,M,,0000*5E
$GPGSA,A,2,17,28,04,,,,,,,,,,3.2,3.0,1.0*38
$GPRMC,180248.255,A,3748.7966,N,12217.8540,W,1.15,120.32,061011,,,A*71
$GPVTG,120.32,T,,M,1.15,N,2.1,K,N*06
$GPGGA,180249.255,3748.7963,N,12217.8531,W,1,03,3.0,25.1,M,-25.1,M,,0000*5C
$GPGSA,A,2,17,28,04,,,,,,,,,,3.2,3.0,1.0*38
$GPRMC,180249.255,A,3748.7963,N,12217.8531,W,2.15,116.96,061011,,,A*7B
$GPVTG,116.96,T,,M,2.15,N,4.0,K,N*09
$GPGGA,180250.255,3748.7960,N,12217.8521,W,1,03,3.0,25.1,M,-25.1,M,,0000*56
$GPGSA,A,2,17,28,04,,,,,,,,,,3.2,3.0,1.0*38
$GPRMC,180250.255,A,3748.7960,N,12217.8521,W,2.23,116.53,061011,,,A*7D
$GPVTG,116.53,T,,M,2.23,N,4.1,K,N*04
$GPGGA,180251.255,3748.7957,N,12217.8513,W,1,03,3.0,25.1,M,-25.1,M,,0000*52
$GPGSA,A,2,17,28,04,,,,,,,,,,3.2,3.0,1.0*38
$GPGSV,3,1,12,17,68,040,29,28,37,074,28,04,34,152,39,27,52,308,*7E
$GPGSV,3,2,12,09,35,314,23,26,21,212,38,01,09,037,27,08,09,140,41*76
$GPGSV,3,3,12,02,08,184,29,12,06,284,,24,02,032,,48,44,197,38*70
$GPRMC,180251.255,A,3748.7957,N,12217.8513,W,2.44,119.36,061011,,,A*74
$GPGGA,180252.255,3748.7948,N,12217.8487,W,1,03,3.0,25.1,M,-25.1,M,,0000*53
$GPGSA,A,2,17,28,04,,,,,,,,,,3.2,3.0,1.0*38
$GPRMC,180252.255,A,3748.7948,N,12217.8487,W,1.89,120.39,061011,,,A*72
$GPVTG,120.39,T,,M,1.89,N,3.5,K,N*0D
$GPGGA,180253.255,3748.7937,N,12217.8520,W,1,03,3.0,25.1,M,-25.1,M,,0000*56
$GPGSA,A,2,17,28,04,,,,,,,,,,3.2,3.0,1.0*38
$GPRMC,180253.255,A,3748.7937,N,12217.8520,W,2.04,112.07,061011,,,A*7D
$GPVTG,112.07,T,,M,2.04,N,3.8,K,N*0A
$GPGGA,180254.255,3748.7936,N,12217.8503,W,1,03,3.0,25.1,M,-25.1,M,,0000*51
$GPGSA,A,2,17,28,04,,,,,,,,,,3.2,3.0,1.0*38
$GPRMC,180254.255,A,3748.7936,N,12217.8503,W,2.21,119.69,061011,,,A*7E
$GPVTG,119.69,T,,M,2.21,N,4.1,K,N*00
$GPGGA,180255.255,3748.7931,N,12217.8485,W,1,03,3.0,25.1,M,-25.1,M,,0000*58
$GPGSA,A,2,17,28,04,,,,,,,,,,3.2,3.0,1.0*38
$GPRMC,180255.255,A,3748.7931,N,12217.8485,W,2.35,123.94,061011,,,A*79
$GPVTG,123.94,T,,M,2.35,N,4.4,K,N*0B
$GPGGA,180256.255,3748.7930,N,12217.8477,W,1,03,3.0,25.1,M,-25.1,M,,0000*57
$GPGSA,A,2,17,28,04,,,,,,,,,,3.2,3.0,1.0*38
$GPGSV,3,1,12,17,68,040,30,28,37,074,30,04,34,152,40,27,52,308,*71
$GPGSV,3,2,12,09,35,314,23,26,21,212,39,01,09,037,33,08,09,140,41*72
$GPGSV,3,3,12,02,08,184,39,12,06,284,,24,02,032,,48,44,197,40*7E
$GPRMC,180256.255,A,3748.7930,N,12217.8477,W,2.31,122.97,061011,,,A*70
$GPVTG,122.97,T,,M,2.31,N,4.3,K,N*0A
$GPGGA,180257.255,3748.7926,N,12217.8460,W,1,03,3.0,25.1,M,-25.1,M,,0000*57
$GPGSA,A,2,17,28,04,,,,,,,,,,3.2,3.0,1.0*38
$GPRMC,180257.255,A,3748.7926,N,12217.8460,W,2.53,120.34,061011,,,A*7F
$GPVTG,120.34,T,,M,2.53,N,4.7,K,N*01
$GPGGA,180258.255,3748.7923,N,12217.8451,W,1,03,3.0,25.1,M,-25.1,M,,0000*5F
$GPGSA,A,2,17,28,04,,,,,,,,,,3.2,3.0,1.0*38
$GPRMC,180258.255,A,3748.7923,N,12217.8451,W,2.45,113.48,061011,,,A*7B
$GPVTG,113.48,T,,M,2.45,N,4.5,K,N*0F
$GPGGA,180259.255,3748.7921,N,12217.8436,W,1,03,3.0,25.1,M,-25.1,M,,0000*5D
$GPGSA,A,2,17,28,04,,,,,,,,,,3.2,3.0,1.0*38
$GPRMC,180259.255,A,3748.7921,N,12217.8436,W,2.06,117.27,061011,,,A*73
$GPVTG,117.27,T,,M,2.06,N,3.8,K,N*0F
$GPGGA,180300.255,3748.7917,N,12217.8425,W,1,03,3.0,25.1,M,-25.1,M,,0000*57
$GPGSA,A,2,17,28,04,,,,,,,,,,3.2,3.0,1.0*38
$GPRMC,180300.255,A,3748.7917,N,12217.8425,W,2.54,119.22,061011,,,A*75
$GPVTG,119.22,T,,M,2.54,N,4.7,K,N*0B
$GPGGA,180301.255,3748.7920,N,12217.8442,W,1,03,3.0,25.1,M,-25.1,M,,0000*53
$GPGSA,A,2,17,28,04,,,,,,,,,,3.2,3.0,1.0*38
$GPGSV,3,1,12,17,68,040,30,28,37,074,30,04,34,152,40,27,52,308,*71
$GPGSV,3,2,12,09,35,314,23,26,21,212,38,01,09,037,22,08,09,140,41*73
$GPGSV,3,3,12,02,08,184,31,12,06,284,,24,02,032,,48,44,197,41*77
$GPVTG,126.16,T,,M,2.87,N,5.3,K,N*0B
$GPGGA,180302.255,3748.7892,N,12217.8456,W,1,03,3.0,25.1,M,-25.1,M,,0000*5D
$GPGSA,A,2,17,28,04,,,,,,,,,,3.2,3.0,1.0*38
$GPRMC,180302.255,A,3748.7892,N,12217.8456,W,2.75,126.28,061011,,,A*7A
$GPVTG,126.28,T,,M,2.75,N,5.1,K,N*09
$GPGGA,180303.255,3748.7897,N,12217.8435,W,1,03,3.0,25.1,M,-25.1,M,,0000*5C
$GPGSA,A,2,17,28,04,,,,,,,,,,3.2,3.0,1.0*38
$GPRMC,180303.255,A,3748.7897,N,12217.8435,W,2.94,126.85,061011,,,A*73
$GPVTG,126.85,T,,M,2.94,N,5.4,K,N*04
$GPGGA,180304.255,3748.7916,N,12217.8535,W,1,04,2.8,15.3,M,-25.1,M,,0000*5D
$GPGSA,A,3,17,28,04,08,,,,,,,,,2.9,2.8,1.0*32
$GPRMC,180304.255,A,3748.7916,N,12217.8535,W,2.91,114.02,061011,,,A*76
$GPVTG,114.02,T,,M,2.91,N,5.4,K,A*00
$GPGGA,180305.255,3748.7884,N,12217.8450,W,1,04,6.0,20.7,M,-25.1,M,,0000*5A
$GPGSA,A,3,17,28,04,08,,,,,,,,,8.7,6.0,6.4*39
$GPRMC,180305.255,A,3748.7884,N,12217.8450,W,2.96,98.35,061011,,,A*49
$GPVTG,98.35,T,,M,2.96,N,5.5,K,A*37
$GPGGA,180306.255,3748.7881,N,12217.8446,W,1,04,6.0,21.4,M,-25.1,M,,0000*59
$GPGSA,A,3,17,28,04,08,,,,,,,,,8.7,6.0,6.4*39
$GPGSV,3,1,12,17,68,040,29,28,37,074,28,04,35,152,40,08,09,140,41*79
$GPGSV,3,2,12,27,53,308,,09,35,314,26,26,21,212,38,01,09,037,20*7D
$GPGSV,3,3,12,02,09,184,28,12,06,284,,24,01,032,,48,44,197,40*7C
$GPRMC,180306.255,A,3748.7881,N,12217.8446,W,2.55,105.11,061011,,,A*74
$GPVTG,105.11,T,,M,2.55,N,4.7,K,A*08
$GPGGA,180307.000,3748.7879,N,12217.8419,W,1,04,6.0,23.3,M,-25.1,M,,0000*52
$GPGSA,A,3,17,28,04,08,,,,,,,,,8.7,6.0,6.4*39
$GPRMC,180307.000,A,3748.7879,N,12217.8419,W,2.91,110.52,061011,,,A*71
$GPVTG,110.52,T,,M,2.91,N,5.4,K,A*01
$GPGGA,180308.000,3748.7876,N,12217.8390,W,1,04,6.0,25.6,M,-25.1,M,,0000*57
$GPGSA,A,3,17,28,04,08,,,,,,,,,8.7,6.0,6.4*39
$GPRMC,180308.000,A,3748.7876,N,12217.8390,W,2.85,113.40,061011,,,A*72
$GPVTG,113.40,T,,M,2.85,N,5.3,K,A*03
$GPGGA,180309.000,3748.7873,N,12217.8371,W,1,04,6.0,26.8,M,-25.1,M,,0000*51
$GPGSA,A,3,17,28,04,08,,,,,,,,,8.7,6.0,6.4*39
$GPRMC,180309.000,A,3748.7873,N,12217.8371,W,2.97,116.40,061011,,,A*7F
$GPVTG,116.40,T,,M,2.97,N,5.5,K,A*03
$GPGGA,180310.000,3748.7868,N,12217.8354,W,1,04,6.0,27.9,M,-25.1,M,,0000*54
$GPGSA,A,3,17,28,04,08,,,,,,,,,8.7,6.0,6.4*39
$GPRMC,180310.000,A,3748.7868,N,12217.8354,W,2.68,118.75,061011,,,A*72
$GPVTG,118.75,T,,M,2.68,N,5.0,K,A*0E
$GPGGA,180311.000,3748.7858,N,12217.8322,W,1,04,5.9,30.3,M,-25.1,M,,0000*51
$GPGSA,A,3,17,28,04,08,,,,,,,,,8.7,5.9,6.4*33
$GPGSV,3,1,12,17,68,040,29,28,37,074,30,04,35,152,38,08,09,140,37*7E
$GPGSV,3,2,12,27,53,308,,09,35,314,25,26,21,212,32,01,09,037,20*74
$GPGSV,3,3,12,02,09,184,21,12,06,284,,24,01,032,,48,44,197,30*72
$GPRMC,180311.000,A,3748.7858,N,12217.8322,W,2.85,114.96,061011,,,A*73
$GPVTG,114.96,T,,M,2.85,N,5.3,K,A*0F
$GPGGA,180312.000,3748.7858,N,12217.8316,W,1,04,5.9,30.2,M,-25.1,M,,0000*54
$GPGSA,A,3,17,28,04,08,,,,,,,,,8.7,5.9,6.3*34
$GPRMC,180312.000,A,3748.7858,N,12217.8316,W,2.67,111.14,061011,,,A*74
$GPVTG,111.14,T,,M,2.67,N,4.9,K,A*07
$GPGGA,180313.000,3748.7855,N,12217.8307,W,1,04,5.9,30.4,M,-25.1,M,,0000*5E
$GPGSA,A,3,17,28,04,08,,,,,,,,,8.7,5.9,6.3*34
$GPRMC,180313.000,A,3748.7855,N,12217.8307,W,2.06,123.92,061011,,,A*70
$GPVTG,123.92,T,,M,2.06,N,3.8,K,A*09
$GPGGA,180314.000,3748.7853,N,12217.8301,W,1,04,5.9,30.4,M,-25.1,M,,0000*59
$GPGSA,A,3,17,28,04,08,,,,,,,,,8.7,5.9,6.3*34
$GPRMC,180314.000,A,3748.7853,N,12217.8301,W,1.93,120.62,061011,,,A*74
$GPVTG,120.62,T,,M,1.93,N,3.6,K,A*04
$GPGGA,180315.000,3748.7850,N,12217.8296,W,1,04,5.9,30.2,M,-25.1,M,,0000*52
$GPGSA,A,3,17,28,04,08,,,,,,,,,8.7,5.9,6.3*34
$GPRMC,180315.000,A,3748.7850,N,12217.8296,W,2.20,123.76,061011,,,A*74
$GPVTG,123.76,T,,M,2.20,N,4.1,K,A*09
$GPGGA,180316.000,3748.7847,N,12217.8289,W,1,04,5.9,30.0,M,-25.1,M,,0000*5B
$GPGSA,A,3,17,28,04,08,,,,,,,,,8.7,5.9,6.3*34
$GPGSV,3,1,12,17,68,040,29,28,37,074,31,04,35,152,38,08,09,140,40*7F
$GPGSV,3,2,12,27,53,308,,09,35,314,25,26,21,212,36,01,09,037,24*74
$GPGSV,3,3,12,02,09,184,29,12,06,284,,24,01,032,,48,44,197,35*7F
$GPVTG,118.55,T,,M,2.47,N,4.6,K,A*06
$GPGGA,180317.000,3748.7846,N,12217.8284,W,1,04,5.9,29.7,M,-25.1,M,,0000*59
$GPGSA,A,3,17,28,04,08,,,,,,,,,8.7,5.9,6.3*34
$GPRMC,180317.000,A,3748.7846,N,12217.8284,W,2.26,113.13,061011,,,A*74
$GPVTG,113.13,T,,M,2.26,N,4.2,K,A*0C
$GPGGA,180318.000,3748.7844,N,12217.8278,W,1,04,5.9,29.3,M,-25.1,M,,0000*53
$GPGSA,A,3,17,28,04,08,,,,,,,,,8.7,5.9,6.3*34
$GPRMC,180318.000,A,3748.7844,N,12217.8278,W,2.50,113.80,061011,,,A*71
$GPVTG,113.80,T,,M,2.50,N,4.6,K,A*03
$GPGGA,180319.000,3748.7842,N,12217.8273,W,1,04,5.9,29.1,M,-25.1,M,,0000*5D
$GPGSA,A,3,17,28,04,08,,,,,,,,,8.6,5.9,6.3*35
$GPRMC,180319.000,A,3748.7842,N,12217.8273,W,2.35,116.43,061011,,,A*74
$GPVTG,116.43,T,,M,2.35,N,4.4,K,A*08
$GPGGA,180320.000,3748.7836,N,12217.8263,W,1,04,5.9,29.3,M,-25.1,M,,0000*57
$GPGSA,A,3,17,28,04,08,,,,,,,,,8.6,5.9,6.3*35
$GPRMC,180320.000,A,3748.7836,N,12217.8263,W,2.40,125.24,061011,,,A*7F
$GPVTG,125.24,T,,M,2.40,N,4.4,K,A*0B
$GPGGA,180321.000,3748.7831,N,12217.8257,W,1,04,5.9,29.2,M,-25.1,M,,0000*57
$GPGSA,A,3,17,28,04,08,,,,,,,,,8.6,5.9,6.3*35
$GPGSV,3,1,12,17,68,040,29,28,37,074,31,04,35,152,38,08,09,140,40*7F
$GPGSV,3,2,12,27,53,308,,09,35,314,25,26,21,212,34,01,09,037,23*71
$GPGSV,3,3,12,02,09,184,24,12,06,284,,24,01,032,,48,44,197,38*7F
$GPRMC,180321.000,A,3748.7831,N,12217.8257,W,2.26,129.11,061011,,,A*74
$GPVTG,129.11,T,,M,2.26,N,4.2,K,A*07
$GPGGA,180322.000,3748.7855,N,12217.8337,W,2,05,2.2,12.3,M,-25.1,M,1.8,0000*71
$GPGSA,A,3,17,28,04,08,26,,,,,,,,3.9,2.2,3.3*3C
$GPRMC,180322.000,A,3748.7855,N,12217.8337,W,2.03,123.26,061011,,,D*7E
$GPVTG,123.26,T,,M,2.03,N,3.8,K,D*06
$GPGGA,180323.000,3748.7856,N,12217.8346,W,2,05,2.2,9.9,M,-25.1,M,1.8,0000*45
$GPGSA,A,3,17,28,04,08,26,,,,,,,,3.9,2.2,3.3*3C
$GPRMC,180323.000,A,3748.7856,N,12217.8346,W,2.24,123.47,061011,,,D*78
$GPVTG,123.47,T,,M,2.24,N,4.1,K,D*0A
$GPGGA,180324.000,3748.7854,N,12217.8345,W,2,05,2.2,9.0,M,-25.1,M,1.8,0000*4A
$GPGSA,A,3,17,28,04,08,26,,,,,,,,3.9,2.2,3.3*3C
$GPRMC,180324.000,A,3748.7854,N,12217.8345,W,2.43,121.00,061011,,,D*7E
$GPVTG,121.00,T,,M,2.43,N,4.5,K,D*0E
$GPGGA,180325.000,3748.7851,N,12217.8341,W,2,05,2.2,8.3,M,-25.1,M,2.8,0000*4B
$GPGSA,A,3,17,28,04,08,26,,,,,,,,3.9,2.2,3.3*3C
$GPRMC,180325.000,A,3748.7851,N,12217.8341,W,2.39,116.99,061011,,,D*77
$GPVTG,116.99,T,,M,2.39,N,4.4,K,D*06
$GPGGA,180326.000,3748.7849,N,12217.8334,W,2,05,2.2,7.6,M,-25.1,M,3.8,0000*48
$GPGSA,A,3,17,28,04,08,26,,,,,,,,3.9,2.2,3.3*3C
$GPGSV,3,1,12,17,68,040,29,27,53,308,,28,37,075,31,09,35,314,24*76
$GPGSV,3,2,12,04,35,152,39,26,21,212,37,01,09,037,23,08,09,140,34*79
$GPGSV,3,3,12,02,09,184,35,12,07,284,,24,01,031,,48,44,197,40*72
$GPRMC,180326.000,A,3748.7849,N,12217.8334,W,2.41,115.31,061011,,,D*71
$GPVTG,115.31,T,,M,2.41,N,4.5,K,D*09
$GPGGA,180327.000,3748.7846,N,12217.8327,W,2,05,2.2,7.2,M,-25.1,M,4.8,0000*47
$GPGSA,A,3,17,28,04,08,26,,,,,,,,3.9,2.2,3.3*3C
$GPRMC,180327.000,A,3748.7846,N,12217.8327,W,2.56,115.75,061011,,,D*7B
$GPVTG,115.75,T,,M,2.56,N,4.7,K,D*0D
$GPGGA,180328.000,3748.7842,N,12217.8319,W,2,05,2.2,6.7,M,-25.1,M,1.8,0000*40
$GPGSA,A,3,17,28,04,08,26,,,,,,,,3.9,2.2,3.3*3C
$GPRMC,180328.000,A,3748.7842,N,12217.8319,W,2.85,113.52,061011,,,D*70
$GPVTG,113.52,T,,M,2.85,N,5.3,K,D*05
$GPGGA,180329.000,3748.7838,N,12217.8310,W,2,05,2.2,6.5,M,-25.1,M,1.8,0000*47
$GPGSA,A,3,17,28,04,08,26,,,,,,,,3.9,2.2,3.3*3C
$GPRMC,180329.000,A,3748.7838,N,12217.8310,W,2.63,114.03,061011,,,D*7E
$GPVTG,114.03,T,,M,2.63,N,4.9,K,D*05
$GPGGA,180330.000,3748.7835,N,12217.8302,W,2,05,2.2,6.9,M,-25.1,M,2.8,0000*4E
$GPGSA,A,3,17,28,04,08,26,,,,,,,,3.9,2.2,3.3*3C
$GPRMC,180330.000,A,3748.7835,N,12217.8302,W,2.73,114.21,061011,,,D*79
$GPVTG,114.21,T,,M,2.73,N,5.1,K,D*0D
$GPGGA,180331.000,3748.7836,N,12217.8296,W,2,05,2.2,5.7,M,-25.1,M,3.8,0000*4C
$GPGSA,A,3,17,28,04,08,26,,,,,,,,3.9,2.2,3.3*3C
$GPGSV,3,1,12,17,68,040,29,27,53,308,22,28,37,075,31,09,35,314,23*71
$GPGSV,3,2,12,04,35,152,34,26,21,212,38,01,09,037,23,08,09,140,29*77
$GPGSV,3,3,12,02,09,184,27,12,07,284,,24,01,031,,48,44,197,33*75
$GPVTG,109.42,T,,M,2.57,N,4.8,K,D*0A
$GPGGA,180332.000,3748.7835,N,12217.8289,W,2,05,2.2,4.7,M,-25.1,M,4.8,0000*44
$GPGSA,A,3,17,28,04,08,26,,,,,,,,3.9,2.2,3.3*3C
$GPRMC,180332.000,A,3748.7835,N,12217.8289,W,2.42,108.86,061011,,,D*7B
$GPVTG,108.86,T,,M,2.42,N,4.5,K,D*0A
$GPGGA,180333.000,3748.7829,N,12217.8279,W,2,05,2.2,4.9,M,-25.1,M,5.8,0000*48
$GPGSA,A,3,17,28,04,08,26,,,,,,,,3.9,2.2,3.3*3C
$GPRMC,180333.000,A,3748.7829,N,12217.8279,W,2.89,116.28,061011,,,D*74
$GPVTG,116.28,T,,M,2.89,N,5.4,K,D*06
$GPGGA,180334.000,3748.7823,N,12217.8272,W,2,05,2.2,5.5,M,-25.1,M,6.8,0000*40
$GPGSA,A,3,17,28,04,08,26,,,,,,,,3.9,2.2,3.3*3C
$GPRMC,180334.000,A,3748.7823,N,12217.8272,W,2.66,122.25,061011,,,D*79
$GPVTG,122.25,T,,M,2.66,N,4.9,K,D*01
$GPGGA,180335.000,3748.7817,N,12217.8264,W,2,05,2.2,5.6,M,-25.1,M,7.8,0000*43
$GPGSA,A,3,17,28,04,08,26,,,,,,,,3.9,2.2,3.3*3C
$GPRMC,180335.000,A,3748.7817,N,12217.8264,W,3.03,124.40,061011,,,D*7F
$GPVTG,124.40,T,,M,3.03,N,5.6,K,D*08
$GPGGA,180336.000,3748.7813,N,12217.8255,W,2,05,2.2,5.6,M,-25.1,M,8.8,0000*49
$GPGSA,A,3,17,28,04,08,26,,,,,,,,3.9,2.2,3.3*3C
$GPGSV,3,1,12,17,68,040,28,27,53,308,21,28,37,075,31,09,35,314,24*74
$GPGSV,3,2,12,04,35,152,37,26,21,212,38,01,09,037,22,08,09,140,30*7D
$GPGSV,3,3,12,02,09,184,36,12,07,284,,24,01,031,,48,44,197,38*7E
$GPRMC,180336.000,A,3748.7813,N,12217.8255,W,3.01,121.76,061011,,,D*78
$GPVTG,121.76,T,,M,3.01,N,5.6,K,D*0A
$GPGGA,180337.000,3748.7809,N,12217.8246,W,2,05,2.2,5.5,M,-25.1,M,9.8,0000*43
$GPGSA,A,3,17,28,04,08,26,,,,,,,,3.9,2.2,3.3*3C
$GPRMC,180337.000,A,3748.7809,N,12217.8246,W,2.65,119.66,061011,,,D*79
$GPVTG,119.66,T,,M,2.65,N,4.9,K,D*0D
$GPGGA,180338.000,3748.7805,N,12217.8237,W,2,05,2.2,5.4,M,-25.1,M,1.8,0000*4F
$GPGSA,A,3,17,28,04,08,26,,,,,,,,3.9,2.2,3.3*3C
$GPRMC,180338.000,A,3748.7805,N,12217.8237,W,2.81,125.89,061011,,,D*78
$GPVTG,125.89,T,,M,2.81,N,5.2,K,D*03
$GPGGA,180339.000,3748.7797,N,12217.8229,W,2,05,2.2,6.0,M,-25.1,M,1.8,0000*42
$GPGSA,A,3,17,28,04,08,26,,,,,,,,3.9,2.2,3.3*3C
$GPRMC,180339.000,A,3748.7797,N,12217.8229,W,2.90,127.97,061011,,,D*7F
$GPVTG,127.97,T,,M,2.90,N,5.4,K,D*08
$GPGGA,180340.000,3748.7790,N,12217.8221,W,2,05,2.2,6.1,M,-25.1,M,1.8,0000*42
$GPGSA,A,3,17,28,04,08,26,,,,,,,,3.9,2.2,3.3*3C
$GPRMC,180340.000,A,3748.7790,N,12217.8221,W,2.95,128.42,061011,,,D*7C
$GPVTG,128.42,T,,M,2.95,N,5.5,K,D*0B
$GPGGA,180341.000,3748.7786,N,12217.8212,W,2,05,2.2,5.6,M,-25.1,M,1.8,0000*40
$GPGSA,A,3,17,28,04,08,26,,,,,,,,3.9,2.2,3.3*3C
$GPGSV,3,1,12,17,68,040,28,27,53,308,23,28,37,075,28,09,35,314,24*7E
$GPGSV,3,2,12,04,35,152,37,26,21,212,39,01,09,037,22,08,09,140,32*7E
$GPGSV,3,3,12,02,09,184,38,12,07,284,,24,01,031,,48,44,197,38*70
$GPRMC,180341.000,A,3748.7786,N,12217.8212,W,2.77,121.36,061011,,,D*7C
$GPVTG,121.36,T,,M,2.77,N,5.1,K,D*09
$GPGGA,180342.000,3748.7783,N,12217.8202,W,2,05,2.2,5.0,M,-25.1,M,1.8,0000*41
$GPGSA,A,3,17,28,04,08,26,,,,,,,,3.9,2.2,3.3*3C
$GPRMC,180342.000,A,3748.7783,N,12217.8202,W,2.71,115.37,061011,,,D*7B
$GPVTG,115.37,T,,M,2.71,N,5.0,K,D*08
$GPGGA,180343.000,3748.7780,N,12217.8193,W,2,05,2.2,4.8,M,-25.1,M,2.8,0000*42
$GPGSA,A,3,17,28,04,08,26,,,,,,,,3.9,2.2,3.3*3C
$GPRMC,180343.000,A,3748.7780,N,12217.8193,W,2.68,117.98,061011,,,D*7D
$GPVTG,117.98,T,,M,2.68,N,5.0,K,D*07
$GPGGA,180344.000,3748.7777,N,12217.8186,W,2,05,2.2,5.2,M,-25.1,M,3.8,0000*43
$GPGSA,A,3,17,28,04,08,26,,,,,,,,3.9,2.2,3.3*3C
$GPRMC,180344.000,A,3748.7777,N,12217.8186,W,2.57,119.06,061011,,,D*73
$GPVTG,119.06,T,,M,2.57,N,4.8,K,D*0B
$GPGGA,180345.000,3748.7773,N,12217.8178,W,2,05,2.2,5.4,M,-25.1,M,1.8,0000*43
$GPGSA,A,3,17,28,04,08,26,,,,,,,,3.9,2.2,3.2*3D
$GPRMC,180345.000,A,3748.7773,N,12217.8178,W,2.60,120.06,061011,,,D*79
$GPVTG,120.06,T,,M,2.60,N,4.8,K,D*05
$GPGGA,180346.000,3748.7770,N,12217.8171,W,2,05,2.2,6.0,M,-25.1,M,1.8,0000*4D
$GPGSA,A,3,17,28,04,08,26,,,,,,,,3.9,2.2,3.2*3D
$GPGSV,3,1,12,17,68,040,28,27,53,308,23,28,37,075,32,09,35,314,24*75
$GPGSV,3,2,12,04,35,152,38,26,21,212,38,01,09,037,,08,09,140,29*7A
$GPGSV,3,3,12,02,09,184,38,12,07,284,28,24,01,031,,48,44,197,40*75
$GPVTG,115.75,T,,M,2.58,N,4.8,K,D*0C
$GPGGA,180347.000,3748.7766,N,12217.8161,W,2,05,2.2,5.9,M,-25.1,M,1.8,0000*40
$GPGSA,A,3,17,28,04,08,26,,,,,,,,3.9,2.2,3.2*3D
$GPRMC,180347.000,A,3748.7766,N,12217.8161,W,2.66,117.86,061011,,,D*7D
$GPVTG,117.86,T,,M,2.66,N,4.9,K,D*0E
$GPGGA,180348.000,3748.7763,N,12217.8153,W,2,05,2.2,5.9,M,-25.1,M,1.8,0000*4B
$GPGSA,A,3,17,28,04,08,26,,,,,,,,3.9,2.2,3.2*3D
$GPRMC,180348.000,A,3748.7763,N,12217.8153,W,2.88,118.65,061011,,,D*74
$GPVTG,118.65,T,,M,2.88,N,5.3,K,D*07
$GPGGA,180349.000,3748.7758,N,12217.8144,W,2,05,2.2,6.3,M,-25.1,M,2.8,0000*4E
$GPGSA,A,3,17,28,04,08,26,,,,,,,,3.9,2.2,3.2*3D
$GPRMC,180349.000,A,3748.7758,N,12217.8144,W,2.76,121.68,061011,,,D*7D
$GPVTG,121.68,T,,M,2.76,N,5.1,K,D*03
$GPGGA,180350.000,3748.7754,N,12217.8136,W,2,05,2.2,6.4,M,-25.1,M,3.8,0000*49
$GPGSA,A,3,17,28,04,08,26,,,,,,,,3.9,2.2,3.2*3D
$GPRMC,180350.000,A,3748.7754,N,12217.8136,W,2.58,118.87,061011,,,D*7B
$GPVTG,118.87,T,,M,2.58,N,4.8,K,D*0C
$GPGGA,180351.000,3748.7750,N,12217.8127,W,2,05,2.2,6.2,M,-25.1,M,1.8,0000*48
$GPGSA,A,3,17,28,04,08,26,,,,,,,,3.9,2.2,3.2*3D
$GPGSV,3,1,12,17,67,040,29,27,53,308,24,28,37,075,30,09,35,314,23*79
$GPGSV,3,2,12,04,35,152,39,26,21,212,38,01,09,037,,02,09,184,36*77
$GPGSV,3,3,12,08,09,140,25,12,07,284,29,24,01,031,,48,44,197,40*7A
$GPRMC,180351.000,A,3748.7750,N,12217.8127,W,2.74,118.12,061011,,,D*7C
$GPVTG,118.12,T,,M,2.74,N,5.1,K,D*06
$GPGGA,180352.000,3748.7745,N,12217.8117,W,2,05,2.2,5.4,M,-25.1,M,1.8,0000*49
$GPGSA,A,3,17,28,04,08,26,,,,,,,,3.9,2.2,3.2*3D
$GPRMC,180352.000,A,3748.7745,N,12217.8117,W,3.06,123.11,061011,,,D*77
$GPVTG,123.11,T,,M,3.06,N,5.7,K,D*0F
$GPGGA,180353.000,3748.7741,N,12217.8108,W,2,05,2.2,5.4,M,-25.1,M,1.8,0000*42
$GPGSA,A,3,17,28,04,08,26,,,,,,,,3.9,2.2,3.2*3D
$GPRMC,180353.000,A,3748.7741,N,12217.8108,W,2.71,119.39,061011,,,D*7E
$GPVTG,119.39,T,,M,2.71,N,5.0,K,D*0A
$GPGGA,180354.000,3748.7737,N,12217.8100,W,2,05,2.2,5.3,M,-25.1,M,1.8,0000*4B
$GPGSA,A,3,17,28,04,08,26,,,,,,,,3.9,2.2,3.2*3D
$GPRMC,180354.000,A,3748.7737,N,12217.8100,W,2.85,120.82,061011,,,D*71
$GPVTG,120.82,T,,M,2.85,N,5.3,K,D*08
$GPGGA,180355.000,3748.7733,N,12217.8091,W,2,05,2.2,5.4,M,-25.1,M,2.8,0000*43
$GPGSA,A,3,17,28,04,08,26,,,,,,,,3.9,2.2,3.2*3D
$GPRMC,180355.000,A,3748.7733,N,12217.8091,W,2.61,116.08,061011,,,D*70
$GPVTG,116.08,T,,M,2.61,N,4.8,K,D*0F
$GPGGA,180356.000,3748.7730,N,12217.8083,W,2,05,2.2,5.3,M,-25.1,M,3.8,0000*46
$GPGSA,A,3,17,28,04,08,26,,,,,,,,3.9,2.2,3.2*3D
$GPGSV,3,1,12,17,67,040,29,27,53,308,23,28,37,075,31,09,35,314,23*7F
$GPGSV,3,2,12,04,35,152,39,26,21,212,37,01,09,037,,02,09,184,36*78
$GPGSV,3,3,12,08,09,140,24,12,07,284,29,24,01,031,,48,44,197,40*7B
$GPRMC,180356.000,A,3748.7730,N,12217.8083,W,2.74,119.41,061011,,,D*75
$GPVTG,119.41,T,,M,2.74,N,5.1,K,D*01
$GPGGA,180357.000,3748.7726,N,12217.8074,W,2,05,2.2,4.9,M,-25.1,M,1.8,0000*41
$GPGSA,A,3,17,28,04,08,26,,,,,,,,3.9,2.2,3.2*3D
$GPRMC,180357.000,A,3748.7726,N,12217.8074,W,2.55,117.14,061011,,,D*76
$GPVTG,117.14,T,,M,2.55,N,4.7,K,D*0B
$GPGGA,180358.000,3748.7722,N,12217.8064,W,2,05,2.2,4.1,M,-25.1,M,0.8,0000*42
$GPGSA,A,3,17,28,04,08,26,,,,,,,,3.9,2.2,3.2*3D
$GPRMC,180358.000,A,3748.7722,N,12217.8064,W,2.68,116.77,061011,,,D*76
$GPVTG,116.77,T,,M,2.68,N,5.0,K,D*07
$GPGGA,180359.000,3748.7716,N,12217.8055,W,2,05,2.2,3.9,M,-25.1,M,1.8,0000*48
$GPGSA,A,3,17,28,04,08,26,,,,,,,,3.9,2.2,3.2*3D
$GPRMC,180359.000,A,3748.7716,N,12217.8055,W,3.02,126.31,061011,,,D*7E
$GPVTG,126.31,T,,M,3.02,N,5.6,K,D*0D
$GPGGA,180400.000,3748.7711,N,12217.8045,W,2,05,2.2,3.5,M,-25.1,M,2.8,0000*4A
$GPGSA,A,3,17,28,04,08,26,,,,,,,,3.9,2.2,3.2*3D
$GPRMC,180400.000,A,3748.7711,N,12217.8045,W,2.93,118.78,061011,,,D*7A
$GPVTG,118.78,T,,M,2.93,N,5.4,K,D*06
$GPGGA,180401.000,3748.7704,N,12217.8037,W,2,05,2.2,4.1,M,-25.1,M,3.8,0000*48
$GPGSA,A,3,17,28,04,08,26,,,,,,,,3.9,2.2,3.2*3D
$GPGSV,3,1,12,17,67,040,29,27,53,308,23,28,37,075,28,09,35,314,23*77
$GPGSV,3,2,12,04,35,152,40,26,21,212,37,01,09,037,,02,09,184,31*71
$GPGSV,3,3,12,08,09,140,25,12,07,284,25,24,01,031,,48,44,197,41*77
$GPVTG,122.87,T,,M,2.77,N,5.1,K,D*00
$GPGGA,180402.000,3748.7698,N,12217.8029,W,2,05,2.2,4.5,M,-25.1,M,4.8,0000*43
$GPGSA,A,3,17,28,04,08,26,,,,,,,,3.9,2.2,3.2*3D
$GPRMC,180402.000,A,3748.7698,N,12217.8029,W,2.54,123.34,061011,,,D*79
$GPVTG,123.34,T,,M,2.54,N,4.7,K,D*0F
$GPGGA,180403.000,3748.7692,N,12217.8022,W,2,05,2.2,4.9,M,-25.1,M,1.8,0000*4A
$GPGSA,A,3,17,28,04,08,26,,,,,,,,3.9,2.2,3.2*3D
$GPRMC,180403.000,A,3748.7692,N,12217.8022,W,2.63,122.06,061011,,,D*7D
$GPVTG,122.06,T,,M,2.63,N,4.9,K,D*05
$GPGGA,180404.000,3748.7687,N,12217.8014,W,2,05,2.2,5.2,M,-25.1,M,1.8,0000*46
$GPGSA,A,3,17,28,04,08,26,,,,,,,,3.9,2.2,3.2*3D
$GPRMC,180404.000,A,3748.7687,N,12217.8014,W,2.62,122.37,061011,,,D*78
$GPVTG,122.37,T,,M,2.62,N,4.9,K,D*06
$GPGGA,180405.000,3748.7683,N,12217.8005,W,2,05,2.2,5.3,M,-25.1,M,1.8,0000*42
$GPGSA,A,3,17,28,04,08,26,,,,,,,,3.9,2.2,3.2*3D
$GPRMC,180405.000,A,3748.7683,N,12217.8005,W,2.86,122.60,061011,,,D*75
$GPVTG,122.60,T,,M,2.86,N,5.3,K,D*05
$GPGGA,180406.000,3748.7678,N,12217.7997,W,2,05,2.2,5.4,M,-25.1,M,2.8,0000*4C
$GPGSA,A,3,17,28,04,08,26,,,,,,,,3.9,2.2,3.2*3D
$GPGSV,3,1,12,17,67,040,29,27,53,308,23,28,37,075,32,09,35,314,23*7C
$GPGSV,3,2,12,04,35,152,40,26,21,212,36,01,09,037,,02,09,184,40*76
$GPGSV,3,3,12,08,09,140,25,12,07,284,25,24,01,031,,48,44,197,40*76
$GPRMC,180406.000,A,3748.7678,N,12217.7997,W,2.73,123.78,061011,,,D*7D
$GPVTG,123.78,T,,M,2.73,N,5.1,K,D*05
$GPGGA,180407.000,3748.7674,N,12217.7989,W,2,05,2.2,5.4,M,-25.1,M,3.8,0000*4F
$GPGSA,A,3,17,28,04,08,26,,,,,,,,3.9,2.2,3.2*3D
$GPRMC,180407.000,A,3748.7674,N,12217.7989,W,2.81,125.03,061011,,,D*78
$GPVTG,125.03,T,,M,2.81,N,5.2,K,D*01
$GPGGA,180408.000,3748.7669,N,12217.7981,W,2,05,2.2,5.7,M,-25.1,M,4.8,0000*40
$GPGSA,A,3,17,28,04,08,26,,,,,,,,3.9,2.2,3.2*3D
$GPRMC,180408.000,A,3748.7669,N,12217.7981,W,2.74,124.28,061011,,,D*71
$GPVTG,124.28,T,,M,2.74,N,5.1,K,D*00
$GPGGA,180409.000,3748.7665,N,12217.7975,W,2,05,2.2,6.4,M,-25.1,M,1.8,0000*43
$GPGSA,A,3,17,28,04,08,26,,,,,,,,3.9,2.2,3.2*3D
$GPRMC,180409.000,A,3748.7665,N,12217.7975,W,2.65,122.44,061011,,,D*7B
$GPVTG,122.44,T,,M,2.65,N,4.9,K,D*05
$GPGGA,180410.000,3748.7661,N,12217.7967,W,2,05,2.2,6.9,M,-25.1,M,1.8,0000*41
$GPGSA,A,3,17,28,04,08,26,,,,,,,,3.9,2.2,3.2*3D
$GPRMC,180410.000,A,3748.7661,N,12217.7967,W,2.92,119.05,061011,,,D*71
$GPVTG,119.05,T,,M,2.92,N,5.4,K,D*0C
$GPGGA,180411.000,3748.7657,N,12217.7957,W,2,05,2.2,6.9,M,-25.1,M,1.8,0000*46
$GPGSA,A,3,17,28,04,08,26,,,,,,,,3.9,2.2,3.2*3D
$GPGSV,3,1,12,17,67,040,29,27,53,308,23,28,37,075,27,09,35,314,23*78
$GPGSV,3,2,12,04,35,152,40,26,21,212,36,01,09,037,,02,09,184,36*77
$GPGSV,3,3,12,08,09,140,24,12,07,284,30,24,01,031,,48,44,197,40*73
$GPRMC,180411.000,A,3748.7657,N,12217.7957,W,2.85,114.33,061011,,,D*78
$GPVTG,114.33,T,,M,2.85,N,5.3,K,D*05
$GPGGA,180412.000,3748.7655,N,12217.7949,W,2,05,2.2,7.6,M,-25.1,M,2.8,0000*45
$GPGSA,A,3,17,28,04,08,26,,,,,,,,3.9,2.2,3.2*3D
$GPRMC,180412.000,A,3748.7655,N,12217.7949,W,2.79,107.66,061011,,,D*77
$GPVTG,107.66,T,,M,2.79,N,5.2,K,D*05
$GPGGA,180413.000,3748.7652,N,12217.7939,W,2,05,2.2,7.8,M,-25.1,M,3.8,0000*4B
$GPGSA,A,3,17,28,04,08,26,,,,,,,,3.9,2.2,3.2*3D
$GPRMC,180413.000,A,3748.7652,N,12217.7939,W,3.05,116.15,061011,,,D*78
$GPVTG,116.15,T,,M,3.05,N,5.6,K,D*0F
$GPGGA,180414.000,3748.7648,N,12217.7929,W,2,05,2.2,7.9,M,-25.1,M,1.8,0000*45
$GPGSA,A,3,17,28,04,08,26,,,,,,,,3.9,2.2,3.2*3D
$GPRMC,180414.000,A,3748.7648,N,12217.7929,W,3.13,115.08,061011,,,D*7D
$GPVTG,115.08,T,,M,3.13,N,5.8,K,D*09
$GPGGA,180415.000,3748.7645,N,12217.7920,W,2,05,2.2,8.2,M,-25.1,M,1.8,0000*44
$GPGSA,A,3,17,28,04,08,26,,,,,,,,3.9,2.2,3.2*3D
$GPRMC,180415.000,A,3748.7645,N,12217.7920,W,2.71,114.23,061011,,,D*75
$GPVTG,114.23,T,,M,2.71,N,5.0,K,D*0C
$GPGGA,180416.000,3748.7641,N,12217.7910,W,2,05,2.2,7.6,M,-25.1,M,1.8,0000*4B
$GPGSA,A,3,17,28,04,08,26,,,,,,,,3.9,2.2,3.2*3D
$GPGSV,3,1,12,17,67,040,29,27,53,308,23,28,37,075,31,09,35,314,22*7E
$GPGSV,3,2,12,04,35,152,40,26,21,212,36,01,09,037,,02,09,184,31*70
$GPGSV,3,3,12,08,09,140,38,12,07,284,29,24,01,031,,48,44,197,39*78
$GPVTG,113.86,T,,M,2.79,N,5.2,K,D*0E
$GPGGA,180417.000,3748.7637,N,12217.7901,W,2,05,2.2,7.4,M,-25.1,M,1.8,0000*49
$GPGSA,A,3,17,28,04,08,26,,,,,,,,3.9,2.2,3.2*3D
$GPRMC,180417.000,A,3748.7637,N,12217.7901,W,2.65,118.99,061011,,,D*79
$GPVTG,118.99,T,,M,2.65,N,4.9,K,D*0C
$GPGGA,180418.000,3748.7633,N,12217.7893,W,2,05,2.2,7.2,M,-25.1,M,2.8,0000*4D
$GPGSA,A,3,17,28,04,08,26,,,,,,,,3.9,2.2,3.2*3D
$GPRMC,180418.000,A,3748.7633,N,12217.7893,W,2.56,125.34,061011,,,D*71
$GPVTG,125.34,T,,M,2.56,N,4.7,K,D*0B
$GPGGA,180419.000,3748.7628,N,12217.7885,W,2,05,2.2,7.1,M,-25.1,M,3.8,0000*43
$GPGSA,A,3,17,28,04,08,26,,,,,,,,3.9,2.2,3.2*3D
$GPRMC,180419.000,A,3748.7628,N,12217.7885,W,2.91,133.40,061011,,,D*72
$GPVTG,133.40,T,,M,2.91,N,5.4,K,D*06
$GPGGA,180420.000,3748.7623,N,12217.7876,W,2,05,2.2,6.0,M,-25.1,M,1.8,0000*4C
$GPGSA,A,3,17,28,04,08,26,,,,,,,,3.9,2.2,3.2*3D
$GPRMC,180420.000,A,3748.7623,N,12217.7876,W,2.93,126.21,061011,,,D*7E
$GPVTG,126.21,T,,M,2.93,N,5.4,K,D*07
$GPGGA,180421.000,3748.7619,N,12217.7863,W,2,05,2.2,4.1,M,-25.1,M,1.8,0000*43
$GPGSA,A,3,17,28,04,08,26,,,,,,,,3.9,2.2,3.2*3D
$GPGSV,3,1,12,17,67,040,28,27,53,307,23,28,37,075,21,09,36,314,23*73
$GPGSV,3,2,12,04,35,152,40,26,20,212,36,02,09,184,39,01,09,037,*79
$GPGSV,3,3,12,08,09,140,40,12,07,284,29,24,01,031,,48,44,197,37*79
$GPRMC,180421.000,A,3748.7619,N,12217.7863,W,3.09,119.93,061011,,,D*75
$GPVTG,119.93,T,,M,3.09,N,5.7,K,D*03
$GPGGA,180422.000,3748.7612,N,12217.7854,W,2,05,2.2,4.1,M,-25.1,M,1.8,0000*4F
$GPGSA,A,3,17,28,04,08,26,,,,,,,,3.9,2.2,3.2*3D
$GPRMC,180422.000,A,3748.7612,N,12217.7854,W,2.91,121.49,061011,,,D*75
$GPVTG,121.49,T,,M,2.91,N,5.4,K,D*0C
$GPGGA,180423.000,3748.7603,N,12217.7847,W,2,05,2.2,4.8,M,-25.1,M,1.8,0000*45
$GPGSA,A,3,17,28,04,08,26,,,,,,,,3.9,2.2,3.2*3D
$GPRMC,180423.000,A,3748.7603,N,12217.7847,W,2.83,127.35,061011,,,D*78
$GPVTG,127.35,T,,M,2.83,N,5.2,K,D*04
$GPGGA,180424.000,3748.7594,N,12217.7838,W,2,05,2.2,4.7,M,-25.1,M,2.8,0000*4B
$GPGSA,A,3,17,28,04,08,26,,,,,,,,3.9,2.2,3.2*3D
$GPRMC,180424.000,A,3748.7594,N,12217.7838,W,2.78,125.97,061011,,,D*74
$GPVTG,125.97,T,,M,2.78,N,5.2,K,D*0A
$GPGGA,180425.000,3748.7587,N,12217.7828,W,2,05,2.2,4.6,M,-25.1,M,3.8,0000*49
$GPGSA,A,3,17,28,04,08,26,,,,,,,,3.9,2.2,3.2*3D
$GPRMC,180425.000,A,3748.7587,N,12217.7828,W,2.94,119.39,061011,,,D*7F
$GPVTG,119.39,T,,M,2.94,N,5.4,K,D*05
$GPGGA,180426.000,3748.7577,N,12217.7820,W,2,05,2.2,5.8,M,-25.1,M,4.8,0000*45
$GPGSA,A,3,17,28,04,08,26,,,,,,,,3.9,2.2,3.2*3D
$GPGSV,3,1,12,17,67,040,28,27,53,307,23,28,37,075,24,09,36,314,23*76
$GPGSV,3,2,12,04,35,152,40,26,20,212,30,02,09,184,36,01,09,037,*70
$GPGSV,3,3,12,08,09,140,46,12,07,284,29,24,01,031,,48,44,197,38*70
$GPRMC,180426.000,A,3748.7577,N,12217.7820,W,2.98,128.40,061011,,,D*7B
$GPVTG,128.40,T,,M,2.98,N,5.5,K,D*04
$GPGGA,180427.000,3748.7568,N,12217.7813,W,2,05,2.2,7.3,M,-25.1,M,5.8,0000*42
$GPGSA,A,3,17,28,04,08,26,,,,,,,,3.9,2.2,3.2*3D
$GPRMC,180427.000,A,3748.7568,N,12217.7813,W,2.94,118.09,061011,,,D*76
$GPVTG,118.09,T,,M,2.94,N,5.5,K,D*06
$GPGGA,180428.000,3748.7565,N,12217.7805,W,2,05,2.2,8.6,M,-25.1,M,1.8,0000*49
$GPGSA,A,3,17,28,04,08,26,,,,,,,,3.9,2.2,3.2*3D
$GPRMC,180428.000,A,3748.7565,N,12217.7805,W,2.47,99.18,061011,,,D*45
$GPVTG,99.18,T,,M,2.47,N,4.6,K,D*32
$GPGGA,180429.000,3748.7560,N,12217.7794,W,2,05,2.2,8.8,M,-25.1,M,1.8,0000*44
$GPGSA,A,3,17,28,04,08,26,,,,,,,,3.9,2.2,3.2*3D
$GPRMC,180429.000,A,3748.7560,N,12217.7794,W,2.98,117.31,061011,,,D*78
$GPVTG,117.31,T,,M,2.98,N,5.5,K,D*0E
$GPGGA,180430.000,3748.7556,N,12217.7784,W,2,05,2.2,9.5,M,-25.1,M,2.8,0000*47
$GPGSA,A,3,17,28,04,08,26,,,,,,,,3.9,2.2,3.2*3D
$GPRMC,180430.000,A,3748.7556,N,12217.7784,W,2.98,114.70,061011,,,D*72
$GPVTG,114.70,T,,M,2.98,N,5.5,K,D*08
$GPGGA,180431.000,3748.7550,N,12217.7775,W,2,05,2.2,10.2,M,-25.1,M,3.8,0000*70
$GPGSA,A,3,17,28,04,08,26,,,,,,,,3.9,2.2,3.2*3D
$GPGSV,3,1,12,17,67,040,27,27,53,307,23,28,37,075,24,09,36,314,19*70
$GPGSV,3,2,12,04,35,152,40,26,20,212,30,02,09,184,35,01,09,037,*73
$GPGSV,3,3,12,08,09,140,41,12,07,284,25,24,01,031,,48,44,197,38*7B
$GPRMC,180431.000,A,3748.7550,N,12217.7775,W,3.08,128.27,061011,,,D*7E
$GPVTG,128.27,T,,M,3.08,N,5.7,K,D*0F
$GPGGA,180432.000,3748.7543,N,12217.7767,W,2,05,2.2,10.8,M,-25.1,M,4.8,0000*7F
$GPGSA,A,3,17,28,04,08,26,,,,,,,,3.9,2.2,3.2*3D
$GPRMC,180432.000,A,3748.7543,N,12217.7767,W,3.03,130.62,061011,,,D*7F
$GPVTG,130.62,T,,M,3.03,N,5.6,K,D*0D
$GPGGA,180433.000,3748.7535,N,12217.7765,W,2,05,2.2,12.4,M,-25.1,M,1.8,0000*76
$GPGSA,A,3,17,28,04,08,26,,,,,,,,3.9,2.2,3.2*3D
$GPRMC,180433.000,A,3748.7535,N,12217.7765,W,2.68,134.73,061011,,,D*75
$GPVTG,134.73,T,,M,2.68,N,5.0,K,D*03
$GPGGA,180434.000,3748.7530,N,12217.7759,W,2,05,2.2,13.4,M,-25.1,M,1.8,0000*7A
$GPGSA,A,3,17,28,04,08,26,,,,,,,,3.9,2.2,3.2*3D
$GPRMC,180434.000,A,3748.7530,N,12217.7759,W,2.94,128.51,061011,,,D*76
$GPVTG,128.51,T,,M,2.94,N,5.5,K,D*08
$GPGGA,180435.000,3748.7525,N,12217.7751,W,2,04,2.7,13.6,M,-25.1,M,1.8,0000*71
$GPGSA,A,3,17,04,08,26,,,,,,,,,4.6,2.7,3.7*3F
$GPRMC,180435.000,A,3748.7525,N,12217.7751,W,3.15,127.00,061011,,,D*78
$GPVTG,127.00,T,,M,3.15,N,5.8,K,D*06
$GPGGA,180436.000,3748.7523,N,12217.7742,W,2,04,2.7,13.8,M,-25.1,M,1.8,0000*78
$GPGSA,A,3,17,04,08,26,,,,,,,,,4.6,2.7,3.7*3F
$GPGSV,3,1,12,17,67,040,25,27,53,307,23,28,37,075,16,09,36,314,21*78
$GPGSV,3,2,12,04,35,152,30,26,20,212,33,02,09,184,25,01,09,037,*76
$GPGSV,3,3,12,08,09,140,40,12,07,284,25,24,01,031,,48,44,197,35*77
$GPRMC,180436.000,A,3748.7523,N,12217.7742,W,3.16,124.47,061011,,,D*7C
$GPGGA,180437.000,3748.7520,N,12217.7734,W,2,04,2.7,13.9,M,-25.1,M,2.8,0000*79
$GPGSA,A,3,17,04,08,26,,,,,,,,,4.6,2.7,3.7*3F
$GPRMC,180437.000,A,3748.7520,N,12217.7734,W,3.01,123.40,061011,,,D*79
$GPVTG,123.40,T,,M,3.01,N,5.6,K,D*0D
$GPGGA,180438.000,3748.7511,N,12217.7724,W,2,04,2.7,14.0,M,-25.1,M,3.8,0000*7A
$GPGSA,A,3,17,04,08,26,,,,,,,,,4.6,2.7,3.7*3F
$GPRMC,180438.000,A,3748.7511,N,12217.7724,W,3.03,122.09,061011,,,D*7B
$GPVTG,122.09,T,,M,3.03,N,5.6,K,D*03
$GPGGA,180439.000,3748.7498,N,12217.7712,W,2,04,2.7,14.7,M,-25.1,M,4.8,0000*7E
$GPGSA,A,3,17,04,08,26,,,,,,,,,4.6,2.7,3.7*3F
$GPRMC,180439.000,A,3748.7498,N,12217.7712,W,3.01,126.72,061011,,,D*75
$GPVTG,126.72,T,,M,3.01,N,5.6,K,D*09
$GPGGA,180440.000,3748.7491,N,12217.7700,W,2,04,2.6,15.2,M,-25.1,M,5.8,0000*7E
$GPGSA,A,3,17,04,08,26,,,,,,,,,4.6,2.6,3.7*3E
$GPRMC,180440.000,A,3748.7491,N,12217.7700,W,3.43,117.37,061011,,,D*74
$GPVTG,117.37,T,,M,3.43,N,6.4,K,D*0D
$GPGGA,180441.000,3748.7483,N,12217.7689,W,2,04,2.6,15.5,M,-25.1,M,1.8,0000*7F
$GPGSA,A,3,17,04,08,26,,,,,,,,,4.6,2.6,3.7*3E
$GPGSV,3,1,12,17,67,040,24,27,53,307,23,28,37,075,17,09,36,314,21*78
$GPGSV,3,2,12,04,35,152,38,26,20,212,36,02,09,184,28,01,09,037,*76
$GPGSV,3,3,12,08,09,140,42,12,07,284,28,24,01,031,,48,44,197,39*74
$GPRMC,180441.000,A,3748.7483,N,12217.7689,W,3.22,119.19,061011,,,D*73
$GPVTG,119.19,T,,M,3.22,N,6.0,K,D*0C
$GPGGA,180442.000,3748.7472,N,12217.7678,W,2,04,2.6,15.8,M,-25.1,M,1.8,0000*71
$GPGSA,A,3,17,04,08,26,,,,,,,,,4.6,2.6,3.7*3E
$GPRMC,180442.000,A,3748.7472,N,12217.7678,W,3.39,128.69,061011,,,D*7F
$GPVTG,128.69,T,,M,3.39,N,6.3,K,D*00
$GPGGA,180443.000,3748.7466,N,12217.7668,W,2,04,2.6,15.9,M,-25.1,M,2.8,0000*76
$GPGSA,A,3,17,04,08,26,,,,,,,,,4.6,2.6,3.7*3E
$GPRMC,180443.000,A,3748.7466,N,12217.7668,W,3.44,129.76,061011,,,D*7F
$GPVTG,129.76,T,,M,3.44,N,6.4,K,D*02
$GPGGA,180444.000,3748.7462,N,12217.7659,W,2,04,2.6,15.9,M,-25.1,M,3.8,0000*76
$GPGSA,A,3,17,04,08,26,,,,,,,,,4.6,2.6,3.7*3E
$GPRMC,180444.000,A,3748.7462,N,12217.7659,W,3.46,130.43,061011,,,D*72
$GPVTG,130.43,T,,M,3.46,N,6.4,K,D*0E
$GPGGA,180445.000,3748.7460,N,12217.7650,W,2,04,2.6,15.9,M,-25.1,M,1.8,0000*7E
$GPGSA,A,3,17,04,08,26,,,,,,,,,4.6,2.6,3.7*3E
$GPRMC,180445.000,A,3748.7460,N,12217.7650,W,3.18,127.82,061011,,,D*78
$GPVTG,127.82,T,,M,3.18,N,5.9,K,D*00
$GPGGA,180446.000,3748.7457,N,12217.7642,W,2,04,2.6,15.8,M,-25.1,M,1.8,0000*7B
$GPGSA,A,3,17,04,08,26,,,,,,,,,4.6,2.6,3.7*3E
$GPGSV,3,1,12,17,67,040,25,27,53,307,23,28,37,075,18,09,36,314,22*75
$GPGSV,3,2,12,04,35,152,39,26,20,212,32,02,09,184,28,01,09,037,*73
$GPGSV,3,3,12,08,09,140,43,12,07,284,31,24,01,031,,48,44,197,39*7D
$GPRMC,180446.000,A,3748.7457,N,12217.7642,W,2.92,128.48,061011,,,D*76
$GPVTG,128.48,T,,M,2.92,N,5.4,K,D*07
$GPGGA,180447.000,3748.7449,N,12217.7633,W,2,05,2.2,16.6,M,-25.1,M,1.8,0000*7B
$GPGSA,A,3,17,28,04,08,26,,,,,,,,3.9,2.2,3.2*3D
$GPRMC,180447.000,A,3748.7449,N,12217.7633,W,3.52,123.36,061011,,,D*71
$GPVTG,123.36,T,,M,3.52,N,6.5,K,D*0A
$GPGGA,180448.000,3748.7442,N,12217.7624,W,2,05,2.2,16.9,M,-25.1,M,2.8,0000*75
$GPGSA,A,3,17,28,04,08,26,,,,,,,,3.9,2.2,3.2*3D
$GPRMC,180448.000,A,3748.7442,N,12217.7624,W,3.47,136.24,061011,,,D*70
$GPVTG,136.24,T,,M,3.47,N,6.4,K,D*08
$GPGGA,180449.000,3748.7437,N,12217.7616,W,2,05,2.2,17.4,M,-25.1,M,3.8,0000*7A
$GPGSA,A,3,17,28,04,08,26,,,,,,,,3.9,2.2,3.2*3D
$GPRMC,180449.000,A,3748.7437,N,12217.7616,W,3.08,121.39,061011,,,D*73
$GPVTG,121.39,T,,M,3.08,N,5.7,K,D*09
$GPGGA,180450.000,3748.7432,N,12217.7608,W,2,05,2.2,18.0,M,-25.1,M,4.8,0000*74
$GPGSA,A,3,17,28,04,08,26,,,,,,,,3.9,2.2,3.2*3D
$GPRMC,180450.000,A,3748.7432,N,12217.7608,W,3.24,119.73,061011,,,D*7A
$GPVTG,119.73,T,,M,3.24,N,6.0,K,D*06
$GPGGA,180451.000,3748.7432,N,12217.7601,W,2,05,2.2,18.3,M,-25.1,M,1.8,0000*7A
$GPGSA,A,3,17,28,04,08,26,,,,,,,,3.9,2.2,3.2*3D
$GPGSV,3,1,12,17,67,040,26,27,53,307,22,28,37,075,21,09,36,314,22*7D
$GPGSV,3,2,12,04,35,151,39,15,26,253,33,26,20,212,32,02,09,184,27*77
$GPGSV,3,3,12,01,09,037,,08,08,140,41,12,07,285,17,24,01,031,*7E
$GPRMC,180451.000,A,3748.7432,N,12217.7601,W,2.79,123.88,061011,,,D*76
$GPGGA,180452.000,3748.7429,N,12217.7595,W,2,05,2.2,19.1,M,-25.1,M,1.8,0000*7E
$GPGSA,A,3,17,28,04,08,26,,,,,,,,3.9,2.2,3.2*3D
$GPRMC,180452.000,A,3748.7429,N,12217.7595,W,2.61,124.31,061011,,,D*7D
$GPVTG,124.31,T,,M,2.61,N,4.8,K,D*04
$GPGGA,180453.000,3748.7430,N,12217.7584,W,2,05,2.2,18.0,M,-25.1,M,1.8,0000*77
$GPGSA,A,3,17,28,04,08,26,,,,,,,,3.9,2.2,3.2*3D
$GPRMC,180453.000,A,3748.7430,N,12217.7584,W,2.79,114.83,061011,,,D*77
$GPVTG,114.83,T,,M,2.79,N,5.2,K,D*0C
$GPGGA,180454.000,3748.7429,N,12217.7571,W,2,05,2.2,16.9,M,-25.1,M,1.8,0000*75
$GPGSA,A,3,17,28,04,08,26,,,,,,,,3.9,2.2,3.2*3D
$GPRMC,180454.000,A,3748.7429,N,12217.7571,W,2.88,115.22,061011,,,D*76
$GPVTG,115.22,T,,M,2.88,N,5.3,K,D*09
$GPGGA,180455.000,3748.7429,N,12217.7559,W,2,05,2.2,15.7,M,-25.1,M,2.8,0000*70
$GPGSA,A,3,17,28,04,08,26,,,,,,,,3.9,2.2,3.2*3D
$GPRMC,180455.000,A,3748.7429,N,12217.7559,W,2.77,113.48,061011,,,D*77
$GPVTG,113.48,T,,M,2.77,N,5.1,K,D*01
$GPGGA,180456.000,3748.7428,N,12217.7548,W,2,05,2.2,14.9,M,-25.1,M,3.8,0000*7C
$GPGSA,A,3,17,28,04,08,26,,,,,,,,3.9,2.2,3.2*3D
$GPGSV,3,1,12,17,67,040,27,27,53,307,23,28,37,075,32,09,36,314,22*7F
$GPGSV,3,2,12,04,35,151,39,15,26,253,33,26,20,212,33,02,09,184,40*77
$GPGSV,3,3,12,01,09,037,,08,08,140,39,12,07,285,22,24,01,031,*77
$GPRMC,180456.000,A,3748.7428,N,12217.7548,W,2.81,119.35,061011,,,D*7C
$GPVTG,119.35,T,,M,2.81,N,5.2,K,D*0B
$GPGGA,180457.000,3748.7425,N,12217.7535,W,2,05,2.2,14.8,M,-25.1,M,1.8,0000*79
$GPGSA,A,3,17,28,04,08,26,,,,,,,,3.9,2.2,3.2*3D
$GPRMC,180457.000,A,3748.7425,N,12217.7535,W,2.91,117.39,061011,,,D*79
$GPVTG,117.39,T,,M,2.91,N,5.4,K,D*0E
$GPGGA,180458.000,3748.7423,N,12217.7524,W,2,05,2.2,14.4,M,-25.1,M,1.8,0000*7C
$GPGSA,A,3,17,28,04,08,26,,,,,,,,3.9,2.2,3.2*3D
$GPRMC,180458.000,A,3748.7423,N,12217.7524,W,2.37,117.62,061011,,,D*72
$GPVTG,117.62,T,,M,2.37,N,4.4,K,D*0D
$GPGGA,180459.000,3748.7421,N,12217.7515,W,2,05,2.2,14.3,M,-25.1,M,1.8,0000*7A
$GPGSA,A,3,17,28,04,08,26,,,,,,,,3.9,2.2,3.2*3D
$GPRMC,180459.000,A,3748.7421,N,12217.7515,W,2.47,120.76,061011,,,D*75
$GPVTG,120.76,T,,M,2.47,N,4.6,K,D*09
$GPGGA,180500.000,3748.7417,N,12217.7503,W,2,05,2.2,14.4,M,-25.1,M,1.8,0000*72
$GPGSA,A,3,17,28,04,08,26,,,,,,,,3.9,2.2,3.2*3D
$GPRMC,180500.000,A,3748.7417,N,12217.7503,W,2.47,125.45,061011,,,D*7F
$GPVTG,125.45,T,,M,2.47,N,4.6,K,D*0C
$GPGGA,180501.000,3748.7413,N,12217.7488,W,2,05,2.2,14.8,M,-25.1,M,2.8,0000*7A
$GPGSA,A,3,17,28,04,08,26,,,,,,,,3.8,2.2,3.2*3C
$GPGSV,3,1,12,17,67,040,28,27,53,307,23,28,37,075,32,09,36,314,23*71
$GPGSV,3,2,12,04,35,151,30,15,26,253,33,26,20,212,23,02,09,184,33*7B
$GPGSV,3,3,12,01,09,037,,08,08,140,35,12,07,285,23,24,01,031,*7A
$GPRMC,180501.000,A,3748.7413,N,12217.7488,W,2.67,128.79,061011,,,D*78
$GPVTG,128.79,T,,M,2.67,N,4.9,K,D*03
$GPGGA,180502.000,3748.7408,N,12217.7476,W,2,05,2.2,14.7,M,-25.1,M,3.8,0000*7C
$GPGSA,A,3,17,28,04,08,26,,,,,,,,3.8,2.2,3.2*3C
$GPRMC,180502.000,A,3748.7408,N,12217.7476,W,2.63,127.32,061011,,,D*74
$GPVTG,127.32,T,,M,2.63,N,4.9,K,D*07
$GPGGA,180503.000,3748.7406,N,12217.7464,W,2,05,2.2,14.9,M,-25.1,M,4.8,0000*79
$GPGSA,A,3,17,28,04,08,26,,,,,,,,3.8,2.2,3.2*3C
$GPRMC,180503.000,A,3748.7406,N,12217.7464,W,2.56,114.33,061011,,,D*7F
$GPVTG,114.33,T,,M,2.56,N,4.7,K,D*0E
$GPGGA,180504.000,3748.7400,N,12217.7455,W,2,05,2.2,15.9,M,-25.1,M,1.8,0000*7E
$GPGSA,A,3,17,28,04,08,26,,,,,,,,3.8,2.2,3.2*3C
$GPRMC,180504.000,A,3748.7400,N,12217.7455,W,2.46,124.98,061011,,,D*7F
$GPVTG,124.98,T,,M,2.46,N,4.6,K,D*0C
$GPGGA,180505.000,3748.7399,N,12217.7446,W,2,05,2.2,15.8,M,-25.1,M,2.8,0000*78
$GPGSA,A,3,17,28,04,08,26,,,,,,,,3.8,2.2,3.2*3C
$GPRMC,180505.000,A,3748.7399,N,12217.7446,W,1.99,126.85,061011,,,D*74
$GPVTG,126.85,T,,M,1.99,N,3.7,K,D*05
$GPGGA,180506.000,3748.7397,N,12217.7439,W,2,05,2.2,15.4,M,-25.1,M,3.8,0000*70
$GPGSA,A,3,17,28,04,08,26,,,,,,,,3.8,2.2,3.2*3C
$GPGSV,3,1,12,17,67,040,28,27,53,307,24,28,37,075,25,09,36,314,26*75
$GPGSV,3,2,12,04,35,151,32,15,26,253,33,26,20,212,32,02,09,184,35*7F
$GPGSV,3,3,12,01,09,037,,08,08,140,28,12,07,285,23,24,01,031,*76
$GPVTG,110.34,T,,M,2.51,N,4.7,K,D*0A
$GPGGA,180507.000,3748.7394,N,12217.7431,W,2,05,2.2,15.3,M,-25.1,M,4.8,0000*7A
$GPGSA,A,3,17,28,04,08,26,,,,,,,,3.8,2.2,3.2*3C
$GPRMC,180507.000,A,3748.7394,N,12217.7431,W,2.40,118.35,061011,,,D*7A
$GPVTG,118.35,T,,M,2.40,N,4.5,K,D*01
$GPGGA,180508.000,3748.7389,N,12217.7421,W,2,05,2.2,14.6,M,-25.1,M,5.8,0000*7D
$GPGSA,A,3,17,28,04,08,26,,,,,,,,3.8,2.2,3.2*3C
$GPRMC,180508.000,A,3748.7389,N,12217.7421,W,2.48,119.22,061011,,,D*77
$GPVTG,119.22,T,,M,2.48,N,4.6,K,D*0D
$GPGGA,180509.000,3748.7388,N,12217.7414,W,2,05,2.2,13.6,M,-25.1,M,1.8,0000*78
$GPGSA,A,3,17,28,04,08,26,,,,,,,,3.8,2.2,3.2*3C
$GPRMC,180509.000,A,3748.7388,N,12217.7414,W,2.31,120.68,061011,,,D*7B
$GPVTG,120.68,T,,M,2.31,N,4.3,K,D*02
$GPGGA,180510.000,3748.7385,N,12217.7403,W,2,05,2.2,11.6,M,-25.1,M,2.8,0000*7A
$GPGSA,A,3,17,28,04,08,26,,,,,,,,3.8,2.2,3.2*3C
$GPRMC,180510.000,A,3748.7385,N,12217.7403,W,2.79,118.27,061011,,,D*74
$GPVTG,118.27,T,,M,2.79,N,5.2,K,D*0E
$GPGGA,180511.000,3748.7382,N,12217.7393,W,2,05,2.2,10.0,M,-25.1,M,3.8,0000*74
$GPGSA,A,3,17,28,04,08,26,,,,,,,,3.8,2.2,3.2*3C
$GPGSV,3,1,12,17,67,040,23,27,53,307,24,28,37,075,31,09,36,314,26*7B
$GPGSV,3,2,12,04,35,151,34,15,26,253,29,26,20,212,37,02,09,184,28*7B
$GPGSV,3,3,12,01,09,037,,08,08,140,34,12,07,285,22,24,01,031,*7A
$GPRMC,180511.000,A,3748.7382,N,12217.7393,W,2.77,112.77,061011,,,D*7D
$GPVTG,112.77,T,,M,2.77,N,5.1,K,D*0C
$GPGGA,180512.000,3748.7381,N,12217.7384,W,2,05,2.2,8.6,M,-25.1,M,4.8,0000*4A
$GPGSA,A,3,17,28,04,08,26,,,,,,,,3.8,2.2,3.2*3C
$GPRMC,180512.000,A,3748.7381,N,12217.7384,W,2.68,113.43,061011,,,D*73
$GPVTG,113.43,T,,M,2.68,N,5.0,K,D*05
$GPGGA,180513.000,3748.7381,N,12217.7378,W,2,05,2.2,7.9,M,-25.1,M,5.8,0000*49
$GPGSA,A,3,17,28,04,08,26,,,,,,,,3.8,2.2,3.2*3C
$GPRMC,180513.000,A,3748.7381,N,12217.7378,W,1.79,98.25,061011,,,D*40
$GPVTG,98.25,T,,M,1.79,N,3.3,K,D*31
$GPGGA,180514.000,3748.7377,N,12217.7370,W,2,05,2.2,8.2,M,-25.1,M,6.8,0000*48
$GPGSA,A,3,17,28,04,08,26,,,,,,,,3.8,2.2,3.2*3C
$GPRMC,180514.000,A,3748.7377,N,12217.7370,W,2.16,107.84,061011,,,D*70
$GPVTG,107.84,T,,M,2.16,N,4.0,K,D*03
$GPGGA,180515.000,3748.7375,N,12217.7363,W,2,05,2.2,8.1,M,-25.1,M,1.8,0000*4D
$GPGSA,A,3,17,28,04,08,26,,,,,,,,3.8,2.2,3.2*3C
$GPRMC,180515.000,A,3748.7375,N,12217.7363,W,2.83,116.62,061011,,,D*75
$GPVTG,116.62,T,,M,2.83,N,5.2,K,D*04
$GPGGA,180516.000,3748.7371,N,12217.7354,W,2,05,2.2,7.6,M,-25.1,M,2.8,0000*45
$GPGSA,A,3,17,28,04,08,26,,,,,,,,3.8,2.2,3.2*3C
$GPGSV,3,1,12,17,67,040,29,27,53,307,23,28,37,075,31,09,36,314,25*75
$GPGSV,3,2,12,04,35,151,31,15,26,253,35,26,20,212,38,02,09,184,28*7C
$GPGSV,3,3,12,01,09,037,,08,08,140,30,12,07,285,22,24,01,031,*7E
$GPRMC,180516.000,A,3748.7371,N,12217.7354,W,2.56,114.84,061011,,,D*74
$GPVTG,114.84,T,,M,2.56,N,4.7,K,D*02
$GPGGA,180517.000,3748.7370,N,12217.7348,W,2,05,2.2,6.9,M,-25.1,M,3.8,0000*47
$GPGSA,A,3,17,28,04,08,26,,,,,,,,3.8,2.2,3.2*3C
$GPRMC,180517.000,A,3748.7370,N,12217.7348,W,2.15,110.24,061011,,,D*70
$GPVTG,110.24,T,,M,2.15,N,4.0,K,D*0C
$GPGGA,180518.000,3748.7369,N,12217.7340,W,2,05,2.2,5.4,M,-25.1,M,4.8,0000*41
$GPGSA,A,3,17,28,04,08,26,,,,,,,,3.8,2.2,3.2*3C
$GPRMC,180518.000,A,3748.7369,N,12217.7340,W,1.98,114.81,061011,,,D*72
$GPVTG,114.81,T,,M,1.98,N,3.7,K,D*01
$GPGGA,180519.000,3748.7363,N,12217.7329,W,2,05,2.2,3.6,M,-25.1,M,5.8,0000*40
$GPGSA,A,3,17,28,04,08,26,,,,,,,,3.8,2.2,3.2*3C
$GPRMC,180519.000,A,3748.7363,N,12217.7329,W,2.66,121.75,061011,,,D*79
$GPVTG,121.75,T,,M,2.66,N,4.9,K,D*07
$GPGGA,180520.000,3748.7358,N,12217.7320,W,2,05,2.2,3.1,M,-25.1,M,6.8,0000*4F
$GPGSA,A,3,17,28,04,08,26,,,,,,,,3.8,2.2,3.2*3C
$GPRMC,180520.000,A,3748.7358,N,12217.7320,W,2.83,111.98,061011,,,D*79
$GPVTG,111.98,T,,M,2.83,N,5.2,K,D*06
$GPGGA,180521.000,3748.7355,N,12217.7311,W,2,05,2.2,3.0,M,-25.1,M,1.8,0000*47
$GPGSA,A,3,17,28,04,08,26,,,,,,,,3.8,2.2,3.2*3C
$GPGSV,3,1,12,17,67,040,25,27,53,307,23,28,37,075,31,09,36,314,22*7E
$GPGSV,3,2,12,04,35,151,37,15,26,253,28,26,20,211,36,02,09,184,29*7A
$GPGSV,3,3,12,01,09,037,,08,08,141,38,12,07,285,22,24,01,031,*77
$GPRMC,180521.000,A,3748.7355,N,12217.7311,W,2.76,112.92,061011,,,D*74
$GPVTG,112.92,T,,M,2.76,N,5.1,K,D*06
$GPGGA,180522.000,3748.7350,N,12217.7301,W,2,06,1.6,3.3,M,-25.1,M,1.8,0000*47
$GPGSA,A,3,17,28,15,04,08,26,,,,,,,3.2,1.6,2.7*31
$GPRMC,180522.000,A,3748.7350,N,12217.7301,W,2.81,112.28,061011,,,D*7A
$GPVTG,112.28,T,,M,2.81,N,5.2,K,D*0C
$GPGGA,180523.000,3748.7344,N,12217.7289,W,2,06,1.6,4.0,M,-25.1,M,2.8,0000*45
$GPGSA,A,3,17,28,15,04,08,26,,,,,,,3.2,1.6,2.7*31
$GPRMC,180523.000,A,3748.7344,N,12217.7289,W,2.52,113.92,061011,,,D*71
$GPVTG,113.92,T,,M,2.52,N,4.7,K,D*06
$GPGGA,180524.000,3748.7342,N,12217.7283,W,2,06,1.6,3.8,M,-25.1,M,3.8,0000*40
$GPGSA,A,3,17,28,15,04,08,26,,,,,,,3.2,1.6,2.7*31
$GPRMC,180524.000,A,3748.7342,N,12217.7283,W,2.64,118.08,061011,,,D*77
$GPVTG,118.08,T,,M,2.64,N,4.9,K,D*05
$GPGGA,180525.000,3748.7334,N,12217.7278,W,2,06,1.6,4.4,M,-25.1,M,4.8,0000*48
$GPGSA,A,3,17,28,15,04,08,26,,,,,,,3.2,1.6,2.7*31
$GPRMC,180525.000,A,3748.7334,N,12217.7278,W,3.07,121.04,061011,,,D*71
$GPVTG,121.04,T,,M,3.07,N,5.7,K,D*08
$GPGGA,180526.000,3748.7328,N,12217.7270,W,2,06,1.6,5.4,M,-25.1,M,5.8,0000*4E
$GPGSA,A,3,17,28,15,04,08,26,,,,,,,3.2,1.6,2.7*31
$GPGSV,3,1,12,17,67,040,28,27,53,307,23,28,37,075,27,09,36,314,22*74
$GPGSV,3,2,12,04,36,151,38,15,26,252,33,26,20,211,37,02,09,184,28*7D
$GPGSV,3,3,12,01,09,037,16,08,08,141,39,12,07,285,22,24,01,031,*71
$GPRMC,180526.000,A,3748.7328,N,12217.7270,W,3.02,121.93,061011,,,D*7C
$GPGGA,180527.000,3748.7322,N,12217.7262,W,2,06,1.6,5.5,M,-25.1,M,1.8,0000*43
$GPGSA,A,3,17,28,15,04,08,26,,,,,,,3.2,1.6,2.7*31
$GPRMC,180527.000,A,3748.7322,N,12217.7262,W,2.94,121.07,061011,,,D*77
$GPVTG,121.07,T,,M,2.94,N,5.4,K,D*03
$GPGGA,180528.000,3748.7316,N,12217.7255,W,2,06,1.6,5.8,M,-25.1,M,1.8,0000*42
$GPGSA,A,3,17,28,15,04,08,26,,,,,,,3.2,1.6,2.7*31
$GPRMC,180528.000,A,3748.7316,N,12217.7255,W,2.96,114.97,061011,,,D*76
$GPVTG,114.97,T,,M,2.96,N,5.5,K,D*0F
$GPGGA,180529.000,3748.7311,N,12217.7248,W,2,06,1.6,6.5,M,-25.1,M,1.8,0000*46
$GPGSA,A,3,17,28,15,04,08,26,,,,,,,3.2,1.6,2.7*31
$GPRMC,180529.000,A,3748.7311,N,12217.7248,W,2.94,114.99,061011,,,D*70
$GPVTG,114.99,T,,M,2.94,N,5.5,K,D*03
$GPGGA,180530.000,3748.7303,N,12217.7242,W,2,06,1.6,7.5,M,-25.1,M,1.8,0000*46
$GPGSA,A,3,17,28,15,04,08,26,,,,,,,3.2,1.6,2.7*31
$GPRMC,180530.000,A,3748.7303,N,12217.7242,W,2.90,122.54,061011,,,D*71
$GPVTG,122.54,T,,M,2.90,N,5.4,K,D*02
$GPGGA,180531.000,3748.7294,N,12217.7238,W,2,06,1.6,9.4,M,-25.1,M,2.8,0000*49
$GPGSA,A,3,17,28,15,04,08,26,,,,,,,3.2,1.6,2.7*31
$GPGSV,3,1,12,17,67,040,28,27,53,307,24,28,37,075,26,09,36,314,23*73
$GPGSV,3,2,12,04,36,151,39,15,26,252,36,26,20,211,37,02,09,184,27*76
$GPGSV,3,3,12,01,09,037,18,08,08,141,40,12,07,285,21,24,01,031,*72
$GPRMC,180531.000,A,3748.7294,N,12217.7238,W,2.54,130.67,061011,,,D*79
$GPVTG,130.67,T,,M,2.54,N,4.7,K,D*0B
$GPGGA,180532.000,3748.7286,N,12217.7233,W,2,06,1.6,10.1,M,-25.1,M,3.8,0000*7E
$GPGSA,A,3,17,28,15,04,08,26,,,,,,,3.2,1.6,2.7*31
$GPRMC,180532.000,A,3748.7286,N,12217.7233,W,2.88,125.15,061011,,,D*72
$GPVTG,125.15,T,,M,2.88,N,5.3,K,D*0E
$GPGGA,180533.000,3748.7281,N,12217.7225,W,2,06,1.6,10.7,M,-25.1,M,1.8,0000*7B
$GPGSA,A,3,17,28,15,04,08,26,,,,,,,3.2,1.6,2.7*31
$GPRMC,180533.000,A,3748.7281,N,12217.7225,W,2.99,122.55,061011,,,D*70
$GPVTG,122.55,T,,M,2.99,N,5.5,K,D*0B
$GPGGA,180534.000,3748.7276,N,12217.7216,W,2,06,1.6,10.9,M,-25.1,M,0.8,0000*7B
$GPGSA,A,3,17,28,15,04,08,26,,,,,,,3.2,1.6,2.7*31
$GPRMC,180534.000,A,3748.7276,N,12217.7216,W,3.05,119.99,061011,,,D*73
$GPVTG,119.99,T,,M,3.05,N,5.7,K,D*05
$GPGGA,180535.000,3748.7271,N,12217.7207,W,2,06,1.6,11.0,M,-25.1,M,1.8,0000*74
$GPGSA,A,3,17,28,15,04,08,26,,,,,,,3.2,1.6,2.7*31
$GPRMC,180535.000,A,3748.7271,N,12217.7207,W,3.05,122.91,061011,,,D*75
$GPVTG,122.91,T,,M,3.05,N,5.7,K,D*05
$GPGGA,180536.000,3748.7267,N,12217.7198,W,2,06,1.6,11.1,M,-25.1,M,2.8,0000*77
$GPGSA,A,3,17,28,15,04,08,26,,,,,,,3.2,1.6,2.7*31
$GPGSV,3,1,12,17,67,040,29,27,53,307,23,28,37,075,32,09,36,314,23*70
$GPGSV,3,2,12,04,36,151,39,15,26,252,34,26,20,211,36,02,09,184,38*7B
$GPGSV,3,3,12,01,09,037,18,08,08,141,40,12,07,285,21,24,01,031,*72
$GPRMC,180536.000,A,3748.7267,N,12217.7198,W,3.01,114.06,061011,,,D*7B
$GPVTG,114.06,T,,M,3.01,N,5.6,K,D*0B
$GPGGA,180537.000,3748.7265,N,12217.7189,W,2,06,1.6,12.1,M,-25.1,M,3.8,0000*76
$GPGSA,A,3,17,28,15,04,08,26,,,,,,,3.2,1.6,2.7*31
$GPRMC,180537.000,A,3748.7265,N,12217.7189,W,2.73,107.51,061011,,,D*7C
$GPVTG,107.51,T,,M,2.73,N,5.1,K,D*08
$GPGGA,180538.000,3748.7265,N,12217.7180,W,2,06,1.6,12.7,M,-25.1,M,4.8,0000*71
$GPGSA,A,3,17,28,15,04,08,26,,,,,,,3.2,1.6,2.7*31
$GPRMC,180538.000,A,3748.7265,N,12217.7180,W,2.62,93.96,061011,,,D*4D
$GPVTG,93.96,T,,M,2.62,N,4.8,K,D*37
$GPGGA,180539.000,3748.7268,N,12217.7171,W,2,06,1.6,13.1,M,-25.1,M,1.8,0000*71
$GPGSA,A,3,17,28,15,04,08,26,,,,,,,3.2,1.6,2.7*31
$GPRMC,180539.000,A,3748.7268,N,12217.7171,W,2.99,68.67,061011,,,D*41
$GPVTG,68.67,T,,M,2.99,N,5.5,K,D*35
$GPGGA,180540.000,3748.7274,N,12217.7162,W,2,06,1.6,13.2,M,-25.1,M,2.8,0000*70
$GPGSA,A,3,17,28,15,04,08,26,,,,,,,3.2,1.6,2.7*31
$GPRMC,180540.000,A,3748.7274,N,12217.7162,W,3.27,55.91,061011,,,D*43
$GPVTG,55.91,T,,M,3.27,N,6.1,K,D*31
$GPGGA,180541.000,3748.7282,N,12217.7155,W,2,06,1.6,13.3,M,-25.1,M,1.8,0000*7E
$GPGSA,A,3,17,28,15,04,08,26,,,,,,,3.2,1.6,2.7*31
$GPGSV,3,1,12,17,67,040,32,27,53,307,24,28,37,075,39,09,36,314,22*77
$GPGSV,3,2,12,04,36,151,39,15,26,252,23,26,20,211,31,02,09,184,25*76
$GPGSV,3,3,12,01,09,037,26,08,08,141,40,12,07,285,20,24,01,031,*7E
$GPVTG,40.22,T,,M,2.97,N,5.5,K,D*30
$GPGGA,180542.000,3748.7289,N,12217.7148,W,2,06,1.6,13.4,M,-25.1,M,2.8,0000*7E
$GPGSA,A,3,17,28,15,04,08,26,,,,,,,3.2,1.6,2.7*31
$GPRMC,180542.000,A,3748.7289,N,12217.7148,W,2.84,34.47,061011,,,D*4F
$GPVTG,34.47,T,,M,2.84,N,5.3,K,D*34
$GPGGA,180543.000,3748.7297,N,12217.7143,W,2,06,1.6,13.3,M,-25.1,M,3.8,0000*7D
$GPGSA,A,3,17,28,15,04,08,26,,,,,,,3.2,1.6,2.7*31
$GPRMC,180543.000,A,3748.7297,N,12217.7143,W,2.69,26.43,061011,,,D*4E
$GPVTG,26.43,T,,M,2.69,N,5.0,K,D*33
$GPGGA,180544.000,3748.7306,N,12217.7138,W,2,06,1.6,13.5,M,-25.1,M,4.8,0000*7E
$GPGSA,A,3,17,28,15,04,08,26,,,,,,,3.2,1.6,2.7*31
$GPRMC,180544.000,A,3748.7306,N,12217.7138,W,2.90,23.22,061011,,,D*48
$GPVTG,23.22,T,,M,2.90,N,5.4,K,D*33
$GPGGA,180545.000,3748.7314,N,12217.7135,W,2,06,1.6,13.1,M,-25.1,M,5.8,0000*74
$GPGSA,A,3,17,28,15,04,08,26,,,,,,,3.2,1.6,2.7*31
$GPRMC,180545.000,A,3748.7314,N,12217.7135,W,2.86,19.44,061011,,,D*49
$GPVTG,19.44,T,,M,2.86,N,5.3,K,D*3A
$GPGGA,180546.000,3748.7322,N,12217.7134,W,2,06,1.6,12.4,M,-25.1,M,6.8,0000*74
$GPGSA,A,3,17,28,15,04,08,26,,,,,,,3.2,1.6,2.7*31
$GPGSV,3,1,12,17,67,040,33,27,53,307,23,28,37,075,39,09,36,314,23*70
$GPGSV,3,2,12,04,36,151,38,15,26,252,23,26,20,211,25,02,09,184,21*76
$GPGSV,3,3,12,01,09,037,23,08,08,141,35,12,07,285,20,24,01,031,*79
$GPRMC,180546.000,A,3748.7322,N,12217.7134,W,2.69,12.41,061011,,,D*41
$GPVTG,12.41,T,,M,2.69,N,5.0,K,D*36
$GPGGA,180547.000,3748.7331,N,12217.7132,W,2,06,1.6,11.9,M,-25.1,M,7.8,0000*7E
$GPGSA,A,3,17,28,15,04,08,26,,,,,,,3.2,1.6,2.7*31
$GPRMC,180547.000,A,3748.7331,N,12217.7132,W,2.78,14.63,061011,,,D*42
$GPVTG,14.63,T,,M,2.78,N,5.2,K,D*32
$GPGGA,180548.000,3748.7338,N,12217.7126,W,2,06,1.6,11.8,M,-25.1,M,8.8,0000*73
$GPGSA,A,3,17,28,15,04,08,26,,,,,,,3.2,1.6,2.7*31
$GPRMC,180548.000,A,3748.7338,N,12217.7126,W,2.93,21.64,061011,,,D*45
$GPVTG,21.64,T,,M,2.93,N,5.4,K,D*30
$GPGGA,180549.000,3748.7347,N,12217.7124,W,2,06,1.6,11.0,M,-25.1,M,9.8,0000*71
$GPGSA,A,3,17,28,15,04,08,26,,,,,,,3.2,1.6,2.7*31
$GPRMC,180549.000,A,3748.7347,N,12217.7124,W,2.63,13.00,061011,,,D*42
$GPVTG,13.00,T,,M,2.63,N,4.9,K,D*30
$GPGGA,180550.000,3748.7354,N,12217.7122,W,2,06,1.6,10.0,M,-25.1,M,10.8,0000*44
$GPGSA,A,3,17,28,15,04,08,26,,,,,,,3.2,1.6,2.7*31
$GPRMC,180550.000,A,3748.7354,N,12217.7122,W,2.38,17.50,061011,,,D*41
$GPVTG,17.50,T,,M,2.38,N,4.4,K,D*32
$GPGGA,180551.000,3748.7362,N,12217.7119,W,2,06,1.6,9.1,M,-25.1,M,11.8,0000*70
$GPGSA,A,3,17,28,15,04,08,26,,,,,,,3.2,1.6,2.7*31
$GPGSV,3,1,12,17,66,040,34,27,54,307,24,28,36,076,40,09,36,314,26*7F
$GPGSV,3,2,12,04,36,151,35,15,25,252,23,26,20,211,25,02,10,184,21*70
$GPGSV,3,3,12,01,09,036,25,08,08,141,22,12,07,285,20,24,01,031,*78
$GPRMC,180551.000,A,3748.7362,N,12217.7119,W,2.59,14.55,061011,,,D*4C
$GPVTG,14.55,T,,M,2.59,N,4.8,K,D*3F
$GPGGA,180552.000,3748.7369,N,12217.7113,W,2,06,1.6,8.9,M,-25.1,M,12.8,0000*78
$GPGSA,A,3,17,28,15,04,08,26,,,,,,,3.2,1.6,2.7*31
$GPRMC,180552.000,A,3748.7369,N,12217.7113,W,3.12,20.32,061011,,,D*46
$GPVTG,20.32,T,,M,3.12,N,5.8,K,D*36
$GPGGA,180553.000,3748.7376,N,12217.7105,W,2,06,1.6,8.9,M,-25.1,M,13.8,0000*71
$GPGSA,A,3,17,28,15,04,08,26,,,,,,,3.2,1.6,2.7*31
$GPRMC,180553.000,A,3748.7376,N,12217.7105,W,3.20,26.03,061011,,,D*4B
$GPVTG,26.03,T,,M,3.20,N,5.9,K,D*32
$GPGGA,180554.000,3748.7384,N,12217.7097,W,2,06,1.6,8.7,M,-25.1,M,14.8,0000*78
$GPGSA,A,3,17,28,15,04,08,26,,,,,,,3.2,1.6,2.7*31
$GPRMC,180554.000,A,3748.7384,N,12217.7097,W,3.16,27.07,061011,,,D*4B
$GPVTG,27.07,T,,M,3.16,N,5.9,K,D*32
$GPGGA,180555.000,3748.7390,N,12217.7087,W,2,06,1.6,9.0,M,-25.1,M,15.8,0000*7A
$GPGSA,A,3,17,28,15,04,08,26,,,,,,,3.2,1.6,2.7*31
$GPRMC,180555.000,A,3748.7390,N,12217.7087,W,3.05,21.72,061011,,,D*48
$GPVTG,21.72,T,,M,3.05,N,5.6,K,D*3B
$GPGGA,180556.000,3748.7397,N,12217.7078,W,2,06,1.6,9.4,M,-25.1,M,16.8,0000*79
$GPGSA,A,3,17,28,15,04,08,26,,,,,,,3.2,1.6,2.7*31
$GPGSV,3,1,12,17,66,040,34,27,54,307,24,28,36,076,40,09,36,314,23*7A
$GPGSV,3,2,12,04,36,151,37,15,25,252,23,26,20,211,26,02,10,184,21*71
$GPGSV,3,3,12,01,09,036,28,08,08,141,21,12,07,285,20,24,01,031,*76
$GPRMC,180556.000,A,3748.7397,N,12217.7078,W,3.00,24.15,061011,,,D*4D
$GPVTG,24.15,T,,M,3.00,N,5.6,K,D*3A
$GPGGA,180557.000,3748.7396,N,12217.7058,W,2,06,1.6,11.6,M,-25.1,M,17.8,0000*41
$GPGSA,A,3,17,28,15,04,08,26,,,,,,,3.2,1.6,2.7*31
$GPRMC,180557.000,A,3748.7396,N,12217.7058,W,2.70,20.63,061011,,,D*4C
$GPVTG,20.63,T,,M,2.70,N,5.0,K,D*3F
$GPGGA,180558.000,3748.7399,N,12217.7046,W,1,05,1.7,12.8,M,-25.1,M,,0000*52
$GPGSA,A,3,17,28,15,04,08,,,,,,,,3.2,1.7,2.7*34
$GPRMC,180558.000,A,3748.7399,N,12217.7046,W,2.67,18.00,061011,,,A*4E
$GPVTG,18.00,T,,M,2.67,N,4.9,K,A*3A
$GPGGA,180559.000,3748.7407,N,12217.7041,W,1,06,1.6,12.8,M,-25.1,M,,0000*56
$GPGSA,A,3,17,28,15,04,08,26,,,,,,,3.2,1.6,2.7*31
$GPRMC,180559.000,A,3748.7407,N,12217.7041,W,2.86,3.44,061011,,,A*7D
$GPVTG,3.44,T,,M,2.86,N,5.3,K,A*04
$GPGGA,180600.000,3748.7414,N,12217.7035,W,1,06,1.6,13.0,M,-25.1,M,,0000*51
$GPGSA,A,3,17,28,15,04,08,26,,,,,,,3.2,1.6,2.7*31
$GPRMC,180600.000,A,3748.7414,N,12217.7035,W,2.98,18.03,061011,,,A*45
$GPVTG,18.03,T,,M,2.98,N,5.5,K,A*34
$GPGGA,180601.000,3748.7422,N,12217.7031,W,1,06,1.6,12.7,M,-25.1,M,,0000*57
$GPGSA,A,3,17,28,15,04,08,26,,,,,,,3.2,1.6,2.7*31
$GPGSV,3,1,12,17,66,040,34,27,54,307,22,28,36,076,40,09,36,314,23*7C
$GPGSV,3,2,12,04,36,151,37,15,25,252,23,26,20,211,27,02,10,184,33*73
$GPGSV,3,3,12,01,09,036,35,08,08,141,21,12,07,285,20,24,01,031,*7A
$GPRMC,180601.000,A,3748.7422,N,12217.7031,W,2.81,16.84,061011,,,A*4C
$GPGGA,180602.000,3748.7429,N,12217.7027,W,1,06,1.6,12.7,M,-25.1,M,,0000*58
$GPGSA,A,3,17,28,15,04,08,26,,,,,,,3.2,1.6,2.7*31
$GPRMC,180602.000,A,3748.7429,N,12217.7027,W,2.73,9.49,061011,,,A*71
$GPVTG,9.49,T,,M,2.73,N,5.1,K,A*0B
$GPGGA,180603.000,3748.7437,N,12217.7024,W,1,06,1.6,12.4,M,-25.1,M,,0000*56
$GPGSA,A,3,17,28,15,04,08,26,,,,,,,3.2,1.6,2.7*31
$GPRMC,180603.000,A,3748.7437,N,12217.7024,W,2.65,1.38,061011,,,A*75
$GPVTG,1.38,T,,M,2.65,N,4.9,K,A*0B
$GPGGA,180604.000,3748.7444,N,12217.7019,W,1,06,1.6,11.3,M,-25.1,M,,0000*5F
$GPGSA,A,3,17,28,15,04,08,26,,,,,,,3.2,1.6,2.7*31
$GPRMC,180604.000,A,3748.7444,N,12217.7019,W,2.87,3.84,061011,,,A*71
$GPVTG,3.84,T,,M,2.87,N,5.3,K,A*09
$GPGGA,180605.000,3748.7450,N,12217.7011,W,1,06,1.6,11.3,M,-25.1,M,,0000*53
$GPGSA,A,3,17,28,15,04,08,26,,,,,,,3.2,1.6,2.7*31
$GPRMC,180605.000,A,3748.7450,N,12217.7011,W,2.80,7.58,061011,,,A*7F
$GPVTG,7.58,T,,M,2.80,N,5.2,K,A*0A
$GPGGA,180606.000,3748.7457,N,12217.7004,W,1,06,1.6,10.1,M,-25.1,M,,0000*50
$GPGSA,A,3,17,28,15,04,08,26,,,,,,,3.2,1.6,2.7*31
$GPGSV,3,1,12,17,66,040,27,27,54,307,23,28,36,076,38,09,36,314,23*70
$GPGSV,3,2,12,04,36,151,36,15,25,252,22,26,20,211,26,02,10,184,25*75
$GPGSV,3,3,12,01,09,036,30,08,08,141,20,12,07,285,20,24,01,031,*7E
$GPRMC,180606.000,A,3748.7457,N,12217.7004,W,2.85,13.42,061011,,,A*44
$GPVTG,13.42,T,,M,2.85,N,5.3,K,A*30
$GPGGA,180607.000,3748.7464,N,12217.7000,W,1,06,1.6,9.1,M,-25.1,M,,0000*6D
$GPGSA,A,3,17,28,15,04,08,26,,,,,,,3.2,1.6,2.7*31
$GPRMC,180607.000,A,3748.7464,N,12217.7000,W,3.01,8.51,061011,,,A*74
$GPVTG,8.51,T,,M,3.01,N,5.6,K,A*00
$GPGGA,180608.000,3748.7471,N,12217.6994,W,1,06,1.6,8.7,M,-25.1,M,,0000*64
$GPGSA,A,3,17,28,15,04,08,26,,,,,,,3.2,1.6,2.7*31
$GPRMC,180608.000,A,3748.7471,N,12217.6994,W,2.62,7.92,061011,,,A*7E
$GPVTG,7.92,T,,M,2.62,N,4.9,K,A*0A
$GPGGA,180609.000,3748.7477,N,12217.6986,W,1,06,1.6,9.0,M,-25.1,M,,0000*66
$GPGSA,A,3,17,28,15,04,08,26,,,,,,,3.2,1.6,2.7*31
$GPRMC,180609.000,A,3748.7477,N,12217.6986,W,2.48,13.44,061011,,,A*4C
$GPVTG,13.44,T,,M,2.48,N,4.6,K,A*33
$GPGGA,180610.000,3748.7485,N,12217.6982,W,1,06,1.6,8.3,M,-25.1,M,,0000*65
$GPGSA,A,3,17,28,15,04,08,26,,,,,,,3.2,1.6,2.7*31
$GPRMC,180610.000,A,3748.7485,N,12217.6982,W,2.81,6.20,061011,,,A*7E
$GPVTG,6.20,T,,M,2.81,N,5.2,K,A*05
$GPGGA,180611.000,3748.7493,N,12217.6980,W,1,06,1.6,8.3,M,-25.1,M,,0000*61
$GPGSA,A,3,17,28,15,04,08,26,,,,,,,3.2,1.6,2.7*31
$GPGSV,3,1,12,17,66,040,34,27,54,307,26,28,36,076,37,09,36,314,23*78
$GPGSV,3,2,12,04,36,151,33,15,25,252,22,26,20,211,24,02,10,184,26*71
$GPGSV,3,3,12,01,09,036,33,08,08,141,20,12,07,285,19,24,01,031,*77
$GPRMC,180611.000,A,3748.7493,N,12217.6980,W,2.66,359.48,061011,,,A*74
$GPVTG,359.48,T,,M,2.66,N,4.9,K,A*01
$GPGGA,180612.000,3748.7502,N,12217.6979,W,1,06,1.6,7.5,M,-25.1,M,,0000*64
