$ADVER,3080,2.3
$GPRMC,181722.197,A,3748.8038,N,12217.8615,W,0.09,81.91,220612,,,A*47
$GPRMC,181723.197,A,3748.8035,N,12217.8615,W,0.12,65.83,220612,,,A*48
$GPRMC,181724.197,A,3748.8032,N,12217.8615,W,0.07,87.93,220612,,,A*41
$GPRMC,181725.197,A,3748.8028,N,12217.8616,W,0.15,45.43,220612,,,A*48
$GPRMC,181726.197,A,3748.8026,N,12217.8616,W,0.10,83.48,220612,,,A*41
$GPRMC,181727.197,A,3748.8024,N,12217.8616,W,0.10,58.69,220612,,,A*47
$GPRMC,181728.197,A,3748.7959,N,12217.8630,W,0.22,13.62,220612,,,A*45
$GPRMC,181729.197,A,3748.7959,N,12217.8630,W,0.10,45.27,220612,,,A*47
$GPRMC,181730.000,A,3748.7958,N,12217.8630,W,0.16,67.02,220612,,,A*40
$GPRMC,181731.000,A,3748.7958,N,12217.8629,W,0.17,54.28,220612,,,A*40
$GPRMC,181732.000,A,3748.7958,N,12217.8629,W,0.14,56.10,220612,,,A*49
$GPRMC,181733.000,A,3748.7958,N,12217.8628,W,0.16,45.21,220612,,,A*4B
$GPRMC,181734.000,A,3748.7967,N,12217.8621,W,0.45,140.97,220612,,,A*76
$GPRMC,181735.000,A,3748.7974,N,12217.8615,W,0.94,34.16,220612,,,A*45
$GPRMC,181736.000,A,3748.7979,N,12217.8611,W,0.17,117.30,220612,,,A*70
$GPRMC,181737.000,A,3748.7985,N,12217.8606,W,0.49,19.57,220612,,,A*41
$GPRMC,181738.000,A,3748.7989,N,12217.8600,W,0.45,338.31,220612,,,A*78
$GPRMC,181739.000,A,3748.7992,N,12217.8597,W,0.22,279.22,220612,,,A*79
$GPRMC,181740.000,A,3748.7994,N,12217.8593,W,0.06,75.53,220612,,,A*4B
$GPRMC,181741.000,A,3748.7995,N,12217.8592,W,0.17,208.79,220612,,,A*7A
$GPRMC,181742.000,A,3748.7993,N,12217.8588,W,0.11,57.51,220612,,,A*40
$GPRMC,181743.000,A,3748.7990,N,12217.8583,W,0.44,165.62,220612,,,A*79
$GPRMC,181744.000,A,3748.7991,N,12217.8589,W,0.33,278.83,220612,,,A*75
$GPRMC,181745.000,A,3748.7990,N,12217.8590,W,0.40,181.43,220612,,,A*70
$GPRMC,181746.000,A,3748.7990,N,12217.8595,W,0.20,51.80,220612,,,A*43
$GPRMC,181747.000,A,3748.7990,N,12217.8601,W,0.34,251.07,220612,,,A*74
$GPRMC,181748.000,A,3748.7991,N,12217.8606,W,0.23,240.14,220612,,,A*79
$GPRMC,181749.000,A,3748.7990,N,12217.8612,W,0.34,185.45,220612,,,A*74
$GPRMC,181750.000,A,3748.7991,N,12217.8610,W,0.23,64.60,220612,,,A*40
$GPRMC,181751.000,A,3748.7990,N,12217.8608,W,0.22,86.23,220612,,,A*43
$GPRMC,181752.000,A,3748.7997,N,12217.8610,W,0.45,334.83,220612,,,A*7F
$GPRMC,181753.000,A,3748.7997,N,12217.8611,W,0.47,320.10,220612,,,A*72
$GPRMC,181754.000,A,3748.7999,N,12217.8614,W,0.41,354.71,220612,,,A*7C
$GPRMC,181755.000,A,3748.8000,N,12217.8616,W,0.54,305.58,220612,,,A*72
$GPRMC,181756.000,A,3748.8001,N,12217.8616,W,0.27,345.00,220612,,,A*7D
$GPRMC,181757.000,A,3748.7999,N,12217.8615,W,1.09,142.29,220612,,,A*7B
$GPRMC,181758.000,A,3748.7997,N,12217.8606,W,0.80,114.04,220612,,,A*74
$GPRMC,181759.000,A,3748.7996,N,12217.8602,W,0.86,126.62,220612,,,A*77
$GPRMC,181800.000,A,3748.7993,N,12217.8598,W,1.41,115.23,220612,,,A*7E
$GPRMC,181801.000,A,3748.7992,N,12217.8595,W,1.40,109.59,220612,,,A*72
$GPRMC,181802.000,A,3748.7991,N,12217.8587,W,1.88,114.35,220612,,,A*73
$GPRMC,181803.000,A,3748.7988,N,12217.8580,W,1.49,130.47,220612,,,A*73
$GPRMC,181804.000,A,3748.7984,N,12217.8574,W,1.74,106.11,220612,,,A*7B
$GPRMC,181805.000,A,3748.7983,N,12217.8572,W,1.88,123.30,220612,,,A*7C
$GPRMC,181806.000,A,3748.7981,N,12217.8569,W,1.75,134.67,220612,,,A*71
$GPRMC,181807.000,A,3748.7978,N,12217.8564,W,1.54,137.74,220612,,,A*79
$GPRMC,181808.000,A,3748.7974,N,12217.8557,W,1.65,118.53,220612,,,A*70
$GPRMC,181809.000,A,3748.7967,N,12217.8550,W,2.31,116.78,220612,,,A*71
$GPRMC,181810.000,A,3748.7961,N,12217.8543,W,1.76,126.00,220612,,,A*71
$GPRMC,181811.000,A,3748.7957,N,12217.8537,W,1.95,136.63,220612,,,A*7F
$GPRMC,181812.000,A,3748.7954,N,12217.8531,W,2.32,121.50,220612,,,A*71
$GPRMC,181813.000,A,3748.7947,N,12217.8524,W,2.38,130.02,220612,,,A*7B
$GPRMC,181814.000,A,3748.7941,N,12217.8518,W,2.37,125.81,220612,,,A*75
$GPRMC,181815.000,A,3748.7938,N,12217.8512,W,1.80,129.38,220612,,,A*71
$GPRMC,181816.000,A,3748.7936,N,12217.8507,W,1.77,131.19,220612,,,A*7A
$GPRMC,181817.000,A,3748.7934,N,12217.8501,W,1.76,117.59,220612,,,A*7E
$GPRMC,181818.000,A,3748.7931,N,12217.8495,W,1.80,114.89,220612,,,A*7F
$GPRMC,181819.000,A,3748.7928,N,12217.8489,W,1.72,123.55,220612,,,A*73
$GPRMC,181820.000,A,3748.7926,N,12217.8482,W,2.02,115.70,220612,,,A*7A
$GPRMC,181821.000,A,3748.7924,N,12217.8474,W,1.94,114.08,220612,,,A*72
$GPRMC,181822.000,A,3748.7923,N,12217.8474,W,1.49,107.68,220612,,,A*72
$GPRMC,181823.000,A,3748.7921,N,12217.8468,W,1.45,106.70,220612,,,A*78
$GPRMC,181824.000,A,3748.7919,N,12217.8464,W,1.46,126.66,220612,,,A*7E
$GPRMC,181825.000,A,3748.7916,N,12217.8461,W,0.88,120.50,220612,,,A*75
$GPRMC,181826.000,A,3748.7911,N,12217.8449,W,1.26,106.46,220612,,,A*7D
$GPRMC,181827.000,A,3748.7905,N,12217.8436,W,1.87,111.16,220612,,,A*79
$GPRMC,181828.000,A,3748.7900,N,12217.8419,W,2.36,114.57,220612,,,A*77
$GPRMC,181829.000,A,3748.7896,N,12217.8415,W,1.89,131.43,220612,,,A*71
$GPRMC,181830.000,A,3748.7892,N,12217.8412,W,1.95,123.59,220612,,,A*7F
$GPRMC,181831.000,A,3748.7886,N,12217.8402,W,2.08,117.44,220612,,,A*76
$GPRMC,181832.000,A,3748.7882,N,12217.8397,W,1.81,133.31,220612,,,A*7C
$GPRMC,181833.000,A,3748.7875,N,12217.8390,W,2.72,126.62,220612,,,A*7F
$GPRMC,181834.000,A,3748.7874,N,12217.8384,W,2.29,116.02,220612,,,A*77
$GPRMC,181835.000,A,3748.7870,N,12217.8379,W,1.78,123.50,220612,,,A*76
$GPRMC,181836.000,A,3748.7870,N,12217.8373,W,1.50,114.86,220612,,,A*7A
$GPRMC,181837.000,A,3748.7869,N,12217.8370,W,1.54,128.58,220612,,,A*78
$GPRMC,181838.000,A,3748.7868,N,12217.8365,W,1.19,123.41,220612,,,A*78
$GPRMC,181839.000,A,3748.7866,N,12217.8361,W,1.45,123.02,220612,,,A*7D
$GPRMC,181840.000,A,3748.7862,N,12217.8359,W,1.35,120.38,220612,,,A*71
$GPRMC,181841.000,A,3748.7862,N,12217.8355,W,1.49,118.01,220612,,,A*76
$GPRMC,181842.000,A,3748.7859,N,12217.8346,W,1.86,118.61,220612,,,A*7A
$GPRMC,181843.000,A,3748.7858,N,12217.8336,W,2.07,116.78,220612,,,A*71
$GPRMC,181844.000,A,3748.7850,N,12217.8327,W,2.25,115.18,220612,,,A*7B
$GPRMC,181845.000,A,3748.7844,N,12217.8319,W,1.81,109.23,220612,,,A*7A
$GPRMC,181846.000,A,3748.7839,N,12217.8311,W,1.90,124.59,220612,,,A*79
$GPRMC,181847.000,A,3748.7821,N,12217.8300,W,2.07,128.72,220612,,,A*79
$GPRMC,181848.000,A,3748.7818,N,12217.8297,W,1.61,118.10,220612,,,A*77
$GPRMC,181849.000,A,3748.7814,N,12217.8292,W,1.79,130.14,220612,,,A*78
$GPRMC,181850.000,A,3748.7807,N,12217.8283,W,1.11,129.56,220612,,,A*72
$GPRMC,181851.000,A,3748.7802,N,12217.8280,W,1.70,134.07,220612,,,A*7A
$GPRMC,181852.000,A,3748.7795,N,12217.8268,W,2.05,127.73,220612,,,A*7E
$GPRMC,181853.000,A,3748.7789,N,12217.8250,W,2.37,121.95,220612,,,A*76
$GPRMC,181854.000,A,3748.7787,N,12217.8237,W,2.45,119.37,220612,,,A*78
$GPRMC,181855.000,A,3748.7786,N,12217.8233,W,2.54,124.44,220612,,,A*76
$GPRMC,181856.000,A,3748.7782,N,12217.8229,W,2.27,123.11,220612,,,A*79
$GPRMC,181857.000,A,3748.7782,N,12217.8228,W,2.03,125.12,220612,,,A*7A
$GPRMC,181858.000,A,3748.7780,N,12217.8226,W,1.80,119.93,220612,,,A*77
$GPRMC,181859.000,A,3748.7776,N,12217.8220,W,2.22,105.35,220612,,,A*73
$GPRMC,181900.000,A,3748.7773,N,12217.8210,W,1.96,120.92,220612,,,A*7E
$GPRMC,181901.000,A,3748.7768,N,12217.8204,W,1.70,122.56,220612,,,A*72
$GPRMC,181902.000,A,3748.7765,N,12217.8200,W,1.97,123.56,220612,,,A*70
$GPRMC,181903.000,A,3748.7756,N,12217.8192,W,1.86,128.20,220612,,,A*73
$GPRMC,181904.000,A,3748.7754,N,12217.8188,W,2.16,119.74,220612,,,A*74
$GPRMC,181905.000,A,3748.7752,N,12217.8178,W,2.15,133.53,220612,,,A*72
$GPRMC,181906.000,A,3748.7747,N,12217.8174,W,2.06,134.48,220612,,,A*76
$GPRMC,181907.000,A,3748.7747,N,12217.8166,W,2.37,120.00,220612,,,A*7F
$GPRMC,181908.000,A,3748.7746,N,12217.8158,W,2.71,127.26,220612,,,A*7D
$GPRMC,181909.000,A,3748.7740,N,12217.8153,W,2.22,126.56,220612,,,A*71
$GPRMC,181910.000,A,3748.7737,N,12217.8144,W,2.11,112.13,220612,,,A*79
$GPRMC,181911.000,A,3748.7735,N,12217.8138,W,2.32,117.80,220612,,,A*7F
$GPRMC,181912.000,A,3748.7732,N,12217.8131,W,2.35,116.14,220612,,,A*79
$GPRMC,181913.000,A,3748.7726,N,12217.8125,W,2.38,119.40,220612,,,D*7E
$GPRMC,181914.000,A,3748.7720,N,12217.8112,W,2.68,115.57,220612,,,D*74
$GPRMC,181915.000,A,3748.7711,N,12217.8103,W,2.32,126.32,220612,,,D*7B
$GPRMC,181916.000,A,3748.7708,N,12217.8100,W,2.19,117.29,220612,,,D*72
$GPRMC,181917.000,A,3748.7699,N,12217.8089,W,2.66,126.02,220612,,,D*79
$GPRMC,181918.000,A,3748.7694,N,12217.8080,W,2.54,127.52,220612,,,D*77
$GPRMC,181919.000,A,3748.7689,N,12217.8066,W,2.66,119.33,220612,,,D*79
$GPRMC,181920.000,A,3748.7686,N,12217.8057,W,2.20,113.13,220612,,,D*74
$GPRMC,181921.000,A,3748.7687,N,12217.8045,W,2.24,106.85,220612,,,D*78
$GPRMC,181922.000,A,3748.7686,N,12217.8033,W,2.60,106.87,220612,,,D*79
$GPRMC,181923.000,A,3748.7686,N,12217.8025,W,2.23,112.54,220612,,,D*73
$GPRMC,181924.000,A,3748.7683,N,12217.8016,W,2.31,131.12,220612,,,D*71
$GPRMC,181925.000,A,3748.7679,N,12217.8010,W,2.39,127.92,220612,,,D*74
$GPRMC,181926.000,A,3748.7677,N,12217.8008,W,2.00,127.15,220612,,,D*75
$GPRMC,181927.000,A,3748.7676,N,12217.8001,W,2.11,125.22,220612,,,D*7A
$GPRMC,181928.000,A,3748.7674,N,12217.7995,W,1.96,122.21,220612,,,D*74
$GPRMC,181929.000,A,3748.7672,N,12217.7988,W,1.84,118.57,220612,,,D*74
$GPRMC,181930.000,A,3748.7669,N,12217.7978,W,2.14,126.17,220612,,,D*7A
$GPRMC,181931.000,A,3748.7664,N,12217.7968,W,2.50,123.62,220612,,,D*70
$GPRMC,181932.000,A,3748.7660,N,12217.7960,W,2.47,118.17,220612,,,D*73
$GPRMC,181933.000,A,3748.7655,N,12217.7948,W,2.74,123.32,220612,,,D*71
$GPRMC,181934.000,A,3748.7648,N,12217.7933,W,2.77,128.49,220612,,,D*72
$GPRMC,181935.000,A,3748.7641,N,12217.7927,W,2.36,130.12,220612,,,D*7D
$GPRMC,181936.000,A,3748.7635,N,12217.7923,W,2.66,127.74,220612,,,D*7A
$GPRMC,181937.000,A,3748.7626,N,12217.7917,W,2.36,134.42,220612,,,D*7C
$GPRMC,181938.000,A,3748.7620,N,12217.7912,W,2.35,128.89,220612,,,D*79
$GPRMC,181939.000,A,3748.7613,N,12217.7904,W,2.52,125.92,220612,,,D*79
$GPRMC,181940.000,A,3748.7604,N,12217.7896,W,2.72,128.87,220612,,,D*70
$GPRMC,181941.000,A,3748.7595,N,12217.7890,W,2.66,134.33,220612,,,D*7B
$GPRMC,181942.000,A,3748.7592,N,12217.7888,W,2.69,123.25,220612,,,D*78
$GPRMC,181943.000,A,3748.7584,N,12217.7875,W,3.06,121.66,220612,,,D*71
$GPRMC,181944.000,A,3748.7586,N,12217.7871,W,2.73,117.40,220612,,,D*72
$GPRMC,181945.000,A,3748.7583,N,12217.7863,W,2.46,108.94,220612,,,D*74
$GPRMC,181946.000,A,3748.7573,N,12217.7852,W,2.57,114.62,220612,,,D*7E
$GPRMC,181947.000,A,3748.7563,N,12217.7842,W,3.04,117.41,220612,,,D*7A
$GPRMC,181948.000,A,3748.7551,N,12217.7827,W,3.16,128.46,220612,,,D*7F
$GPRMC,181949.000,A,3748.7545,N,12217.7822,W,3.14,130.29,220612,,,D*7C
$GPRMC,181950.000,A,3748.7539,N,12217.7813,W,2.91,122.42,220612,,,D*7F
$GPRMC,181951.000,A,3748.7531,N,12217.7806,W,3.22,125.93,220612,,,D*70
$GPRMC,181952.000,A,3748.7525,N,12217.7797,W,3.09,121.76,220612,,,D*77
$GPRMC,181953.000,A,3748.7519,N,12217.7792,W,3.20,119.11,220612,,,D*7D
$GPRMC,181954.000,A,3748.7514,N,12217.7781,W,2.93,118.93,220612,,,D*77
$GPRMC,181955.000,A,3748.7509,N,12217.7771,W,2.77,122.86,220612,,,D*72
$GPRMC,181956.000,A,3748.7507,N,12217.7765,W,2.58,119.08,220612,,,D*79
$GPRMC,181957.000,A,3748.7504,N,12217.7759,W,2.51,121.96,220612,,,D*71
$GPRMC,181958.000,A,3748.7501,N,12217.7752,W,2.64,110.65,220612,,,D*78
$GPRMC,181959.000,A,3748.7504,N,12217.7744,W,2.60,99.65,220612,,,D*4F
$GPRMC,182000.000,A,3748.7503,N,12217.7736,W,2.67,108.03,220612,,,D*75
$GPRMC,182001.000,A,3748.7492,N,12217.7728,W,2.82,119.21,220612,,,A*7C
$GPRMC,182002.000,A,3748.7481,N,12217.7721,W,2.60,114.23,220612,,,A*77
$GPRMC,182003.000,A,3748.7473,N,12217.7714,W,2.69,112.64,220612,,,A*71
$GPRMC,182004.000,A,3748.7472,N,12217.7714,W,2.44,114.02,220612,,,A*7E
$GPRMC,182005.000,A,3748.7470,N,12217.7710,W,2.20,117.27,220612,,,A*7F
$GPRMC,182006.000,A,3748.7469,N,12217.7707,W,2.48,132.14,220612,,,A*7B
$GPRMC,182007.000,A,3748.7465,N,12217.7698,W,2.04,131.69,220612,,,A*70
$GPRMC,182008.000,A,3748.7463,N,12217.7687,W,2.22,120.86,220612,,,A*72
$GPRMC,182009.000,A,3748.7465,N,12217.7676,W,2.31,109.41,220612,,,D*7C
$GPRMC,182010.000,A,3748.7461,N,12217.7670,W,2.50,126.85,220612,,,D*74
$GPRMC,182011.000,A,3748.7456,N,12217.7667,W,2.22,141.07,220612,,,D*79
$GPRMC,182012.000,A,3748.7451,N,12217.7661,W,2.08,134.02,220612,,,D*74
$GPRMC,182013.000,A,3748.7450,N,12217.7657,W,2.03,124.71,220612,,,D*7F
$GPRMC,182014.000,A,3748.7448,N,12217.7652,W,2.15,119.33,220612,,,D*7B
$GPRMC,182015.000,A,3748.7451,N,12217.7639,W,2.05,112.99,220612,,,D*75
$GPRMC,182016.000,A,3748.7455,N,12217.7634,W,1.54,115.74,220612,,,D*7C
$GPRMC,182017.000,A,3748.7455,N,12217.7622,W,2.26,111.16,220612,,,D*7C
$GPRMC,182018.000,A,3748.7450,N,12217.7612,W,2.09,112.18,220612,,,D*75
$GPRMC,182019.000,A,3748.7448,N,12217.7603,W,2.15,119.27,220612,,,D*77
$GPRMC,182020.000,A,3748.7448,N,12217.7592,W,2.33,121.73,220612,,,D*78
$GPRMC,182021.000,A,3748.7442,N,12217.7587,W,2.23,123.92,220612,,,D*7B
$GPRMC,182022.000,A,3748.7439,N,12217.7578,W,2.03,116.11,220612,,,D*7B
$GPRMC,182023.000,A,3748.7437,N,12217.7569,W,2.49,112.66,220612,,,D*7E
$GPRMC,182024.000,A,3748.7433,N,12217.7559,W,2.34,116.21,220612,,,D*73
$GPRMC,182025.000,A,3748.7430,N,12217.7549,W,2.07,121.39,220612,,,D*7D
$GPRMC,182026.000,A,3748.7428,N,12217.7541,W,1.80,122.75,220612,,,A*7D
$GPRMC,182027.000,A,3748.7424,N,12217.7533,W,1.72,113.32,220612,,,A*79
$GPRMC,182028.000,A,3748.7424,N,12217.7527,W,1.51,116.87,220612,,,A*79
$GPRMC,182029.000,A,3748.7422,N,12217.7524,W,1.52,127.48,220612,,,A*7F
$GPRMC,182030.000,A,3748.7421,N,12217.7519,W,1.34,123.38,220612,,,A*79
$GPRMC,182031.000,A,3748.7412,N,12217.7510,W,2.16,115.47,220612,,,A*7F
$GPRMC,182032.000,A,3748.7407,N,12217.7500,W,2.11,115.93,220612,,,A*77
$GPRMC,182033.000,A,3748.7404,N,12217.7491,W,1.90,117.30,220612,,,A*7D
$GPRMC,182034.000,A,3748.7400,N,12217.7480,W,1.69,112.30,220612,,,A*7D
$GPRMC,182035.000,A,3748.7398,N,12217.7471,W,1.58,99.67,220612,,,A*46
$GPRMC,182036.000,A,3748.7398,N,12217.7464,W,1.36,106.57,220612,,,A*7D
$GPRMC,182037.000,A,3748.7398,N,12217.7461,W,1.17,113.80,220612,,,A*74
$GPRMC,182038.000,A,3748.7399,N,12217.7452,W,1.60,113.05,220612,,,A*77
$GPRMC,182039.000,A,3748.7397,N,12217.7444,W,1.46,108.31,220612,,,A*76
$GPRMC,182040.000,A,3748.7391,N,12217.7438,W,1.53,118.58,220612,,,A*7F
$GPRMC,182041.000,A,3748.7388,N,12217.7432,W,1.25,113.10,220612,,,A*7A
$GPRMC,182042.000,A,3748.7388,N,12217.7427,W,1.03,115.27,220612,,,A*7B
$GPRMC,182043.000,A,3748.7384,N,12217.7425,W,0.92,148.27,220612,,,A*75
$GPRMC,182044.000,A,3748.7379,N,12217.7420,W,1.26,133.44,220612,,,A*72
$GPRMC,182045.000,A,3748.7376,N,12217.7413,W,1.91,121.92,220612,,,A*78
$GPRMC,182046.000,A,3748.7372,N,12217.7406,W,1.36,127.84,220612,,,A*77
$GPRMC,182047.000,A,3748.7367,N,12217.7394,W,1.66,111.78,220612,,,A*7D
$GPRMC,182048.000,A,3748.7360,N,12217.7385,W,2.02,130.20,220612,,,A*7A
$GPRMC,182049.000,A,3748.7359,N,12217.7379,W,1.30,139.22,220612,,,A*7B
$GPRMC,182050.000,A,3748.7355,N,12217.7372,W,1.44,131.74,220612,,,A*7C
$GPRMC,182051.000,A,3748.7350,N,12217.7367,W,1.39,122.88,220612,,,A*77
$GPRMC,182052.000,A,3748.7344,N,12217.7362,W,1.70,127.63,220612,,,A*79
$GPRMC,182053.000,A,3748.7340,N,12217.7356,W,1.68,129.77,220612,,,A*79
$GPRMC,182054.000,A,3748.7340,N,12217.7342,W,2.27,106.53,220612,,,A*78
$GPRMC,182055.000,A,3748.7337,N,12217.7329,W,2.13,114.04,220612,,,A*72
$GPRMC,182056.000,A,3748.7331,N,12217.7315,W,2.38,119.78,220612,,,A*77
$GPRMC,182057.000,A,3748.7321,N,12217.7301,W,2.21,134.61,220612,,,A*7D
$GPRMC,182058.000,A,3748.7312,N,12217.7286,W,2.62,134.76,220612,,,A*7D
$GPRMC,182059.000,A,3748.7305,N,12217.7276,W,2.49,129.77,220612,,,A*71
$GPRMC,182100.000,A,3748.7302,N,12217.7271,W,2.32,128.69,220612,,,A*7E
$GPRMC,182101.000,A,3748.7298,N,12217.7264,W,2.32,125.81,220612,,,A*72
$GPRMC,182102.000,A,3748.7293,N,12217.7257,W,2.30,133.77,220612,,,A*76
$GPRMC,182103.000,A,3748.7287,N,12217.7251,W,2.35,130.06,220612,,,A*74
$GPRMC,182104.000,A,3748.7282,N,12217.7242,W,2.29,128.01,220612,,,A*77
$GPRMC,182105.000,A,3748.7277,N,12217.7231,W,2.52,120.03,220612,,,A*7E
$GPRMC,182106.000,A,3748.7271,N,12217.7221,W,2.61,124.06,220612,,,A*7B
$GPRMC,182107.000,A,3748.7265,N,12217.7210,W,2.54,121.40,220612,,,A*7C
$GPRMC,182108.000,A,3748.7260,N,12217.7199,W,2.44,107.79,220612,,,A*7B
$GPRMC,182109.000,A,3748.7258,N,12217.7183,W,2.73,78.11,220612,,,A*49
$GPRMC,182110.000,A,3748.7266,N,12217.7172,W,2.88,50.61,220612,,,A*4B
$GPRMC,182111.000,A,3748.7275,N,12217.7165,W,2.67,32.49,220612,,,A*41
$GPRMC,182112.000,A,3748.7287,N,12217.7159,W,2.35,19.43,220612,,,A*44
$GPRMC,182113.000,A,3748.7295,N,12217.7156,W,2.26,20.53,220612,,,A*40
$GPRMC,182114.000,A,3748.7302,N,12217.7153,W,1.99,25.47,220612,,,A*4A
$GPRMC,182115.000,A,3748.7309,N,12217.7150,W,2.00,21.21,220612,,,A*44
$GPRMC,182116.000,A,3748.7316,N,12217.7146,W,2.17,23.70,220612,,,A*4E
$GPRMC,182117.000,A,3748.7323,N,12217.7142,W,2.11,28.35,220612,,,A*41
$GPRMC,182118.000,A,3748.7330,N,12217.7138,W,1.75,17.69,220612,,,A*45
$GPRMC,182119.000,A,3748.7335,N,12217.7135,W,1.65,24.05,220612,,,A*47
$GPRMC,182120.000,A,3748.7342,N,12217.7130,W,2.37,24.97,220612,,,A*47
$GPRMC,182121.000,A,3748.7349,N,12217.7125,W,2.72,20.09,220612,,,A*4B
$GPRMC,182122.000,A,3748.7355,N,12217.7119,W,2.48,24.42,220612,,,A*48
$GPRMC,182123.000,A,3748.7361,N,12217.7115,W,2.63,19.63,220612,,,A*46
$GPRMC,182124.000,A,3748.7367,N,12217.7110,W,2.68,26.07,220612,,,A*47
$GPRMC,182125.000,A,3748.7372,N,12217.7105,W,2.48,27.48,220612,,,A*4E
$GPRMC,182126.000,A,3748.7380,N,12217.7098,W,2.60,30.29,220612,,,D*4B
$GPRMC,182127.000,A,3748.7388,N,12217.7092,W,2.58,20.15,220612,,,D*4D
$GPRMC,182128.000,A,3748.7398,N,12217.7087,W,2.35,18.19,220612,,,D*4B
$GPRMC,182129.000,A,3748.7403,N,12217.7081,W,2.46,20.31,220612,,,D*4C
$GPRMC,182130.000,A,3748.7411,N,12217.7076,W,2.54,21.93,220612,,,D*45
$GPRMC,182131.000,A,3748.7420,N,12217.7070,W,2.47,22.38,220612,,,D*40
$GPRMC,182132.000,A,3748.7426,N,12217.7058,W,2.35,30.10,220612,,,D*43
$GPRMC,182133.000,A,3748.7432,N,12217.7050,W,2.82,25.01,220612,,,D*47
$GPRMC,182134.000,A,3748.7441,N,12217.7041,W,2.79,29.24,220612,,,D*4B
$GPRMC,182135.000,A,3748.7446,N,12217.7032,W,2.61,30.57,220612,,,D*4C
$GPRMC,182136.000,A,3748.7451,N,12217.7024,W,2.51,28.67,220612,,,D*47
$GPRMC,182137.000,A,3748.7459,N,12217.7015,W,3.01,40.34,220612,,,D*40
$GPRMC,182138.000,A,3748.7468,N,12217.7011,W,2.20,30.16,220612,,,D*4C
$GPRMC,182139.000,A,3748.7475,N,12217.7007,W,2.64,26.14,220612,,,D*43
$GPRMC,182140.000,A,3748.7484,N,12217.7003,W,2.15,29.87,220612,,,D*44
$GPRMC,182141.000,A,3748.7490,N,12217.6999,W,1.71,42.99,220612,,,D*48
$GPRMC,182142.000,A,3748.7494,N,12217.6996,W,2.45,27.36,220612,,,D*42
$GPRMC,182143.000,A,3748.7501,N,12217.6991,W,2.41,24.75,220612,,,A*4C
$GPRMC,182144.000,A,3748.7506,N,12217.6987,W,2.68,22.80,220612,,,A*4C
$GPRMC,182145.000,A,3748.7515,N,12217.6980,W,2.40,27.31,220612,,,A*4D
$GPRMC,182146.000,A,3748.7521,N,12217.6974,W,2.72,32.26,220612,,,A*41
$GPRMC,182147.000,A,3748.7527,N,12217.6968,W,2.52,28.11,220612,,,A*46
$GPRMC,182148.000,A,3748.7533,N,12217.6961,W,2.84,26.75,220612,,,A*42
$GPRMC,182149.000,A,3748.7539,N,12217.6956,W,2.40,18.25,220612,,,A*4D
$GPRMC,182150.000,A,3748.7543,N,12217.6952,W,2.35,18.52,220612,,,A*4E
$GPRMC,182151.000,A,3748.7549,N,12217.6944,W,2.77,27.49,220612,,,A*42
$GPRMC,182152.000,A,3748.7557,N,12217.6938,W,2.82,23.90,220612,,,A*4F
$GPRMC,182153.000,A,3748.7567,N,12217.6935,W,2.89,16.16,220612,,,A*43
$GPRMC,182154.000,A,3748.7575,N,12217.6934,W,1.92,19.56,220612,,,A*44
$GPRMC,182155.000,A,3748.7583,N,12217.6928,W,1.88,27.95,220612,,,A*48
$GPRMC,182156.000,A,3748.7589,N,12217.6921,W,2.64,18.31,220612,,,A*4B
$GPRMC,182157.000,A,3748.7596,N,12217.6915,W,2.27,23.32,220612,,,A*4F
$GPRMC,182158.000,A,3748.7602,N,12217.6911,W,3.02,23.05,220612,,,A*48
$GPRMC,182159.000,A,3748.7610,N,12217.6906,W,3.01,22.88,220612,,,A*4B
$GPRMC,182200.000,A,3748.7613,N,12217.6901,W,2.64,26.46,220612,,,A*44
$GPRMC,182201.000,A,3748.7619,N,12217.6896,W,2.75,30.53,220612,,,A*43
$GPRMC,182202.000,A,3748.7626,N,12217.6892,W,2.75,25.14,220612,,,A*4F
$GPRMC,182203.000,A,3748.7632,N,12217.6887,W,2.77,28.58,220612,,,A*48
$GPRMC,182204.000,A,3748.7638,N,12217.6884,W,2.36,20.07,220612,,,A*41
$GPRMC,182205.000,A,3748.7643,N,12217.6880,W,2.19,30.86,220612,,,A*4D
$GPRMC,182206.000,A,3748.7650,N,12217.6874,W,3.05,33.76,220612,,,A*47
$GPRMC,182207.000,A,3748.7657,N,12217.6868,W,2.16,15.22,220612,,,A*4A
$GPRMC,182208.000,A,3748.7664,N,12217.6865,W,2.32,7.24,220612,,,A*7B
$GPRMC,182209.000,A,3748.7671,N,12217.6862,W,2.69,12.70,220612,,,A*42
$GPRMC,182210.000,A,3748.7678,N,12217.6858,W,2.86,20.58,220612,,,A*40
$GPRMC,182211.000,A,3748.7686,N,12217.6853,W,2.87,19.33,220612,,,A*4D
$GPRMC,182212.000,A,3748.7694,N,12217.6848,W,2.68,21.67,220612,,,A*4C
$GPRMC,182213.000,A,3748.7700,N,12217.6844,W,2.61,17.38,220612,,,A*4B
$GPRMC,182214.000,A,3748.7704,N,12217.6831,W,2.66,31.00,220612,,,A*42
$GPRMC,182215.000,A,3748.7710,N,12217.6821,W,2.39,32.36,220612,,,A*4B
$GPRMC,182216.000,A,3748.7715,N,12217.6812,W,2.49,32.48,220612,,,A*43
$GPRMC,182217.000,A,3748.7721,N,12217.6807,W,2.43,29.73,220612,,,A*49
$GPRMC,182218.000,A,3748.7728,N,12217.6803,W,2.51,16.28,220612,,,A*4A
$GPRMC,182219.000,A,3748.7734,N,12217.6799,W,1.70,33.99,220612,,,A*47
$GPRMC,182220.000,A,3748.7739,N,12217.6796,W,2.56,25.46,220612,,,A*4D
$GPRMC,182221.000,A,3748.7745,N,12217.6786,W,2.75,28.78,220612,,,A*47
$GPRMC,182222.000,A,3748.7750,N,12217.6775,W,2.59,33.08,220612,,,A*4F
$GPRMC,182223.000,A,3748.7756,N,12217.6766,W,2.62,30.93,220612,,,A*43
$GPRMC,182224.000,A,3748.7763,N,12217.6758,W,2.91,24.46,220612,,,A*4E
$GPRMC,182225.000,A,3748.7771,N,12217.6752,W,2.82,25.03,220612,,,A*44
$GPRMC,182226.000,A,3748.7778,N,12217.6747,W,2.73,31.69,220612,,,A*4D
$GPRMC,182227.000,A,3748.7784,N,12217.6742,W,2.71,31.28,220612,,,A*4D
$GPRMC,182228.000,A,3748.7791,N,12217.6737,W,2.69,20.62,220612,,,A*43
$GPRMC,182229.000,A,3748.7798,N,12217.6734,W,2.71,25.21,220612,,,A*43
$GPRMC,182230.000,A,3748.7806,N,12217.6731,W,2.85,21.64,220612,,,A*48
$GPRMC,182231.000,A,3748.7813,N,12217.6727,W,2.62,19.93,220612,,,A*40
$GPRMC,182232.000,A,3748.7820,N,12217.6723,W,2.59,19.72,220612,,,A*40
$GPRMC,182233.000,A,3748.7826,N,12217.6721,W,2.27,12.64,220612,,,A*40
$GPRMC,182234.000,A,3748.7832,N,12217.6719,W,2.07,17.59,220612,,,A*40
$GPRMC,182235.000,A,3748.7836,N,12217.6711,W,2.24,32.88,220612,,,A*47
$GPRMC,182236.000,A,3748.7842,N,12217.6703,W,2.70,27.65,220612,,,A*42
$GPRMC,182237.000,A,3748.7849,N,12217.6698,W,2.82,27.34,220612,,,A*42
$GPRMC,182238.000,A,3748.7855,N,12217.6694,W,2.12,26.57,220612,,,A*41
$GPRMC,182239.000,A,3748.7862,N,12217.6690,W,1.98,17.81,220612,,,A*48
$GPRMC,182240.000,A,3748.7869,N,12217.6686,W,2.50,20.10,220612,,,A*41
$GPRMC,182241.000,A,3748.7876,N,12217.6682,W,2.38,25.49,220612,,,A*4D
$GPRMC,182242.000,A,3748.7883,N,12217.6677,W,2.23,30.65,220612,,,A*4E
$GPRMC,182243.000,A,3748.7889,N,12217.6672,W,1.99,42.61,220612,,,A*43
$GPRMC,182244.000,A,3748.7894,N,12217.6667,W,1.81,39.75,220612,,,A*4C
$GPRMC,182245.000,A,3748.7899,N,12217.6663,W,1.87,28.62,220612,,,A*44
$GPRMC,182246.000,A,3748.7904,N,12217.6660,W,1.94,21.69,220612,,,A*41
$GPRMC,182247.000,A,3748.7910,N,12217.6657,W,1.55,11.44,220612,,,A*40
$GPRMC,182248.000,A,3748.7916,N,12217.6654,W,2.40,14.33,220612,,,A*48
$GPRMC,182249.000,A,3748.7922,N,12217.6651,W,1.52,14.98,220612,,,A*4A
$GPRMC,182250.000,A,3748.7927,N,12217.6648,W,1.58,12.50,220612,,,A*47
$GPRMC,182251.000,A,3748.7934,N,12217.6645,W,1.58,12.05,220612,,,A*49
$GPRMC,182252.000,A,3748.7943,N,12217.6639,W,1.67,24.18,220612,,,A*44
$GPRMC,182253.000,A,3748.7951,N,12217.6631,W,2.55,27.94,220612,,,A*4B
$GPRMC,182254.000,A,3748.7958,N,12217.6626,W,2.84,24.80,220612,,,A*49
$GPRMC,182255.000,A,3748.7966,N,12217.6620,W,2.77,24.36,220612,,,A*42
$GPRMC,182256.000,A,3748.7972,N,12217.6615,W,1.97,18.50,220612,,,A*40
$GPRMC,182257.000,A,3748.7979,N,12217.6612,W,2.57,10.53,220612,,,A*49
$GPRMC,182258.000,A,3748.7986,N,12217.6610,W,2.22,15.31,220612,,,A*47
$GPRMC,182259.000,A,3748.7991,N,12217.6606,W,2.03,44.51,220612,,,A*46
$GPRMC,182300.000,A,3748.7996,N,12217.6600,W,2.26,39.07,220612,,,A*44
$GPRMC,182301.000,A,3748.8002,N,12217.6597,W,1.95,29.84,220612,,,A*42
$GPRMC,182302.000,A,3748.8007,N,12217.6592,W,1.79,28.98,220612,,,A*4F
$GPRMC,182303.000,A,3748.8014,N,12217.6585,W,2.60,29.83,220612,,,A*4A
$GPRMC,182304.000,A,3748.8022,N,12217.6578,W,2.99,20.17,220612,,,A*48
$GPRMC,182305.000,A,3748.8030,N,12217.6574,W,2.95,15.79,220612,,,A*44
$GPRMC,182306.000,A,3748.8039,N,12217.6571,W,2.75,20.83,220612,,,A*46
$GPRMC,182307.000,A,3748.8044,N,12217.6566,W,2.52,16.86,220612,,,A*4E
$GPRMC,182308.000,A,3748.8051,N,12217.6564,W,2.56,11.73,220612,,,D*4B
$GPRMC,182309.000,A,3748.8057,N,12217.6561,W,2.63,14.68,220612,,,D*40
$GPRMC,182310.000,A,3748.8062,N,12217.6557,W,2.38,18.70,220612,,,D*40
$GPRMC,182311.000,A,3748.8069,N,12217.6547,W,2.95,17.23,220612,,,D*45
$GPRMC,182312.000,A,3748.8075,N,12217.6537,W,2.43,22.20,220612,,,D*42
$GPRMC,182313.000,A,3748.8080,N,12217.6526,W,2.52,17.62,220612,,,D*49
$GPRMC,182314.000,A,3748.8087,N,12217.6520,W,2.64,17.09,220612,,,D*47
$GPRMC,182315.000,A,3748.8093,N,12217.6512,W,2.71,6.41,220612,,,D*7A
$GPRMC,182316.000,A,3748.8099,N,12217.6507,W,2.40,5.50,220612,,,D*76
$GPRMC,182317.000,A,3748.8106,N,12217.6500,W,2.72,9.59,220612,,,D*73
$GPRMC,182318.000,A,3748.8112,N,12217.6493,W,2.93,18.67,220612,,,D*40
$GPRMC,182319.000,A,3748.8121,N,12217.6489,W,2.48,7.24,220612,,,D*75
$GPRMC,182320.000,A,3748.8129,N,12217.6484,W,3.02,9.83,220612,,,D*76
$GPRMC,182321.000,A,3748.8137,N,12217.6478,W,2.85,17.64,220612,,,D*43
$GPRMC,182322.000,A,3748.8144,N,12217.6471,W,2.91,31.85,220612,,,D*43
$GPRMC,182323.000,A,3748.8150,N,12217.6461,W,2.92,26.48,220612,,,D*42
$GPRMC,182324.000,A,3748.8155,N,12217.6453,W,2.72,31.49,220612,,,D*48
$GPRMC,182325.000,A,3748.8162,N,12217.6443,W,2.92,33.24,220612,,,D*4B
$GPRMC,182326.000,A,3748.8169,N,12217.6438,W,2.78,32.58,220612,,,D*41
$GPRMC,182327.000,A,3748.8177,N,12217.6435,W,2.78,18.35,220612,,,D*41
$GPRMC,182328.000,A,3748.8184,N,12217.6429,W,2.77,20.38,220612,,,D*46
$GPRMC,182329.000,A,3748.8188,N,12217.6418,W,2.62,26.83,220612,,,D*4B
$GPRMC,182330.000,A,3748.8194,N,12217.6417,W,2.32,10.69,220612,,,D*45
$GPRMC,182331.000,A,3748.8200,N,12217.6413,W,2.26,14.97,220612,,,D*4E
$GPRMC,182332.000,A,3748.8207,N,12217.6407,W,2.65,13.77,220612,,,D*41
$GPRMC,182333.000,A,3748.8216,N,12217.6403,W,3.10,21.57,220612,,,D*44
$GPRMC,182334.000,A,3748.8226,N,12217.6396,W,3.48,30.54,220612,,,D*45
$GPRMC,182335.000,A,3748.8233,N,12217.6380,W,3.36,32.73,220612,,,D*49
$GPRMC,182336.000,A,3748.8241,N,12217.6365,W,3.48,33.05,220612,,,D*4D
$GPRMC,182337.000,A,3748.8248,N,12217.6350,W,3.33,35.71,220612,,,D*4A
$GPRMC,182338.000,A,3748.8256,N,12217.6339,W,2.81,32.97,220612,,,D*42
$GPRMC,182339.000,A,3748.8264,N,12217.6336,W,2.70,26.58,220612,,,D*45
$GPRMC,182340.000,A,3748.8272,N,12217.6336,W,2.73,17.59,220612,,,D*4C
$GPRMC,182341.000,A,3748.8279,N,12217.6332,W,2.73,13.04,220612,,,D*4E
$GPRMC,182342.000,A,3748.8287,N,12217.6324,W,2.61,24.61,220612,,,D*4F
$GPRMC,182343.000,A,3748.8291,N,12217.6323,W,2.31,31.99,220612,,,D*48
$GPRMC,182344.000,A,3748.8296,N,12217.6316,W,2.33,45.03,220612,,,D*4C
$GPRMC,182345.000,A,3748.8302,N,12217.6310,W,2.43,47.69,220612,,,D*4E
$GPRMC,182346.000,A,3748.8308,N,12217.6308,W,2.07,37.37,220612,,,D*42
$GPRMC,182347.000,A,3748.8319,N,12217.6301,W,2.20,31.38,220612,,,D*46
$GPRMC,182348.000,A,3748.8324,N,12217.6292,W,2.19,42.36,220612,,,D*4C
$GPRMC,182349.000,A,3748.8335,N,12217.6288,W,2.63,34.73,220612,,,D*4B
$GPRMC,182350.000,A,3748.8340,N,12217.6284,W,2.41,37.09,220612,,,D*43
$GPRMC,182351.000,A,3748.8344,N,12217.6280,W,1.91,39.38,220612,,,D*40
$GPRMC,182352.000,A,3748.8350,N,12217.6271,W,2.43,37.75,220612,,,D*43
$GPRMC,182353.000,A,3748.8359,N,12217.6265,W,1.88,33.55,220612,,,D*4C
$GPRMC,182354.000,A,3748.8364,N,12217.6257,W,1.55,37.17,220612,,,D*46
$GPRMC,182355.000,A,3748.8373,N,12217.6253,W,2.27,35.95,220612,,,D*4B
$GPRMC,182356.000,A,3748.8380,N,12217.6247,W,1.97,34.39,220612,,,D*4E
$GPRMC,182357.000,A,3748.8387,N,12217.6241,W,1.75,23.44,220612,,,D*4E
$GPRMC,182358.000,A,3748.8393,N,12217.6234,W,1.75,34.94,220612,,,D*4D
$GPRMC,182359.000,A,3748.8400,N,12217.6226,W,1.77,37.30,220612,,,D*4D
$GPRMC,182400.000,A,3748.8405,N,12217.6221,W,1.77,33.46,220612,,,D*41
$GPRMC,182401.000,A,3748.8408,N,12217.6215,W,1.47,38.02,220612,,,D*42
$GPRMC,182402.000,A,3748.8408,N,12217.6206,W,2.35,90.63,220612,,,D*40
$GPRMC,182403.000,A,3748.8408,N,12217.6203,W,2.89,90.19,220612,,,D*4E
$GPRMC,182404.000,A,3748.8407,N,12217.6194,W,2.71,86.14,220612,,,D*46
$GPRMC,182405.000,A,3748.8407,N,12217.6192,W,2.61,83.77,220612,,,D*40
$GPRMC,182406.000,A,3748.8407,N,12217.6182,W,3.07,87.16,220612,,,D*40
$GPRMC,182407.000,A,3748.8406,N,12217.6178,W,2.38,84.30,220612,,,D*4F
$GPRMC,182408.000,A,3748.8401,N,12217.6174,W,2.47,92.80,220612,,,D*4F
$GPRMC,182409.000,A,3748.8400,N,12217.6167,W,3.18,89.92,220612,,,D*4F
$GPRMC,182410.000,A,3748.8396,N,12217.6161,W,2.97,95.13,220612,,,D*4B
$GPRMC,182411.000,A,3748.8395,N,12217.6154,W,2.61,92.91,220612,,,D*4B
$GPRMC,182412.000,A,3748.8393,N,12217.6148,W,2.36,93.67,220612,,,D*49
$GPRMC,182413.000,A,3748.8387,N,12217.6141,W,2.51,95.13,220612,,,D*40
$GPRMC,182414.000,A,3748.8380,N,12217.6135,W,2.67,103.00,220612,,,D*7A
$GPRMC,182415.000,A,3748.8368,N,12217.6133,W,2.65,107.20,220612,,,D*7F
$GPRMC,182416.000,A,3748.8361,N,12217.6125,W,2.73,112.26,220612,,,D*77
$GPRMC,182417.000,A,3748.8350,N,12217.6118,W,2.68,119.96,220612,,,D*70
$GPRMC,182418.000,A,3748.8343,N,12217.6109,W,2.76,125.12,220612,,,D*71
$GPRMC,182419.000,A,3748.8336,N,12217.6097,W,2.81,111.67,220612,,,D*79
$GPRMC,182420.000,A,3748.8329,N,12217.6089,W,2.80,112.76,220612,,,D*70
$GPRMC,182421.000,A,3748.8323,N,12217.6080,W,2.70,115.21,220612,,,A*7D
$GPRMC,182422.000,A,3748.8323,N,12217.6074,W,2.35,125.38,220612,,,A*7F
$GPRMC,182423.000,A,3748.8318,N,12217.6068,W,3.18,126.48,220612,,,A*71
$GPRMC,182424.000,A,3748.8315,N,12217.6057,W,3.05,132.53,220612,,,A*74
$GPRMC,182425.000,A,3748.8311,N,12217.6049,W,3.03,129.65,220612,,,A*77
$GPRMC,182426.000,A,3748.8306,N,12217.6039,W,2.90,125.65,220612,,,A*72
$GPRMC,182427.000,A,3748.8300,N,12217.6030,W,2.94,119.63,220612,,,A*71
$GPRMC,182428.000,A,3748.8298,N,12217.6021,W,2.63,119.89,220612,,,A*72
$GPRMC,182429.000,A,3748.8294,N,12217.6012,W,2.79,116.68,220612,,,A*74
$GPRMC,182430.000,A,3748.8291,N,12217.6004,W,2.68,117.63,220612,,,A*74
$GPRMC,182431.000,A,3748.8288,N,12217.5994,W,2.87,113.77,220612,,,A*7E
$GPRMC,182432.000,A,3748.8285,N,12217.5987,W,2.43,120.27,220612,,,A*7F
$GPRMC,182433.000,A,3748.8284,N,12217.5983,W,2.76,119.22,220612,,,A*72
$GPRMC,182434.000,A,3748.8284,N,12217.5978,W,2.40,102.36,220612,,,A*7B
$GPRMC,182435.000,A,3748.8279,N,12217.5968,W,2.06,110.62,220612,,,A*79
$GPRMC,182436.000,A,3748.8272,N,12217.5953,W,2.98,79.65,220612,,,A*47
$GPRMC,182437.000,A,3748.8264,N,12217.5947,W,2.90,114.98,220612,,,A*74
$GPRMC,182438.000,A,3748.8258,N,12217.5940,W,2.38,134.94,220612,,,A*7F
$GPRMC,182439.000,A,3748.8253,N,12217.5931,W,2.49,129.18,220612,,,A*7D
$GPRMC,182440.000,A,3748.8250,N,12217.5924,W,2.67,125.50,220612,,,A*78
$GPRMC,182441.000,A,3748.8242,N,12217.5917,W,2.97,124.52,220612,,,A*76
$GPRMC,182442.000,A,3748.8238,N,12217.5909,W,2.68,121.26,220612,,,A*71
$GPRMC,182443.000,A,3748.8235,N,12217.5902,W,2.46,117.42,220612,,,A*7D
$GPRMC,182444.000,A,3748.8230,N,12217.5897,W,2.39,119.61,220612,,,A*75
$GPRMC,182445.000,A,3748.8223,N,12217.5893,W,1.77,126.02,220612,,,A*72
$GPRMC,182446.000,A,3748.8215,N,12217.5887,W,1.72,132.39,220612,,,A*79
$GPRMC,182447.000,A,3748.8212,N,12217.5878,W,2.85,127.89,220612,,,A*7B
$GPRMC,182448.000,A,3748.8206,N,12217.5864,W,2.88,127.24,220612,,,A*76
$GPRMC,182449.000,A,3748.8200,N,12217.5854,W,2.47,120.72,220612,,,A*75
$GPRMC,182450.000,A,3748.8197,N,12217.5848,W,2.46,127.40,220612,,,A*7A
$GPRMC,182451.000,A,3748.8193,N,12217.5838,W,2.47,115.48,220612,,,A*70
$GPRMC,182452.000,A,3748.8190,N,12217.5828,W,2.39,114.91,220612,,,A*7D
$GPRMC,182453.000,A,3748.8189,N,12217.5819,W,2.61,115.84,220612,,,A*7E
$GPRMC,182454.000,A,3748.8186,N,12217.5811,W,1.95,121.29,220612,,,A*76
$GPRMC,182455.000,A,3748.8184,N,12217.5802,W,2.54,117.00,220612,,,A*77
$GPRMC,182456.000,A,3748.8178,N,12217.5793,W,2.63,117.34,220612,,,A*73
$GPRMC,182457.000,A,3748.8175,N,12217.5787,W,2.37,118.61,220612,,,A*74
$GPRMC,182458.000,A,3748.8170,N,12217.5776,W,2.22,113.72,220612,,,A*7D
$GPRMC,182459.000,A,3748.8166,N,12217.5765,W,2.53,114.50,220612,,,A*78
$GPRMC,182500.000,A,3748.8164,N,12217.5756,W,2.34,126.17,220612,,,A*74
$GPRMC,182501.000,A,3748.8158,N,12217.5743,W,1.93,129.24,220612,,,A*7F
$GPRMC,182502.000,A,3748.8155,N,12217.5732,W,1.90,117.29,220612,,,A*74
$GPRMC,182503.000,A,3748.8153,N,12217.5722,W,1.67,123.59,220612,,,A*7A
$GPRMC,182504.000,A,3748.8153,N,12217.5709,W,1.87,108.86,220612,,,A*71
$GPRMC,182505.000,A,3748.8152,N,12217.5698,W,1.80,109.14,220612,,,A*75
$GPRMC,182506.000,A,3748.8151,N,12217.5692,W,2.68,110.37,220612,,,A*73
$GPRMC,182507.000,A,3748.8148,N,12217.5686,W,2.22,132.02,220612,,,A*77
$GPRMC,182508.000,A,3748.8139,N,12217.5683,W,2.64,134.38,220612,,,A*76
$GPRMC,182509.000,A,3748.8131,N,12217.5676,W,2.24,132.41,220612,,,A*79
$GPRMC,182510.000,A,3748.8126,N,12217.5669,W,2.19,133.38,220612,,,A*78
$GPRMC,182511.000,A,3748.8118,N,12217.5664,W,2.18,116.54,220612,,,A*75
$GPRMC,182512.000,A,3748.8115,N,12217.5654,W,2.24,108.02,220612,,,A*7B
$GPRMC,182513.000,A,3748.8113,N,12217.5648,W,2.14,124.30,220612,,,A*7D
$GPRMC,182514.000,A,3748.8111,N,12217.5642,W,2.63,121.49,220612,,,A*79
$GPRMC,182515.000,A,3748.8108,N,12217.5634,W,2.34,116.86,220612,,,A*74
$GPRMC,182516.000,A,3748.8109,N,12217.5623,W,2.43,112.87,220612,,,A*75
$GPRMC,182517.000,A,3748.8109,N,12217.5612,W,2.33,107.02,220612,,,A*78
$GPRMC,182518.000,A,3748.8106,N,12217.5604,W,2.43,100.90,220612,,,A*74
$GPRMC,182519.000,A,3748.8101,N,12217.5596,W,2.37,113.74,220612,,,A*71
$GPRMC,182520.000,A,3748.8095,N,12217.5588,W,2.14,123.26,220612,,,A*7D
$GPRMC,182521.000,A,3748.8084,N,12217.5581,W,2.62,147.36,220612,,,A*77
$GPRMC,182522.000,A,3748.8071,N,12217.5572,W,2.57,151.75,220612,,,A*74
$GPRMC,182523.000,A,3748.8063,N,12217.5563,W,2.38,145.75,220612,,,A*7A
$GPRMC,182524.000,A,3748.8060,N,12217.5555,W,2.02,126.17,220612,,,A*73
$GPRMC,182525.000,A,3748.8059,N,12217.5548,W,1.64,113.73,220612,,,A*73
$GPRMC,182526.000,A,3748.8053,N,12217.5544,W,1.72,125.01,220612,,,A*71
$GPRMC,182527.000,A,3748.8049,N,12217.5536,W,1.94,125.07,220612,,,A*70
$GPRMC,182528.000,A,3748.8047,N,12217.5531,W,1.62,134.63,220612,,,A*7D
$GPRMC,182529.000,A,3748.8041,N,12217.5523,W,1.58,138.27,220612,,,A*7C
$GPRMC,182530.000,A,3748.8036,N,12217.5523,W,1.22,169.45,220612,,,A*79
$GPRMC,182531.000,A,3748.8027,N,12217.5519,W,2.02,208.82,220612,,,A*7F
$GPRMC,182532.000,A,3748.8024,N,12217.5518,W,2.16,204.98,220612,,,A*7C
$GPRMC,182533.000,A,3748.8019,N,12217.5520,W,2.04,204.09,220612,,,A*73
$GPRMC,182534.000,A,3748.8010,N,12217.5530,W,2.09,205.22,220612,,,A*79
$GPRMC,182535.000,A,3748.8008,N,12217.5537,W,1.46,203.35,220612,,,A*7E
$GPRMC,182536.000,A,3748.8008,N,12217.5540,W,0.95,231.04,220612,,,A*71
$GPRMC,182537.000,A,3748.8004,N,12217.5546,W,2.08,225.48,220612,,,A*71
$GPRMC,182538.000,A,3748.8000,N,12217.5549,W,2.50,215.03,220612,,,A*74
$GPRMC,182539.000,A,3748.7995,N,12217.5555,W,2.13,203.69,220612,,,A*7E
$GPRMC,182540.000,A,3748.7991,N,12217.5559,W,1.42,185.92,220612,,,A*76
$GPRMC,182541.000,A,3748.7986,N,12217.5563,W,1.38,203.83,220612,,,A*78
$GPRMC,182542.000,A,3748.7979,N,12217.5565,W,1.81,214.11,220612,,,A*72
$GPRMC,182543.000,A,3748.7966,N,12217.5569,W,2.43,200.67,220612,,,A*78
$GPRMC,182544.000,A,3748.7952,N,12217.5572,W,2.62,204.21,220612,,,A*77
$GPRMC,182545.000,A,3748.7943,N,12217.5572,W,2.30,197.77,220612,,,A*7B
$GPRMC,182546.000,A,3748.7936,N,12217.5572,W,1.88,185.93,220612,,,A*73
$GPRMC,182547.000,A,3748.7931,N,12217.5574,W,1.58,196.17,220612,,,A*70
$GPRMC,182548.000,A,3748.7925,N,12217.5584,W,2.31,216.57,220612,,,A*76
$GPRMC,182549.000,A,3748.7917,N,12217.5596,W,2.65,213.81,220612,,,A*7A
$GPRMC,182550.000,A,3748.7911,N,12217.5610,W,2.31,212.94,220612,,,A*7D
$GPRMC,182551.000,A,3748.7907,N,12217.5611,W,1.76,218.70,220612,,,A*7A
$GPRMC,182552.000,A,3748.7899,N,12217.5606,W,1.88,207.25,220612,,,A*76
$GPRMC,182553.000,A,3748.7894,N,12217.5607,W,1.88,199.59,220612,,,A*74
$GPRMC,182554.000,A,3748.7889,N,12217.5610,W,2.05,213.53,220612,,,A*74
$GPRMC,182555.000,A,3748.7883,N,12217.5617,W,2.34,211.06,220612,,,A*78
$GPRMC,182556.000,A,3748.7875,N,12217.5618,W,2.51,198.66,220612,,,A*7A
$GPRMC,182557.000,A,3748.7867,N,12217.5621,W,2.47,198.91,220612,,,A*7D
$GPRMC,182558.000,A,3748.7860,N,12217.5625,W,2.63,201.56,220612,,,A*7F
$GPRMC,182559.000,A,3748.7853,N,12217.5635,W,2.43,212.13,220612,,,A*7E
$GPRMC,182600.000,A,3748.7845,N,12217.5643,W,2.82,212.48,220612,,,A*74
$GPRMC,182601.000,A,3748.7838,N,12217.5650,W,2.76,209.05,220612,,,A*75
$GPRMC,182602.000,A,3748.7826,N,12217.5650,W,2.36,204.21,220612,,,A*76
$GPRMC,182603.000,A,3748.7818,N,12217.5646,W,2.35,192.06,220612,,,A*77
$GPRMC,182604.000,A,3748.7810,N,12217.5649,W,2.34,212.16,220612,,,A*7C
$GPRMC,182605.000,A,3748.7804,N,12217.5655,W,2.05,201.62,220612,,,A*76
$GPRMC,182606.000,A,3748.7801,N,12217.5657,W,2.14,198.47,220612,,,A*76
$GPRMC,182607.000,A,3748.7793,N,12217.5660,W,2.54,203.31,220612,,,A*73
$GPRMC,182608.000,A,3748.7782,N,12217.5665,W,2.23,206.71,220612,,,A*78
$GPRMC,182609.000,A,3748.7773,N,12217.5672,W,2.37,203.60,220612,,,A*71
$GPRMC,182610.000,A,3748.7764,N,12217.5678,W,1.93,219.76,220612,,,A*74
$GPRMC,182611.000,A,3748.7758,N,12217.5682,W,1.33,204.00,220612,,,A*78
$GPRMC,182612.000,A,3748.7751,N,12217.5683,W,1.34,159.93,220612,,,A*75
$GPRMC,182613.000,A,3748.7749,N,12217.5689,W,0.40,218.48,220612,,,A*75
$GPRMC,182614.000,A,3748.7750,N,12217.5698,W,0.78,293.09,220612,,,A*77
$GPRMC,182615.000,A,3748.7748,N,12217.5704,W,0.23,224.52,220612,,,A*77
$GPRMC,182616.000,A,3748.7747,N,12217.5708,W,0.35,181.75,220612,,,A*79
$GPRMC,182617.000,A,3748.7753,N,12217.5713,W,0.45,282.82,220612,,,A*78
$GPRMC,182618.000,A,3748.7757,N,12217.5720,W,1.11,286.35,220612,,,A*7B
$GPRMC,182619.000,A,3748.7759,N,12217.5726,W,1.19,233.62,220612,,,A*76
$GPRMC,182620.000,A,3748.7754,N,12217.5722,W,1.34,209.77,220612,,,A*77
$GPRMC,182621.000,A,3748.7753,N,12217.5725,W,1.73,206.06,220612,,,A*7C
$GPRMC,182622.000,A,3748.7747,N,12217.5729,W,2.23,210.38,220612,,,A*7A
$GPRMC,182623.000,A,3748.7741,N,12217.5736,W,2.20,224.39,220612,,,A*76
$GPRMC,182624.000,A,3748.7738,N,12217.5741,W,2.06,218.55,220612,,,A*7E
$GPRMC,182625.000,A,3748.7730,N,12217.5746,W,1.79,215.97,220612,,,A*78
$GPRMC,182626.000,A,3748.7729,N,12217.5751,W,1.46,228.42,220612,,,A*7F
$GPRMC,182627.000,A,3748.7730,N,12217.5750,W,1.32,231.61,220612,,,A*7D
$GPRMC,182628.000,A,3748.7728,N,12217.5755,W,1.84,214.70,220612,,,A*74
$GPRMC,182629.000,A,3748.7720,N,12217.5765,W,2.32,211.77,220612,,,A*72
$GPRMC,182630.000,A,3748.7708,N,12217.5774,W,2.77,218.47,220612,,,A*7B
$GPRMC,182631.000,A,3748.7699,N,12217.5782,W,2.12,226.37,220612,,,A*73
$GPRMC,182632.000,A,3748.7692,N,12217.5785,W,2.34,210.63,220612,,,A*7C
$GPRMC,182633.000,A,3748.7683,N,12217.5791,W,2.24,199.12,220612,,,A*7D
$GPRMC,182634.000,A,3748.7680,N,12217.5798,W,1.62,196.36,220612,,,A*78
$GPRMC,182635.000,A,3748.7678,N,12217.5808,W,1.18,214.68,220612,,,A*77
$GPRMC,182636.000,A,3748.7676,N,12217.5813,W,1.13,219.59,220612,,,A*74
$GPRMC,182637.000,A,3748.7670,N,12217.5818,W,1.35,219.54,220612,,,A*71
$GPRMC,182638.000,A,3748.7666,N,12217.5821,W,1.74,202.51,220612,,,A*79
$GPRMC,182639.000,A,3748.7662,N,12217.5825,W,2.15,206.02,220612,,,A*7E
$GPRMC,182640.000,A,3748.7656,N,12217.5831,W,2.01,211.39,220612,,,A*79
$GPRMC,182641.000,A,3748.7647,N,12217.5839,W,1.63,213.64,220612,,,A*7D
$GPRMC,182642.000,A,3748.7640,N,12217.5842,W,1.70,200.07,220612,,,A*70
$GPRMC,182643.000,A,3748.7636,N,12217.5846,W,1.86,206.41,220612,,,A*79
$GPRMC,182644.000,A,3748.7625,N,12217.5847,W,1.57,206.69,220612,,,A*7B
$GPRMC,182645.000,A,3748.7622,N,12217.5850,W,1.79,218.04,220612,,,A*73
$GPRMC,182646.000,A,3748.7621,N,12217.5853,W,1.73,204.74,220612,,,A*70
$GPRMC,182647.000,A,3748.7610,N,12217.5860,W,2.55,210.27,220612,,,A*77
$GPRMC,182648.000,A,3748.7603,N,12217.5866,W,2.35,216.27,220612,,,A*7C
$GPRMC,182649.000,A,3748.7591,N,12217.5869,W,2.57,197.07,220612,,,A*76
$GPRMC,182650.000,A,3748.7578,N,12217.5873,W,2.77,198.92,220612,,,A*73
$GPRMC,182651.000,A,3748.7572,N,12217.5877,W,1.64,197.18,220612,,,A*70
$GPRMC,182652.000,A,3748.7565,N,12217.5879,W,1.53,206.92,220612,,,A*76
$GPRMC,182653.000,A,3748.7561,N,12217.5884,W,2.05,224.20,220612,,,A*78
$GPRMC,182654.000,A,3748.7560,N,12217.5889,W,2.14,232.64,220612,,,A*74
$GPRMC,182655.000,A,3748.7559,N,12217.5896,W,2.02,226.50,220612,,,A*74
$GPRMC,182656.000,A,3748.7554,N,12217.5899,W,1.92,220.41,220612,,,A*79
$GPRMC,182657.000,A,3748.7546,N,12217.5895,W,2.21,204.48,220612,,,A*73
$GPRMC,182658.000,A,3748.7535,N,12217.5895,W,2.43,194.59,220612,,,A*76
$GPRMC,182659.000,A,3748.7527,N,12217.5889,W,2.06,194.66,220612,,,A*74
$GPRMC,182700.000,A,3748.7522,N,12217.5891,W,1.61,189.03,220612,,,A*78
$GPRMC,182701.000,A,3748.7512,N,12217.5892,W,1.85,163.00,220612,,,A*74
$GPRMC,182702.000,A,3748.7503,N,12217.5895,W,1.79,184.77,220612,,,A*7A
$GPRMC,182703.000,A,3748.7498,N,12217.5903,W,0.97,225.90,220612,,,A*76
$GPRMC,182704.000,A,3748.7498,N,12217.5913,W,0.72,239.22,220612,,,A*7F
$GPRMC,182705.000,A,3748.7501,N,12217.5925,W,0.68,243.73,220612,,,A*78
$GPRMC,182706.000,A,3748.7498,N,12217.5930,W,1.20,216.79,220612,,,A*79
$GPRMC,182707.000,A,3748.7496,N,12217.5941,W,1.41,219.25,220612,,,A*71
$GPRMC,182708.000,A,3748.7491,N,12217.5946,W,1.52,195.46,220612,,,A*7E
$GPRMC,182709.000,A,3748.7480,N,12217.5952,W,2.45,183.99,220612,,,A*7A
$GPRMC,182710.000,A,3748.7471,N,12217.5953,W,1.79,195.58,220612,,,A*7B
$GPRMC,182711.000,A,3748.7461,N,12217.5954,W,1.78,204.19,220612,,,A*73
$GPRMC,182712.000,A,3748.7452,N,12217.5958,W,2.58,222.76,220612,,,A*70
$GPRMC,182713.000,A,3748.7440,N,12217.5967,W,3.20,216.27,220612,,,A*73
$GPRMC,182714.000,A,3748.7435,N,12217.5981,W,2.57,206.81,220612,,,A*72
$GPRMC,182715.000,A,3748.7431,N,12217.5994,W,2.66,212.14,220612,,,A*78
$GPRMC,182716.000,A,3748.7422,N,12217.6003,W,2.05,215.30,220612,,,A*79
$GPRMC,182717.000,A,3748.7417,N,12217.6010,W,1.77,204.38,220612,,,A*72
$GPRMC,182718.000,A,3748.7402,N,12217.6018,W,2.05,198.85,220612,,,A*77
$GPRMC,182719.000,A,3748.7395,N,12217.6023,W,2.01,198.90,220612,,,A*77
$GPRMC,182720.000,A,3748.7383,N,12217.6027,W,2.20,195.90,220612,,,A*70
$GPRMC,182721.000,A,3748.7375,N,12217.6030,W,2.12,194.86,220612,,,A*79
$GPRMC,182722.000,A,3748.7369,N,12217.6031,W,1.98,188.79,220612,,,A*7A
$GPRMC,182723.000,A,3748.7360,N,12217.6039,W,2.06,206.34,220612,,,A*72
$GPRMC,182724.000,A,3748.7352,N,12217.6046,W,2.64,204.16,220612,,,A*7A
$GPRMC,182725.000,A,3748.7343,N,12217.6055,W,2.96,205.31,220612,,,A*70
$GPRMC,182726.000,A,3748.7338,N,12217.6062,W,2.15,205.66,220612,,,A*72
$GPRMC,182727.000,A,3748.7331,N,12217.6071,W,2.17,210.15,220612,,,A*7A
$GPRMC,182728.000,A,3748.7326,N,12217.6077,W,1.57,204.23,220612,,,A*72
$GPRMC,182729.000,A,3748.7322,N,12217.6084,W,1.42,194.39,220612,,,A*7E
$GPRMC,182730.000,A,3748.7318,N,12217.6088,W,1.68,208.37,220612,,,A*73
$GPRMC,182731.000,A,3748.7309,N,12217.6096,W,2.04,211.61,220612,,,A*7F
$GPRMC,182732.000,A,3748.7302,N,12217.6101,W,1.71,205.56,220612,,,A*78
$GPRMC,182733.000,A,3748.7296,N,12217.6104,W,2.41,203.28,220612,,,A*7F
$GPRMC,182734.000,A,3748.7290,N,12217.6106,W,2.88,184.20,220612,,,A*7D
$GPRMC,182735.000,A,3748.7280,N,12217.6114,W,2.36,193.54,220612,,,A*7E
$GPRMC,182736.000,A,3748.7275,N,12217.6120,W,1.56,197.13,220612,,,A*72
$GPRMC,182737.000,A,3748.7273,N,12217.6130,W,1.76,212.29,220612,,,A*71
$GPRMC,182738.000,A,3748.7269,N,12217.6135,W,1.82,216.39,220612,,,A*7E
$GPRMC,182739.000,A,3748.7260,N,12217.6142,W,2.14,202.04,220612,,,A*71
$GPRMC,182740.000,A,3748.7261,N,12217.6147,W,1.33,199.57,220612,,,A*7A
$GPRMC,182741.000,A,3748.7254,N,12217.6152,W,1.25,192.90,220612,,,A*7E
$GPRMC,182742.000,A,3748.7245,N,12217.6156,W,1.64,187.75,220612,,,A*73
$GPRMC,182743.000,A,3748.7235,N,12217.6160,W,1.49,199.39,220612,,,A*78
$GPRMC,182744.000,A,3748.7229,N,12217.6164,W,1.76,201.59,220612,,,A*7E
$GPRMC,182745.000,A,3748.7225,N,12217.6170,W,1.54,215.53,220612,,,A*79
$GPRMC,182746.000,A,3748.7221,N,12217.6174,W,1.62,207.16,220612,,,A*7D
$GPRMC,182747.000,A,3748.7217,N,12217.6178,W,1.76,207.98,220612,,,A*76
$GPRMC,182748.000,A,3748.7212,N,12217.6183,W,2.26,213.65,220612,,,A*79
$GPRMC,182749.000,A,3748.7206,N,12217.6189,W,2.35,214.78,220612,,,A*7E
$GPRMC,182750.000,A,3748.7202,N,12217.6195,W,1.70,208.30,220612,,,A*7C
$GPRMC,182751.000,A,3748.7197,N,12217.6196,W,1.62,193.18,220612,,,A*79
$GPRMC,182752.000,A,3748.7190,N,12217.6198,W,1.99,191.52,220612,,,A*7B
$GPRMC,182753.000,A,3748.7182,N,12217.6205,W,1.89,200.54,220612,,,A*72
$GPRMC,182754.000,A,3748.7173,N,12217.6208,W,1.68,180.19,220612,,,A*7B
$GPRMC,182755.000,A,3748.7169,N,12217.6210,W,0.89,208.64,220612,,,A*7F
$GPRMC,182756.000,A,3748.7168,N,12217.6214,W,1.36,195.24,220612,,,A*7F
$GPRMC,182757.000,A,3748.7164,N,12217.6219,W,1.07,188.20,220612,,,A*75
$GPRMC,182758.000,A,3748.7160,N,12217.6222,W,1.38,200.77,220612,,,A*7B
$GPRMC,182759.000,A,3748.7148,N,12217.6229,W,2.36,210.22,220612,,,A*77
$GPRMC,182800.000,A,3748.7144,N,12217.6234,W,1.35,211.00,220612,,,A*75
$GPRMC,182801.000,A,3748.7144,N,12217.6241,W,1.17,228.16,220612,,,A*7B
$GPRMC,182802.000,A,3748.7146,N,12217.6245,W,1.66,214.33,220612,,,A*70
$GPRMC,182803.000,A,3748.7139,N,12217.6249,W,1.88,216.52,220612,,,A*70
$GPRMC,182804.000,A,3748.7136,N,12217.6253,W,1.89,215.50,220612,,,A*73
$GPRMC,182805.000,A,3748.7127,N,12217.6258,W,1.67,207.31,220612,,,A*7D
$GPRMC,182806.000,A,3748.7120,N,12217.6261,W,1.35,201.08,220612,,,A*78
$GPRMC,182807.000,A,3748.7100,N,12217.6269,W,2.05,201.87,220612,,,A*74
$GPRMC,182808.000,A,3748.7080,N,12217.6275,W,2.53,199.55,220612,,,A*71
$GPRMC,182809.000,A,3748.7067,N,12217.6280,W,2.19,195.19,220612,,,A*79
$GPRMC,182810.000,A,3748.7054,N,12217.6287,W,1.74,197.13,220612,,,A*76
$GPRMC,182811.000,A,3748.7043,N,12217.6295,W,1.95,197.91,220612,,,A*77
$GPRMC,182812.000,A,3748.7030,N,12217.6305,W,3.21,213.20,220612,,,A*70
$GPRMC,182813.000,A,3748.7018,N,12217.6311,W,2.55,210.07,220612,,,A*7A
$GPRMC,182814.000,A,3748.7010,N,12217.6316,W,2.19,213.51,220612,,,A*7A
$GPRMC,182815.000,A,3748.7007,N,12217.6319,W,1.31,207.66,220612,,,A*7A
$GPRMC,182816.000,A,3748.7002,N,12217.6323,W,1.87,204.86,220612,,,A*75
$GPRMC,182817.000,A,3748.6999,N,12217.6330,W,1.98,207.80,220612,,,A*77
$GPRMC,182818.000,A,3748.6993,N,12217.6338,W,2.08,209.18,220612,,,A*7F
$GPRMC,182819.000,A,3748.6992,N,12217.6345,W,1.47,204.94,220612,,,A*74
$GPRMC,182820.000,A,3748.6983,N,12217.6351,W,1.69,210.22,220612,,,A*7F
$GPRMC,182821.000,A,3748.6976,N,12217.6357,W,1.77,217.53,220612,,,A*7C
$GPRMC,182822.000,A,3748.6973,N,12217.6361,W,2.27,209.33,220612,,,A*70
$GPRMC,182823.000,A,3748.6966,N,12217.6366,W,2.22,203.61,220612,,,A*7A
$GPRMC,182824.000,A,3748.6962,N,12217.6369,W,2.08,202.55,220612,,,A*78
$GPRMC,182825.000,A,3748.6958,N,12217.6373,W,2.11,209.43,220612,,,A*7F
$GPRMC,182826.000,A,3748.6953,N,12217.6381,W,2.30,214.74,220612,,,A*71
$GPRMC,182827.000,A,3748.6946,N,12217.6388,W,2.41,221.82,220612,,,A*74
$GPRMC,182828.000,A,3748.6943,N,12217.6395,W,3.02,214.50,220612,,,A*7D
$GPRMC,182829.000,A,3748.6937,N,12217.6407,W,2.59,215.07,220612,,,A*7F
$GPRMC,182830.000,A,3748.6926,N,12217.6413,W,2.32,204.89,220612,,,A*79
$GPRMC,182831.000,A,3748.6916,N,12217.6417,W,2.53,208.70,220612,,,A*72
$GPRMC,182832.000,A,3748.6909,N,12217.6427,W,2.92,217.69,220612,,,A*77
$GPRMC,182833.000,A,3748.6899,N,12217.6436,W,2.55,221.72,220612,,,A*7A
$GPRMC,182834.000,A,3748.6895,N,12217.6444,W,2.05,224.53,220612,,,A*77
$GPRMC,182835.000,A,3748.6889,N,12217.6451,W,1.81,212.29,220612,,,A*78
$GPRMC,182836.000,A,3748.6886,N,12217.6459,W,1.26,210.71,220612,,,A*7E
$GPRMC,182837.000,A,3748.6878,N,12217.6467,W,2.25,214.93,220612,,,A*7B
$GPRMC,182838.000,A,3748.6868,N,12217.6475,W,2.16,207.93,220612,,,A*74
$GPRMC,182839.000,A,3748.6866,N,12217.6478,W,1.49,197.50,220612,,,A*7A
$GPRMC,182839.000,A,3748.6864,N,12217.6483,W,1.46,193.68,220612,,,A*7C
$GPRMC,182840.000,A,3748.6859,N,12217.6485,W,1.54,202.70,220612,,,A*7B
$GPRMC,182841.000,A,3748.6852,N,12217.6492,W,1.66,204.59,220612,,,A*7B
$GPRMC,182842.000,A,3748.6845,N,12217.6497,W,1.39,190.00,220612,,,A*73
$GPRMC,182843.000,A,3748.6839,N,12217.6498,W,1.14,158.17,220612,,,A*7B
$GPRMC,182844.000,A,3748.6825,N,12217.6499,W,1.63,195.82,220612,,,A*7D
$GPRMC,182845.000,A,3748.6814,N,12217.6501,W,2.01,191.39,220612,,,A*7D
$GPRMC,182846.000,A,3748.6810,N,12217.6504,W,1.58,190.85,220612,,,A*76
$GPRMC,182847.000,A,3748.6803,N,12217.6507,W,1.97,202.19,220612,,,A*78
$GPRMC,182848.000,A,3748.6795,N,12217.6514,W,2.04,214.58,220612,,,A*7E
$GPRMC,182849.000,A,3748.6781,N,12217.6521,W,1.80,212.61,220612,,,A*7F
$GPRMC,182850.000,A,3748.6770,N,12217.6531,W,1.93,205.09,220612,,,A*72
$GPRMC,182851.000,A,3748.6764,N,12217.6535,W,1.82,194.17,220612,,,A*76
$GPRMC,182852.000,A,3748.6759,N,12217.6538,W,1.38,193.26,220612,,,A*72
$GPRMC,182853.000,A,3748.6749,N,12217.6534,W,1.74,190.88,220612,,,A*71
$GPRMC,182854.000,A,3748.6740,N,12217.6532,W,2.20,197.70,220612,,,A*7B
$GPRMC,182855.000,A,3748.6733,N,12217.6535,W,2.33,196.40,220612,,,A*79
$GPRMC,182856.000,A,3748.6723,N,12217.6538,W,2.34,184.26,220612,,,A*72
$GPRMC,182857.000,A,3748.6717,N,12217.6543,W,2.06,192.74,220612,,,A*79
$GPRMC,182858.000,A,3748.6707,N,12217.6547,W,1.93,200.24,220612,,,A*71
$GPRMC,182859.000,A,3748.6704,N,12217.6552,W,2.16,211.95,220612,,,A*73
$GPRMC,182900.000,A,3748.6694,N,12217.6557,W,2.70,216.47,220612,,,A*7B
$GPRMC,182901.000,A,3748.6687,N,12217.6564,W,2.55,206.70,220612,,,A*7A
$GPRMC,182902.000,A,3748.6679,N,12217.6568,W,2.05,208.06,220612,,,A*7E
$GPRMC,182903.000,A,3748.6676,N,12217.6580,W,2.41,199.53,220612,,,A*7D
$GPRMC,182904.000,A,3748.6675,N,12217.6591,W,2.02,218.10,220612,,,A*73
$GPRMC,182905.000,A,3748.6674,N,12217.6602,W,2.07,224.69,220612,,,A*7E
$GPRMC,182906.000,A,3748.6668,N,12217.6610,W,2.20,213.11,220612,,,A*7D
$GPRMC,182907.000,A,3748.6663,N,12217.6615,W,1.96,218.26,220612,,,A*73
$GPRMC,182908.000,A,3748.6660,N,12217.6622,W,1.82,202.18,220612,,,A*78
$GPRMC,182909.000,A,3748.6656,N,12217.6630,W,1.65,208.54,220612,,,A*74
$GPRMC,182910.000,A,3748.6650,N,12217.6637,W,1.89,214.96,220612,,,A*7C
$GPRMC,182911.000,A,3748.6646,N,12217.6647,W,1.85,215.33,220612,,,A*7F
$GPRMC,182912.000,A,3748.6629,N,12217.6656,W,2.33,202.95,220612,,,A*71
$GPRMC,182913.000,A,3748.6618,N,12217.6662,W,1.26,209.15,220612,,,A*71
$GPRMC,182914.000,A,3748.6610,N,12217.6667,W,1.48,215.23,220612,,,A*7B
$GPRMC,182915.000,A,3748.6605,N,12217.6672,W,2.04,209.53,220612,,,A*7B
$GPRMC,182916.000,A,3748.6596,N,12217.6675,W,1.82,197.46,220612,,,A*7B
$GPRMC,182917.000,A,3748.6592,N,12217.6678,W,1.94,199.96,220612,,,A*77
$GPRMC,182918.000,A,3748.6584,N,12217.6682,W,1.96,206.61,220612,,,A*75
$GPRMC,182919.000,A,3748.6576,N,12217.6686,W,2.28,199.89,220612,,,A*78
$GPRMC,182920.000,A,3748.6570,N,12217.6692,W,2.50,200.32,220612,,,A*7D
$GPRMC,182921.000,A,3748.6562,N,12217.6697,W,2.22,197.97,220612,,,A*7D
$GPRMC,182922.000,A,3748.6559,N,12217.6702,W,1.80,204.04,220612,,,A*73
$GPRMC,182923.000,A,3748.6555,N,12217.6706,W,2.07,210.26,220612,,,A*73
$GPRMC,182924.000,A,3748.6551,N,12217.6713,W,2.45,216.18,220612,,,A*79
$GPRMC,182925.000,A,3748.6548,N,12217.6722,W,2.07,217.78,220612,,,A*73
$GPRMC,182926.000,A,3748.6537,N,12217.6732,W,2.34,210.55,220612,,,A*71
$GPRMC,182927.000,A,3748.6534,N,12217.6742,W,2.03,203.57,220612,,,A*70
$GPRMC,182928.000,A,3748.6529,N,12217.6747,W,1.54,193.69,220612,,,A*70
$GPRMC,182929.000,A,3748.6519,N,12217.6757,W,1.87,202.19,220612,,,A*71
$GPRMC,182930.000,A,3748.6513,N,12217.6764,W,1.98,219.27,220612,,,A*7A
$GPRMC,182931.000,A,3748.6505,N,12217.6769,W,1.90,212.95,220612,,,A*7B
$GPRMC,182932.000,A,3748.6495,N,12217.6771,W,2.07,205.36,220612,,,A*7B
$GPRMC,182933.000,A,3748.6488,N,12217.6774,W,2.00,188.05,220612,,,A*72
$GPRMC,182934.000,A,3748.6482,N,12217.6773,W,1.53,173.04,220612,,,A*78
$GPRMC,182935.000,A,3748.6476,N,12217.6772,W,1.03,159.56,220612,,,A*79
$GPRMC,182936.000,A,3748.6470,N,12217.6771,W,1.42,169.98,220612,,,A*7B
$GPRMC,182937.000,A,3748.6456,N,12217.6775,W,1.88,176.03,220612,,,A*70
$GPRMC,182938.000,A,3748.6441,N,12217.6780,W,2.01,200.30,220612,,,A*73
$GPRMC,182939.000,A,3748.6428,N,12217.6784,W,1.78,203.30,220612,,,A*77
$GPRMC,182940.000,A,3748.6415,N,12217.6786,W,1.88,200.19,220612,,,A*72
$GPRMC,182941.000,A,3748.6405,N,12217.6790,W,1.83,201.19,220612,,,A*7F
$GPRMC,182942.000,A,3748.6395,N,12217.6794,W,1.93,204.91,220612,,,A*72
$GPRMC,182943.000,A,3748.6389,N,12217.6798,W,2.28,211.08,220612,,,A*75
$GPRMC,182944.000,A,3748.6381,N,12217.6804,W,2.88,213.48,220612,,,A*7C
$GPRMC,182945.000,A,3748.6372,N,12217.6806,W,2.38,198.68,220612,,,A*7A
$GPRMC,182946.000,A,3748.6366,N,12217.6808,W,2.08,203.63,220612,,,A*7B
$GPRMC,182947.000,A,3748.6364,N,12217.6816,W,2.59,217.76,220612,,,A*72
$GPRMC,182948.000,A,3748.6356,N,12217.6824,W,2.28,210.02,220612,,,A*7F
$GPRMC,182949.000,A,3748.6354,N,12217.6830,W,1.18,217.69,220612,,,A*73
$GPRMC,182950.000,A,3748.6353,N,12217.6836,W,1.20,220.05,220612,,,A*7F
$GPRMC,182951.000,A,3748.6349,N,12217.6845,W,2.21,213.28,220612,,,A*7C
$GPRMC,182952.000,A,3748.6346,N,12217.6856,W,2.23,217.03,220612,,,A*7D
$GPRMC,182953.000,A,3748.6343,N,12217.6864,W,1.52,202.79,220612,,,A*74
$GPRMC,182954.000,A,3748.6339,N,12217.6870,W,1.07,195.53,220612,,,A*7E
$GPRMC,182955.000,A,3748.6337,N,12217.6875,W,0.79,229.15,220612,,,A*7A
$GPRMC,182956.000,A,3748.6334,N,12217.6881,W,1.08,219.46,220612,,,A*73
$GPRMC,182957.000,A,3748.6330,N,12217.6887,W,1.25,216.24,220612,,,A*74
$GPRMC,182958.000,A,3748.6328,N,12217.6892,W,1.20,222.53,220612,,,A*74
$GPRMC,182959.000,A,3748.6325,N,12217.6898,W,1.14,205.33,220612,,,A*76
$GPRMC,183000.000,A,3748.6318,N,12217.6901,W,0.97,188.44,220612,,,A*71
$GPRMC,183001.000,A,3748.6296,N,12217.6905,W,1.91,187.36,220612,,,A*7E
$GPRMC,183002.000,A,3748.6293,N,12217.6909,W,2.28,184.89,220612,,,A*72
$GPRMC,183003.000,A,3748.6289,N,12217.6909,W,2.60,184.29,220612,,,A*7E
$GPRMC,183004.000,A,3748.6277,N,12217.6912,W,3.24,198.49,220612,,,A*78
$GPRMC,183005.000,A,3748.6264,N,12217.6915,W,3.19,193.63,220612,,,A*71
$GPRMC,183006.000,A,3748.6251,N,12217.6922,W,2.58,198.12,220612,,,A*79
$GPRMC,183007.000,A,3748.6244,N,12217.6924,W,1.90,188.77,220612,,,A*7F
$GPRMC,183008.000,A,3748.6239,N,12217.6923,W,1.30,182.81,220612,,,A*74
$GPRMC,183009.000,A,3748.6239,N,12217.6929,W,0.83,197.73,220612,,,A*7F
$GPRMC,183010.000,A,3748.6241,N,12217.6936,W,0.49,222.32,220612,,,A*78
$GPRMC,183011.000,A,3748.6242,N,12217.6943,W,0.92,218.93,220612,,,A*7C
$GPRMC,183012.000,A,3748.6238,N,12217.6948,W,1.38,224.47,220612,,,A*7E
$GPRMC,183013.000,A,3748.6237,N,12217.6955,W,0.86,217.58,220612,,,A*76
$GPRMC,183014.000,A,3748.6235,N,12217.6960,W,1.34,218.21,220612,,,A*7C
$GPRMC,183015.000,A,3748.6230,N,12217.6964,W,1.55,202.32,220612,,,A*72
$GPRMC,183016.000,A,3748.6222,N,12217.6969,W,1.30,222.58,220612,,,A*72
$GPRMC,183017.000,A,3748.6213,N,12217.6974,W,1.64,228.36,220612,,,A*7E
$GPRMC,183018.000,A,3748.6202,N,12217.6979,W,1.87,223.37,220612,,,A*7B
$GPRMC,183019.000,A,3748.6191,N,12217.6985,W,2.37,213.34,220612,,,A*78
$GPRMC,183020.000,A,3748.6179,N,12217.6991,W,2.12,217.78,220612,,,A*7A
$GPRMC,183021.000,A,3748.6172,N,12217.6997,W,2.60,228.46,220612,,,A*72
$GPRMC,183022.000,A,3748.6159,N,12217.7005,W,2.59,205.98,220612,,,A*7D
$GPRMC,183023.000,A,3748.6151,N,12217.7013,W,2.80,203.41,220612,,,A*75
$GPRMC,183024.000,A,3748.6146,N,12217.7022,W,2.63,177.61,220612,,,A*79
$GPRMC,183025.000,A,3748.6138,N,12217.7020,W,2.94,146.45,220612,,,A*7F
$GPRMC,183026.000,A,3748.6131,N,12217.7013,W,3.03,129.74,220612,,,A*71
$GPRMC,183027.000,A,3748.6125,N,12217.7005,W,2.83,114.23,220612,,,A*77
$GPRMC,183028.000,A,3748.6119,N,12217.6997,W,2.72,117.10,220612,,,A*79
$GPRMC,183029.000,A,3748.6112,N,12217.6989,W,2.84,120.15,220612,,,A*74
$GPRMC,183030.000,A,3748.6103,N,12217.6980,W,2.89,114.19,220612,,,A*73
$GPRMC,183031.000,A,3748.6095,N,12217.6974,W,2.87,109.50,220612,,,A*78
$GPRMC,183032.000,A,3748.6086,N,12217.6965,W,3.01,97.83,220612,,,A*4E
$GPRMC,183033.000,A,3748.6082,N,12217.6954,W,2.88,106.43,220612,,,A*7C
$GPRMC,183034.000,A,3748.6079,N,12217.6945,W,2.80,98.59,220612,,,A*4A
$GPRMC,183035.000,A,3748.6075,N,12217.6935,W,2.92,102.47,220612,,,A*7E
$GPRMC,183036.000,A,3748.6072,N,12217.6926,W,2.91,102.80,220612,,,A*70
$GPRMC,183037.000,A,3748.6068,N,12217.6916,W,3.23,95.63,220612,,,A*43
$GPRMC,183038.000,A,3748.6062,N,12217.6907,W,3.05,98.85,220612,,,A*47
$GPRMC,183039.000,A,3748.6058,N,12217.6898,W,2.99,105.87,220612,,,A*7B
$GPRMC,183040.000,A,3748.6053,N,12217.6889,W,2.74,101.53,220612,,,A*70
$GPRMC,183041.000,A,3748.6050,N,12217.6879,W,2.84,98.06,220612,,,A*43
$GPRMC,183042.000,A,3748.6046,N,12217.6871,W,2.81,95.36,220612,,,A*44
$GPRMC,183043.000,A,3748.6043,N,12217.6861,W,2.65,92.91,220612,,,A*41
$GPRMC,183044.000,A,3748.6041,N,12217.6850,W,2.84,107.21,220612,,,A*7F
$GPRMC,183045.000,A,3748.6035,N,12217.6840,W,3.11,105.86,220612,,,A*7E
$GPRMC,183046.000,A,3748.6031,N,12217.6831,W,2.74,100.05,220612,,,A*73
$GPRMC,183047.000,A,3748.6029,N,12217.6820,W,2.69,87.85,220612,,,A*41
$GPRMC,183048.000,A,3748.6024,N,12217.6811,W,2.76,108.35,220612,,,A*72
$GPRMC,183049.000,A,3748.6018,N,12217.6804,W,2.44,120.13,220612,,,A*77
$GPRMC,183050.000,A,3748.6012,N,12217.6797,W,2.51,115.69,220612,,,A*7F
$GPRMC,183051.000,A,3748.6005,N,12217.6788,W,2.67,115.47,220612,,,A*7F
$GPRMC,183052.000,A,3748.6000,N,12217.6779,W,2.85,114.48,220612,,,A*75
$GPRMC,183053.000,A,3748.5994,N,12217.6769,W,2.87,111.21,220612,,,A*7A
$GPRMC,183054.000,A,3748.5993,N,12217.6758,W,2.65,97.22,220612,,,A*48
$GPRMC,183055.000,A,3748.5993,N,12217.6743,W,2.84,96.64,220612,,,A*4F
$GPRMC,183056.000,A,3748.5987,N,12217.6734,W,2.44,105.50,220612,,,A*79
$GPRMC,183057.000,A,3748.5981,N,12217.6726,W,2.65,105.83,220612,,,A*70
$GPRMC,183058.000,A,3748.5977,N,12217.6715,W,2.73,104.84,220612,,,A*77
$GPRMC,183059.000,A,3748.5975,N,12217.6704,W,2.76,104.46,220612,,,A*7F
$GPRMC,183100.000,A,3748.5972,N,12217.6692,W,2.86,101.43,220612,,,A*74
$GPRMC,183101.000,A,3748.5968,N,12217.6683,W,2.89,105.73,220612,,,A*76
$GPRMC,183102.000,A,3748.5968,N,12217.6672,W,2.73,100.29,220612,,,A*74
$GPRMC,183103.000,A,3748.5966,N,12217.6662,W,2.42,106.65,220612,,,A*76
$GPRMC,183104.000,A,3748.5964,N,12217.6652,W,2.43,103.33,220612,,,A*77
$GPRMC,183105.000,A,3748.5964,N,12217.6642,W,2.81,100.08,220612,,,A*72
$GPRMC,183106.000,A,3748.5964,N,12217.6633,W,2.66,95.01,220612,,,A*4A
$GPRMC,183107.000,A,3748.5963,N,12217.6622,W,2.44,93.83,220612,,,A*40
$GPRMC,183108.000,A,3748.5964,N,12217.6615,W,2.13,108.43,220612,,,A*71
$GPRMC,183109.000,A,3748.5964,N,12217.6605,W,2.59,114.26,220612,,,A*71
$GPRMC,183110.000,A,3748.5963,N,12217.6594,W,2.76,101.03,220612,,,A*7B
$GPRMC,183111.000,A,3748.5964,N,12217.6583,W,2.17,103.59,220612,,,A*71
$GPRMC,183112.000,A,3748.5958,N,12217.6575,W,2.24,109.37,220612,,,A*76
$GPRMC,183113.000,A,3748.5949,N,12217.6568,W,1.80,115.89,220612,,,A*7E
$GPRMC,183114.000,A,3748.5942,N,12217.6562,W,1.40,117.19,220612,,,A*7F
$GPRMC,183115.000,A,3748.5937,N,12217.6558,W,1.68,100.20,220612,,,A*73
$GPRMC,183116.000,A,3748.5930,N,12217.6550,W,1.94,97.19,220612,,,A*49
$GPRMC,183117.000,A,3748.5924,N,12217.6542,W,2.69,115.79,220612,,,A*72
$GPRMC,183118.000,A,3748.5920,N,12217.6531,W,2.93,113.50,220612,,,A*75
$GPRMC,183119.000,A,3748.5918,N,12217.6518,W,2.54,100.45,220612,,,A*79
$GPRMC,183120.000,A,3748.5916,N,12217.6506,W,2.56,106.78,220612,,,A*78
$GPRMC,183121.000,A,3748.5912,N,12217.6498,W,2.62,107.62,220612,,,A*76
$GPRMC,183122.000,A,3748.5910,N,12217.6488,W,2.71,97.33,220612,,,A*48
$GPRMC,183123.000,A,3748.5910,N,12217.6478,W,2.42,100.21,220612,,,A*7A
$GPRMC,183124.000,A,3748.5909,N,12217.6468,W,2.57,98.04,220612,,,A*47
$GPRMC,183125.000,A,3748.5907,N,12217.6457,W,2.06,107.79,220612,,,A*7D
$GPRMC,183126.000,A,3748.5901,N,12217.6451,W,2.22,110.95,220612,,,A*7C
$GPRMC,183127.000,A,3748.5902,N,12217.6442,W,2.62,114.54,220612,,,A*71
$GPRMC,183128.000,A,3748.5901,N,12217.6435,W,1.97,109.79,220612,,,A*77
