$ADVER,3080,2.3
$GPRMC,182325.358,A,3748.7849,N,12217.8749,W,1.45,46.13,071011,,,A*44
$GPRMC,182326.358,A,3748.7817,N,12217.8792,W,1.98,227.92,071011,,,A*76
$GPRMC,182327.358,A,3748.7867,N,12217.8724,W,0.37,49.15,071011,,,A*4C
$GPRMC,182328.358,A,3748.7897,N,12217.8683,W,0.59,48.16,071011,,,A*4A
$GPRMC,182329.358,A,3748.7873,N,12217.8715,W,2.86,47.21,071011,,,A*44
$GPRMC,182330.358,A,3748.7837,N,12217.8782,W,0.96,27.24,071011,,,A*42
$GPRMC,182331.358,A,3748.7843,N,12217.8762,W,1.23,304.45,071011,,,A*74
$GPRMC,182332.358,A,3748.7865,N,12217.8721,W,2.22,39.40,071011,,,A*4E
$GPRMC,182333.358,A,3748.7856,N,12217.8735,W,1.44,119.48,071011,,,A*72
$GPRMC,182334.358,A,3748.7856,N,12217.8678,W,4.04,191.09,071011,,,A*79
$GPRMC,182335.358,A,3748.7858,N,12217.8729,W,4.06,179.13,071011,,,A*7C
$GPRMC,182336.358,A,3748.7866,N,12217.8673,W,4.19,179.72,071011,,,A*75
$GPRMC,182342.358,A,3748.7898,N,12217.8617,W,0.77,294.67,071011,,,A*7D
$GPRMC,182343.358,A,3748.7801,N,12217.8759,W,0.30,255.90,071011,,,A*71
$GPRMC,182344.358,A,3748.7811,N,12217.8780,W,1.07,315.65,071011,,,A*79
$GPRMC,182345.000,A,3748.7817,N,12217.8812,W,0.49,227.50,071011,,,A*79
$GPRMC,182346.000,A,3748.7822,N,12217.8808,W,0.82,226.80,071011,,,A*7C
$GPRMC,182347.000,A,3748.7828,N,12217.8806,W,0.85,209.49,071011,,,A*76
$GPRMC,182348.000,A,3748.7843,N,12217.8779,W,1.40,32.29,071011,,,A*47
$GPRMC,182349.000,A,3748.7852,N,12217.8772,W,1.05,29.85,071011,,,A*40
$GPRMC,182350.000,A,3748.7857,N,12217.8774,W,1.30,25.40,071011,,,A*48
$GPRMC,182351.000,A,3748.7871,N,12217.8756,W,1.63,326.50,071011,,,A*7A
$GPRMC,182352.000,A,3748.7884,N,12217.8742,W,2.22,349.73,071011,,,A*78
$GPRMC,182353.000,A,3748.7889,N,12217.8735,W,0.97,330.49,071011,,,A*7F
$GPRMC,182354.000,A,3748.7895,N,12217.8728,W,1.56,333.71,071011,,,A*7D
$GPRMC,182355.000,A,3748.7900,N,12217.8726,W,1.84,351.11,071011,,,A*72
$GPRMC,182356.000,A,3748.7912,N,12217.8717,W,2.69,15.61,071011,,,A*44
$GPRMC,182357.000,A,3748.7919,N,12217.8710,W,1.30,33.76,071011,,,A*44
$GPRMC,182358.000,A,3748.7924,N,12217.8704,W,3.34,27.44,071011,,,A*42
$GPRMC,182359.000,A,3748.7934,N,12217.8699,W,2.27,14.79,071011,,,A*4A
$GPRMC,182400.000,A,3748.7941,N,12217.8700,W,2.85,5.41,071011,,,A*71
$GPRMC,182401.000,A,3748.7947,N,12217.8699,W,2.91,15.28,071011,,,A*4C
$GPRMC,182402.000,A,3748.7951,N,12217.8700,W,2.72,23.54,071011,,,A*4A
$GPRMC,182403.000,A,3748.7957,N,12217.8693,W,2.11,24.80,071011,,,A*4D
$GPRMC,182404.000,A,3748.7961,N,12217.8689,W,3.04,16.70,071011,,,A*4F
$GPRMC,182405.000,A,3748.7964,N,12217.8688,W,2.03,357.42,071011,,,A*7B
$GPRMC,182406.000,A,3748.7970,N,12217.8686,W,2.87,10.24,071011,,,A*4F
$GPRMC,182407.000,A,3748.7977,N,12217.8682,W,2.61,13.98,071011,,,A*41
$GPRMC,182408.000,A,3748.7986,N,12217.8674,W,1.94,32.63,071011,,,A*47
$GPRMC,182409.000,A,3748.7994,N,12217.8666,W,1.56,28.23,071011,,,A*47
$GPRMC,182410.000,A,3748.8000,N,12217.8661,W,2.08,19.25,071011,,,A*4F
$GPRMC,182411.000,A,3748.8004,N,12217.8658,W,2.36,14.43,071011,,,A*40
$GPRMC,182412.000,A,3748.8011,N,12217.8651,W,1.73,24.32,071011,,,A*49
$GPRMC,182413.000,A,3748.8017,N,12217.8643,W,1.15,43.37,071011,,,A*49
$GPRMC,182414.000,A,3748.8010,N,12217.8641,W,0.51,103.65,071011,,,A*78
$GPRMC,182415.000,A,3748.8002,N,12217.8641,W,0.42,170.94,071011,,,A*72
$GPRMC,182416.000,A,3748.7994,N,12217.8641,W,0.69,189.11,071011,,,A*7A
$GPRMC,182417.000,A,3748.7994,N,12217.8638,W,0.26,147.43,071011,,,A*7B
$GPRMC,182418.000,A,3748.7992,N,12217.8636,W,0.23,100.56,071011,,,A*7E
$GPRMC,182419.000,A,3748.7985,N,12217.8638,W,0.45,168.90,071011,,,A*73
$GPRMC,182420.000,A,3748.7979,N,12217.8638,W,0.40,194.22,071011,,,A*75
$GPRMC,182421.000,A,3748.7981,N,12217.8641,W,0.63,319.69,071011,,,A*74
$GPRMC,182422.000,A,3748.7992,N,12217.8643,W,0.69,336.32,071011,,,A*7E
$GPRMC,182423.000,A,3748.7997,N,12217.8645,W,0.43,333.93,071011,,,A*7A
$GPRMC,182424.000,A,3748.8002,N,12217.8649,W,0.72,270.86,071011,,,A*7B
$GPRMC,182425.000,A,3748.8013,N,12217.8644,W,0.24,328.70,071011,,,A*71
$GPRMC,182426.000,A,3748.8006,N,12217.8646,W,1.26,183.26,071011,,,A*77
$GPRMC,182427.000,A,3748.8000,N,12217.8649,W,2.12,186.74,071011,,,A*79
$GPRMC,182428.000,A,3748.8003,N,12217.8643,W,1.08,177.91,071011,,,A*72
$GPRMC,182429.000,A,3748.8014,N,12217.8634,W,0.38,52.50,071011,,,A*4C
$GPRMC,182430.000,A,3748.8021,N,12217.8630,W,0.63,29.83,071011,,,A*4A
$GPRMC,182431.000,A,3748.8017,N,12217.8632,W,0.12,25.04,071011,,,A*49
$GPRMC,182432.000,A,3748.8020,N,12217.8635,W,0.07,155.07,071011,,,A*78
$GPRMC,182433.000,A,3748.8019,N,12217.8635,W,0.10,109.46,071011,,,A*79
$GPRMC,182434.000,A,3748.8018,N,12217.8635,W,0.22,165.88,071011,,,A*76
$GPRMC,182435.000,A,3748.8015,N,12217.8635,W,0.28,165.86,071011,,,A*7E
$GPRMC,182436.000,A,3748.8015,N,12217.8634,W,0.26,156.71,071011,,,A*7A
$GPRMC,182437.000,A,3748.8014,N,12217.8633,W,0.28,143.53,071011,,,A*77
$GPRMC,182438.000,A,3748.8013,N,12217.8631,W,0.14,149.30,071011,,,A*7D
$GPRMC,182439.000,A,3748.8012,N,12217.8632,W,0.13,207.99,071011,,,A*73
$GPRMC,182440.000,A,3748.8011,N,12217.8630,W,0.31,101.33,071011,,,A*79
$GPRMC,182441.000,A,3748.8008,N,12217.8631,W,0.23,99.33,071011,,,A*42
$GPRMC,182442.000,A,3748.8010,N,12217.8627,W,0.17,95.23,071011,,,A*45
$GPRMC,182443.000,A,3748.8012,N,12217.8624,W,0.07,284.41,071011,,,A*72
$GPRMC,182444.000,A,3748.8015,N,12217.8620,W,0.34,64.99,071011,,,A*4F
$GPRMC,182445.000,A,3748.8015,N,12217.8620,W,0.36,62.73,071011,,,A*4E
$GPRMC,182446.000,A,3748.8014,N,12217.8624,W,0.34,61.21,071011,,,A*4E
$GPRMC,182447.000,A,3748.8011,N,12217.8628,W,0.17,305.03,071011,,,A*76
$GPRMC,182448.000,A,3748.8007,N,12217.8631,W,0.18,143.29,071011,,,A*71
$GPRMC,182449.000,A,3748.8002,N,12217.8634,W,0.35,148.11,071011,,,A*7F
$GPRMC,182450.000,A,3748.8000,N,12217.8632,W,0.44,123.47,071011,,,A*7B
$GPRMC,182451.000,A,3748.7992,N,12217.8634,W,0.57,185.14,071011,,,A*79
$GPRMC,182452.000,A,3748.7994,N,12217.8632,W,0.29,155.08,071011,,,A*73
$GPRMC,182453.000,A,3748.7993,N,12217.8632,W,0.19,201.47,071011,,,A*7F
$GPRMC,182454.000,A,3748.7991,N,12217.8634,W,0.20,187.65,071011,,,A*7B
$GPRMC,182455.000,A,3748.7990,N,12217.8634,W,0.25,132.95,071011,,,A*7F
$GPRMC,182456.000,A,3748.7990,N,12217.8634,W,0.26,114.40,071011,,,A*73
$GPRMC,182457.000,A,3748.7990,N,12217.8633,W,0.36,102.85,071011,,,A*7A
$GPRMC,182458.000,A,3748.7990,N,12217.8633,W,0.13,170.87,071011,,,A*75
$GPRMC,182459.000,A,3748.7991,N,12217.8631,W,0.30,95.24,071011,,,A*45
$GPRMC,182500.000,A,3748.7991,N,12217.8632,W,0.11,84.18,071011,,,A*47
$GPRMC,182501.000,A,3748.7990,N,12217.8633,W,0.21,202.73,071011,,,A*74
$GPRMC,182502.000,A,3748.7988,N,12217.8635,W,0.18,137.17,071011,,,A*75
$GPRMC,182503.000,A,3748.7987,N,12217.8634,W,0.27,95.71,071011,,,A*4F
$GPRMC,182504.000,A,3748.7986,N,12217.8632,W,0.14,129.31,071011,,,A*7D
$GPRMC,182505.000,A,3748.7988,N,12217.8630,W,0.12,83.95,071011,,,A*49
$GPRMC,182506.000,A,3748.7989,N,12217.8629,W,0.14,81.72,071011,,,A*4E
$GPRMC,182507.000,A,3748.7992,N,12217.8625,W,0.45,61.00,071011,,,A*46
$GPRMC,182508.000,A,3748.7995,N,12217.8623,W,0.23,48.16,071011,,,A*44
$GPRMC,182509.000,A,3748.7998,N,12217.8620,W,0.17,72.52,071011,,,A*45
$GPRMC,182510.000,A,3748.7999,N,12217.8619,W,0.33,133.13,071011,,,A*71
$GPRMC,182511.000,A,3748.8002,N,12217.8616,W,0.61,63.12,071011,,,A*49
$GPRMC,182512.000,A,3748.8004,N,12217.8614,W,0.75,54.17,071011,,,A*4A
$GPRMC,182513.000,A,3748.8006,N,12217.8613,W,0.77,57.01,071011,,,A*48
$GPRMC,182514.000,A,3748.8007,N,12217.8611,W,0.64,55.91,071011,,,A*45
$GPRMC,182515.000,A,3748.8008,N,12217.8611,W,0.44,44.97,071011,,,A*4F
$GPRMC,182516.000,A,3748.8008,N,12217.8610,W,0.51,54.53,071011,,,A*40
$GPRMC,182517.000,A,3748.8008,N,12217.8610,W,0.29,38.31,071011,,,A*40
$GPRMC,182518.000,A,3748.8007,N,12217.8611,W,0.19,199.44,071011,,,A*7A
$GPRMC,182519.000,A,3748.8007,N,12217.8612,W,0.33,24.08,071011,,,A*4F
$GPRMC,182520.000,A,3748.8005,N,12217.8613,W,0.06,71.29,071011,,,A*43
$GPRMC,182521.000,A,3748.8002,N,12217.8614,W,0.03,51.79,071011,,,A*40
$GPRMC,182522.000,A,3748.8000,N,12217.8615,W,0.04,248.68,071011,,,A*7D
$GPRMC,182523.000,A,3748.7997,N,12217.8617,W,0.09,193.59,071011,,,A*7C
$GPRMC,182524.000,A,3748.7995,N,12217.8619,W,0.19,216.28,071011,,,A*7E
$GPRMC,182525.000,A,3748.7991,N,12217.8622,W,0.26,212.40,071011,,,A*75
$GPRMC,182526.000,A,3748.7988,N,12217.8624,W,0.09,246.58,071011,,,A*7D
$GPRMC,182527.000,A,3748.7983,N,12217.8627,W,0.45,208.54,071011,,,A*7A
$GPRMC,182528.000,A,3748.7978,N,12217.8631,W,0.50,210.01,071011,,,A*7B
$GPRMC,182529.000,A,3748.7974,N,12217.8634,W,0.51,212.26,071011,,,A*75
$GPRMC,182530.000,A,3748.7971,N,12217.8636,W,0.75,211.88,071011,,,A*7B
$GPRMC,182531.000,A,3748.7968,N,12217.8639,W,0.67,211.87,071011,,,A*71
$GPRMC,182532.000,A,3748.7965,N,12217.8642,W,0.64,215.62,071011,,,A*7F
$GPRMC,182533.000,A,3748.7964,N,12217.8645,W,0.58,212.74,071011,,,A*77
$GPRMC,182534.000,A,3748.7970,N,12217.8636,W,0.32,180.89,071011,,,A*77
$GPRMC,182535.000,A,3748.7990,N,12217.8612,W,0.25,77.35,071011,,,A*46
$GPRMC,182536.000,A,3748.7991,N,12217.8610,W,0.11,52.81,071011,,,A*49
$GPRMC,182537.000,A,3748.7985,N,12217.8613,W,0.21,151.20,071011,,,A*74
$GPRMC,182538.000,A,3748.7988,N,12217.8609,W,0.26,148.33,071011,,,A*70
$GPRMC,182539.000,A,3748.7991,N,12217.8608,W,0.33,165.13,071011,,,A*71
$GPRMC,182540.000,A,3748.7991,N,12217.8606,W,0.30,132.35,071011,,,A*74
$GPRMC,182541.000,A,3748.7988,N,12217.8606,W,0.45,183.94,071011,,,A*7E
$GPRMC,182542.000,A,3748.7989,N,12217.8606,W,0.19,4.38,071011,,,A*7D
$GPRMC,182543.000,A,3748.7993,N,12217.8603,W,0.24,57.08,071011,,,A*49
$GPRMC,182544.000,A,3748.7992,N,12217.8602,W,0.33,70.40,071011,,,A*41
$GPRMC,182545.000,A,3748.7994,N,12217.8603,W,0.17,0.38,071011,,,A*79
$GPRMC,182546.000,A,3748.7999,N,12217.8603,W,0.37,43.57,071011,,,A*4B
$GPRMC,182547.000,A,3748.8008,N,12217.8600,W,0.36,18.36,071011,,,A*4F
$GPRMC,182548.000,A,3748.8016,N,12217.8599,W,0.46,11.04,071011,,,A*43
$GPRMC,182549.000,A,3748.8017,N,12217.8599,W,0.29,196.44,071011,,,A*70
$GPRMC,182550.000,A,3748.8012,N,12217.8605,W,1.01,191.93,071011,,,A*7D
$GPRMC,182551.000,A,3748.8012,N,12217.8606,W,0.31,14.75,071011,,,A*49
$GPRMC,182552.000,A,3748.8013,N,12217.8605,W,0.22,37.62,071011,,,A*4D
$GPRMC,182553.000,A,3748.8015,N,12217.8604,W,0.49,0.92,071011,,,A*7D
$GPRMC,182554.000,A,3748.8014,N,12217.8603,W,0.21,54.94,071011,,,A*45
$GPRMC,182555.000,A,3748.8012,N,12217.8604,W,0.35,56.84,071011,,,A*43
$GPRMC,182556.000,A,3748.8010,N,12217.8604,W,0.57,63.06,071011,,,A*4A
$GPRMC,182557.000,A,3748.8011,N,12217.8604,W,0.90,51.51,071011,,,A*42
$GPRMC,182558.000,A,3748.8010,N,12217.8605,W,0.37,353.89,071011,,,A*74
$GPRMC,182559.000,A,3748.8015,N,12217.8604,W,0.33,296.65,071011,,,A*7F
$GPRMC,182600.000,A,3748.8018,N,12217.8605,W,0.37,19.20,071011,,,A*4C
$GPRMC,182601.000,A,3748.8020,N,12217.8602,W,0.57,347.77,071011,,,A*7D
$GPRMC,182602.000,A,3748.8022,N,12217.8601,W,0.48,29.74,071011,,,A*49
$GPRMC,182603.000,A,3748.8022,N,12217.8603,W,0.35,357.83,071011,,,A*72
$GPRMC,182604.000,A,3748.8024,N,12217.8603,W,0.66,8.69,071011,,,A*78
$GPRMC,182605.000,A,3748.8030,N,12217.8606,W,0.73,334.24,071011,,,A*78
$GPRMC,182606.000,A,3748.8036,N,12217.8611,W,0.94,347.47,071011,,,A*73
$GPRMC,182607.000,A,3748.8040,N,12217.8611,W,0.66,3.18,071011,,,A*77
$GPRMC,182608.000,A,3748.8046,N,12217.8611,W,0.91,21.89,071011,,,A*4E
$GPRMC,182609.000,A,3748.8052,N,12217.8608,W,1.05,27.59,071011,,,A*45
$GPRMC,182610.000,A,3748.8057,N,12217.8606,W,1.18,32.43,071011,,,A*45
$GPRMC,182611.000,A,3748.8061,N,12217.8604,W,0.97,17.90,071011,,,A*4C
$GPRMC,182612.000,A,3748.8065,N,12217.8607,W,0.92,2.42,071011,,,A*76
$GPRMC,182613.000,A,3748.8067,N,12217.8611,W,0.82,355.04,071011,,,A*70
$GPRMC,182614.000,A,3748.8070,N,12217.8612,W,0.83,348.85,071011,,,A*76
$GPRMC,182615.000,A,3748.8070,N,12217.8612,W,0.64,349.18,071011,,,A*7B
$GPRMC,182616.000,A,3748.8069,N,12217.8611,W,0.82,25.31,071011,,,A*49
$GPRMC,182617.000,A,3748.8070,N,12217.8610,W,0.83,34.22,071011,,,A*42
$GPRMC,182618.000,A,3748.8070,N,12217.8609,W,0.80,32.47,071011,,,A*43
$GPRMC,182619.000,A,3748.8070,N,12217.8609,W,0.69,32.51,071011,,,A*42
$GPRMC,182620.000,A,3748.8071,N,12217.8610,W,0.64,357.06,071011,,,A*7E
$GPRMC,182621.000,A,3748.8075,N,12217.8612,W,0.68,348.52,071011,,,A*7A
$GPRMC,182622.000,A,3748.8079,N,12217.8614,W,0.62,11.04,071011,,,A*45
$GPRMC,182623.000,A,3748.8075,N,12217.8614,W,0.56,29.81,071011,,,A*49
$GPRMC,182624.000,A,3748.8075,N,12217.8614,W,0.57,37.19,071011,,,A*41
$GPRMC,182625.000,A,3748.8072,N,12217.8614,W,0.50,46.06,071011,,,A*48
$GPRMC,182626.000,A,3748.8067,N,12217.8614,W,0.31,359.42,071011,,,A*75
$GPRMC,182627.000,A,3748.8063,N,12217.8615,W,0.23,49.11,071011,,,A*46
$GPRMC,182628.000,A,3748.8059,N,12217.8616,W,0.27,72.26,071011,,,A*4B
$GPRMC,182629.000,A,3748.8060,N,12217.8617,W,0.24,300.83,071011,,,A*7B
$GPRMC,182630.000,A,3748.8063,N,12217.8619,W,0.33,316.16,071011,,,A*73
$GPRMC,182631.000,A,3748.8063,N,12217.8621,W,0.17,64.99,071011,,,A*4E
$GPRMC,182632.000,A,3748.8066,N,12217.8614,W,0.44,74.02,071011,,,A*4B
$GPRMC,182633.000,A,3748.8064,N,12217.8607,W,0.42,93.88,071011,,,A*47
$GPRMC,182634.000,A,3748.8063,N,12217.8600,W,0.20,60.02,071011,,,A*4A
$GPRMC,182635.000,A,3748.8060,N,12217.8599,W,0.44,234.58,071011,,,A*75
$GPRMC,182636.000,A,3748.8058,N,12217.8600,W,0.15,278.17,071011,,,A*79
$GPRMC,182637.000,A,3748.8057,N,12217.8598,W,0.85,248.78,071011,,,A*76
$GPRMC,182638.000,A,3748.8050,N,12217.8606,W,1.17,233.06,071011,,,A*75
$GPRMC,182639.000,A,3748.8043,N,12217.8610,W,0.66,209.78,071011,,,A*76
$GPRMC,182640.000,A,3748.8033,N,12217.8613,W,0.56,155.60,071011,,,A*7C
$GPRMC,182641.000,A,3748.8033,N,12217.8613,W,0.60,179.44,071011,,,A*70
$GPRMC,182642.000,A,3748.8033,N,12217.8614,W,0.52,179.85,071011,,,A*78
$GPRMC,182643.000,A,3748.8032,N,12217.8615,W,0.43,143.39,071011,,,A*77
$GPRMC,182644.000,A,3748.8031,N,12217.8616,W,0.42,148.77,071011,,,A*70
$GPRMC,182645.000,A,3748.8033,N,12217.8611,W,0.41,165.66,071011,,,A*78
$GPRMC,182646.000,A,3748.8029,N,12217.8610,W,0.43,166.22,071011,,,A*70
$GPRMC,182647.000,A,3748.8029,N,12217.8612,W,0.14,179.19,071011,,,A*77
$GPRMC,182648.000,A,3748.8022,N,12217.8614,W,0.46,233.23,071011,,,A*76
$GPRMC,182649.000,A,3748.8015,N,12217.8615,W,0.44,224.11,071011,,,A*77
$GPRMC,182650.000,A,3748.8022,N,12217.8609,W,0.62,241.40,071011,,,A*75
$GPRMC,182651.000,A,3748.8025,N,12217.8611,W,0.27,217.08,071011,,,A*74
$GPRMC,182652.000,A,3748.8022,N,12217.8609,W,0.39,114.45,071011,,,A*7F
$GPRMC,182653.000,A,3748.8020,N,12217.8606,W,0.35,125.95,071011,,,A*70
$GPRMC,182654.000,A,3748.8012,N,12217.8608,W,0.31,180.55,071011,,,A*7F
$GPRMC,182655.000,A,3748.8005,N,12217.8613,W,0.65,207.81,071011,,,A*76
$GPRMC,182656.000,A,3748.8004,N,12217.8614,W,0.44,181.61,071011,,,A*73
$GPRMC,182657.000,A,3748.8004,N,12217.8615,W,0.50,216.30,071011,,,A*7F
$GPRMC,182658.000,A,3748.7992,N,12217.8627,W,0.75,232.79,071011,,,A*74
$GPRMC,182659.000,A,3748.7992,N,12217.8630,W,0.39,226.12,071011,,,A*73
$GPRMC,182700.000,A,3748.7988,N,12217.8640,W,0.28,167.31,071011,,,A*75
$GPRMC,182701.000,A,3748.7989,N,12217.8640,W,0.34,204.66,071011,,,A*7C
$GPRMC,182702.000,A,3748.7988,N,12217.8639,W,0.58,202.81,071011,,,A*75
$GPRMC,182703.000,A,3748.7987,N,12217.8637,W,0.29,147.12,071011,,,A*7B
$GPRMC,182704.000,A,3748.7991,N,12217.8633,W,0.49,93.60,071011,,,A*44
$GPRMC,182705.000,A,3748.7998,N,12217.8626,W,0.68,79.75,071011,,,A*4B
$GPRMC,182706.000,A,3748.7997,N,12217.8625,W,0.31,141.58,071011,,,A*7D
$GPRMC,182707.000,A,3748.7993,N,12217.8623,W,0.47,240.34,071011,,,A*77
$GPRMC,182708.000,A,3748.7996,N,12217.8620,W,0.32,241.76,071011,,,A*7B
$GPRMC,182709.000,A,3748.8001,N,12217.8615,W,0.25,41.86,071011,,,A*4F
$GPRMC,182710.000,A,3748.8007,N,12217.8611,W,0.31,13.54,071011,,,A*48
$GPRMC,182711.000,A,3748.8013,N,12217.8610,W,0.52,14.00,071011,,,A*4E
$GPRMC,182712.000,A,3748.8011,N,12217.8611,W,0.63,272.37,071011,,,A*7A
$GPRMC,182713.000,A,3748.8008,N,12217.8616,W,0.89,254.77,071011,,,A*70
$GPRMC,182714.000,A,3748.8004,N,12217.8618,W,0.17,318.25,071011,,,A*7C
$GPRMC,182715.000,A,3748.8004,N,12217.8614,W,0.94,92.89,071011,,,A*4D
$GPRMC,182716.000,A,3748.8004,N,12217.8608,W,0.33,82.29,071011,,,A*45
$GPRMC,182717.000,A,3748.8006,N,12217.8602,W,0.20,58.87,071011,,,A*4D
$GPRMC,182718.000,A,3748.8008,N,12217.8602,W,0.45,71.06,071011,,,A*4D
$GPRMC,182719.000,A,3748.8009,N,12217.8600,W,0.72,88.66,071011,,,A*4B
$GPRMC,182720.000,A,3748.8008,N,12217.8596,W,0.50,128.37,071011,,,A*73
$GPRMC,182721.000,A,3748.8008,N,12217.8596,W,0.09,351.66,071011,,,A*76
$GPRMC,182722.000,A,3748.8010,N,12217.8596,W,0.14,36.56,071011,,,A*41
$GPRMC,182723.000,A,3748.8012,N,12217.8597,W,0.38,4.57,071011,,,A*7D
$GPRMC,182724.000,A,3748.8013,N,12217.8595,W,0.38,66.11,071011,,,A*4F
$GPRMC,182725.000,A,3748.8015,N,12217.8596,W,0.46,339.36,071011,,,A*7E
$GPRMC,182726.000,A,3748.8015,N,12217.8594,W,0.49,320.49,071011,,,A*70
$GPRMC,182727.000,A,3748.8015,N,12217.8591,W,0.36,21.77,071011,,,A*43
$GPRMC,182728.000,A,3748.8014,N,12217.8587,W,0.55,338.34,071011,,,A*73
$GPRMC,182729.000,A,3748.8012,N,12217.8582,W,0.62,342.68,071011,,,A*71
$GPRMC,182730.000,A,3748.8012,N,12217.8581,W,0.49,353.37,071011,,,A*79
$GPRMC,182731.000,A,3748.8010,N,12217.8577,W,0.37,84.53,071011,,,A*41
$GPRMC,182732.000,A,3748.8009,N,12217.8573,W,0.29,56.66,071011,,,A*48
$GPRMC,182733.000,A,3748.8008,N,12217.8571,W,0.18,38.00,071011,,,A*40
$GPRMC,182734.000,A,3748.8006,N,12217.8570,W,0.19,27.84,071011,,,A*4B
$GPRMC,182735.000,A,3748.8005,N,12217.8568,W,0.10,354.74,071011,,,A*71
$GPRMC,182736.000,A,3748.8005,N,12217.8571,W,0.42,305.80,071011,,,A*72
$GPRMC,182737.000,A,3748.8005,N,12217.8571,W,0.32,122.45,071011,,,A*7A
$GPRMC,182738.000,A,3748.8006,N,12217.8573,W,0.13,273.69,071011,,,A*7E
$GPRMC,182739.000,A,3748.8010,N,12217.8580,W,0.14,0.54,071011,,,A*7B
$GPRMC,182740.000,A,3748.8010,N,12217.8581,W,0.22,31.77,071011,,,A*42
$GPRMC,182741.000,A,3748.8008,N,12217.8581,W,0.22,351.81,071011,,,A*76
$GPRMC,182742.000,A,3748.8005,N,12217.8581,W,0.09,78.72,071011,,,A*45
$GPRMC,182743.000,A,3748.8006,N,12217.8584,W,0.13,333.39,071011,,,A*7A
$GPRMC,182744.000,A,3748.8011,N,12217.8590,W,0.30,349.68,071011,,,A*76
$GPRMC,182745.000,A,3748.8014,N,12217.8596,W,0.95,272.05,071011,,,A*79
$GPRMC,182746.000,A,3748.8014,N,12217.8600,W,0.50,216.67,071011,,,A*79
$GPRMC,182747.000,A,3748.8015,N,12217.8604,W,1.14,234.09,071011,,,A*74
$GPRMC,182748.000,A,3748.8012,N,12217.8613,W,1.83,207.85,071011,,,A*70
$GPRMC,182749.000,A,3748.8009,N,12217.8620,W,1.93,213.18,071011,,,A*7B
$GPRMC,182750.000,A,3748.8006,N,12217.8623,W,1.64,198.19,071011,,,A*76
$GPRMC,182751.000,A,3748.8001,N,12217.8627,W,1.44,211.92,071011,,,A*77
$GPRMC,182752.000,A,3748.7994,N,12217.8632,W,1.87,214.37,071011,,,A*7F
$GPRMC,182753.000,A,3748.7987,N,12217.8638,W,1.98,209.80,071011,,,A*78
$GPRMC,182754.000,A,3748.7981,N,12217.8642,W,2.26,209.11,071011,,,A*7A
$GPRMC,182755.000,A,3748.7972,N,12217.8649,W,1.96,198.59,071011,,,A*73
$GPRMC,182756.000,A,3748.7965,N,12217.8654,W,2.07,198.21,071011,,,A*7E
$GPRMC,182757.000,A,3748.7957,N,12217.8658,W,1.54,161.08,071011,,,A*7A
$GPRMC,182758.000,A,3748.7953,N,12217.8654,W,0.99,133.13,071011,,,A*70
$GPRMC,182759.000,A,3748.7949,N,12217.8651,W,1.16,126.05,071011,,,A*7A
$GPRMC,182800.000,A,3748.7949,N,12217.8658,W,0.51,218.73,071011,,,A*7D
$GPRMC,182801.000,A,3748.7944,N,12217.8669,W,0.93,181.64,071011,,,A*78
$GPRMC,182802.000,A,3748.7942,N,12217.8672,W,0.80,136.59,071011,,,A*77
$GPRMC,182803.000,A,3748.7940,N,12217.8674,W,0.78,167.98,071011,,,A*7C
$GPRMC,182804.000,A,3748.7943,N,12217.8681,W,1.48,194.57,071011,,,A*7F
$GPRMC,182805.000,A,3748.7945,N,12217.8689,W,0.30,181.05,071011,,,A*7D
$GPRMC,182806.000,A,3748.7948,N,12217.8687,W,1.09,93.44,071011,,,A*41
$GPRMC,182807.000,A,3748.7948,N,12217.8687,W,1.07,94.15,071011,,,A*4D
$GPRMC,182808.000,A,3748.7949,N,12217.8691,W,0.57,166.85,071011,,,A*75
$GPRMC,182809.000,A,3748.7943,N,12217.8696,W,1.26,186.14,071011,,,A*78
$GPRMC,182810.000,A,3748.7937,N,12217.8704,W,1.28,155.06,071011,,,A*7A
$GPRMC,182811.000,A,3748.7937,N,12217.8712,W,0.93,121.78,071011,,,A*77
$GPRMC,182812.000,A,3748.7936,N,12217.8718,W,0.74,164.22,071011,,,A*78
$GPRMC,182813.000,A,3748.7935,N,12217.8727,W,0.44,193.57,071011,,,A*7F
$GPRMC,182814.000,A,3748.7939,N,12217.8735,W,1.22,136.87,071011,,,A*74
$GPRMC,182815.000,A,3748.7938,N,12217.8741,W,0.59,141.27,071011,,,A*70
$GPRMC,182816.000,A,3748.7939,N,12217.8744,W,0.54,198.03,071011,,,A*78
$GPRMC,182817.000,A,3748.7939,N,12217.8751,W,1.12,209.10,071011,,,A*77
$GPRMC,182818.000,A,3748.7938,N,12217.8754,W,0.76,230.23,071011,,,A*75
$GPRMC,182819.000,A,3748.7943,N,12217.8754,W,0.31,184.92,071011,,,A*7D
$GPRMC,182820.000,A,3748.7940,N,12217.8759,W,0.43,162.47,071011,,,A*7C
$GPRMC,182821.000,A,3748.7944,N,12217.8766,W,0.36,211.28,071011,,,A*79
$GPRMC,182822.000,A,3748.7945,N,12217.8775,W,0.30,242.86,071011,,,A*7D
$GPRMC,182823.000,A,3748.7941,N,12217.8782,W,0.25,224.71,071011,,,A*7C
$GPRMC,182824.000,A,3748.7933,N,12217.8786,W,0.98,153.41,071011,,,A*7C
$GPRMC,182825.000,A,3748.7928,N,12217.8788,W,0.97,111.61,071011,,,A*72
$GPRMC,182826.000,A,3748.7924,N,12217.8790,W,0.94,104.18,071011,,,A*7D
$GPRMC,182827.000,A,3748.7920,N,12217.8792,W,0.83,113.34,071011,,,A*74
$GPRMC,182828.000,A,3748.7914,N,12217.8793,W,0.36,105.00,071011,,,A*73
$GPRMC,182829.000,A,3748.7902,N,12217.8799,W,0.99,181.54,071011,,,A*77
$GPRMC,182830.000,A,3748.7888,N,12217.8806,W,1.01,188.67,071011,,,A*7C
$GPRMC,182831.000,A,3748.7876,N,12217.8817,W,1.46,174.58,071011,,,A*70
$GPRMC,182832.000,A,3748.7869,N,12217.8824,W,1.02,147.37,071011,,,A*74
$GPRMC,182833.000,A,3748.7871,N,12217.8828,W,1.34,118.38,071011,,,A*70
$GPRMC,182834.000,A,3748.7867,N,12217.8832,W,0.70,190.53,071011,,,A*77
$GPRMC,182835.000,A,3748.7862,N,12217.8841,W,0.82,210.05,071011,,,A*72
$GPRMC,182836.000,A,3748.7862,N,12217.8845,W,1.34,199.04,071011,,,A*7A
$GPRMC,182837.000,A,3748.7860,N,12217.8850,W,0.69,193.79,071011,,,A*74
$GPRMC,182838.000,A,3748.7851,N,12217.8854,W,0.67,98.45,071011,,,A*46
$GPRMC,182839.000,A,3748.7843,N,12217.8858,W,0.85,124.55,071011,,,A*73
$GPRMC,182839.000,A,3748.7835,N,12217.8862,W,0.98,166.73,071011,,,A*75
$GPRMC,182840.000,A,3748.7830,N,12217.8869,W,0.90,142.83,071011,,,A*74
$GPRMC,182841.000,A,3748.7823,N,12217.8875,W,0.81,121.66,071011,,,A*74
$GPRMC,182842.000,A,3748.7823,N,12217.8878,W,0.65,87.00,071011,,,A*4D
$GPRMC,182843.000,A,3748.7822,N,12217.8886,W,0.75,193.37,071011,,,A*7D
$GPRMC,182844.000,A,3748.7816,N,12217.8894,W,0.78,178.89,071011,,,A*73
$GPRMC,182845.000,A,3748.7804,N,12217.8905,W,0.83,176.26,071011,,,A*77
$GPRMC,182846.000,A,3748.7797,N,12217.8907,W,1.05,182.71,071011,,,A*75
$GPRMC,182847.000,A,3748.7780,N,12217.8916,W,1.48,191.33,071011,,,A*7F
$GPRMC,182848.000,A,3748.7770,N,12217.8923,W,1.06,159.37,071011,,,A*73
$GPRMC,182849.000,A,3748.7760,N,12217.8925,W,1.15,181.33,071011,,,A*76
$GPRMC,182850.000,A,3748.7746,N,12217.8926,W,1.16,153.96,071011,,,A*7A
$GPRMC,182851.000,A,3748.7733,N,12217.8922,W,1.43,155.01,071011,,,A*75
$GPRMC,182852.000,A,3748.7715,N,12217.8930,W,1.87,171.74,071011,,,A*7D
$GPRMC,182853.000,A,3748.7700,N,12217.8928,W,1.86,180.30,071011,,,A*7E
$GPRMC,182854.000,A,3748.7688,N,12217.8930,W,1.90,205.03,071011,,,A*78
$GPRMC,182855.000,A,3748.7670,N,12217.8940,W,1.89,199.46,071011,,,A*76
$GPRMC,182856.000,A,3748.7654,N,12217.8951,W,1.82,201.62,071011,,,A*7C
$GPRMC,182857.000,A,3748.7639,N,12217.8960,W,1.95,198.71,071011,,,A*73
$GPRMC,182858.000,A,3748.7630,N,12217.8971,W,1.62,200.36,071011,,,A*7C
$GPRMC,182859.000,A,3748.7616,N,12217.8983,W,1.66,159.74,071011,,,A*79
$GPRMC,182900.000,A,3748.7600,N,12217.9000,W,1.88,169.07,071011,,,A*77
$GPRMC,182901.000,A,3748.7585,N,12217.9010,W,1.97,167.80,071011,,,A*76
$GPRMC,182902.000,A,3748.7574,N,12217.9013,W,2.03,170.17,071011,,,A*7E
$GPRMC,182903.000,A,3748.7567,N,12217.9022,W,1.83,178.04,071011,,,A*7E
$GPRMC,182904.000,A,3748.7555,N,12217.9031,W,2.07,183.46,071011,,,A*77
$GPRMC,182905.000,A,3748.7549,N,12217.9040,W,1.29,173.26,071011,,,A*7B
$GPRMC,182906.000,A,3748.7542,N,12217.9049,W,1.27,176.42,071011,,,A*73
$GPRMC,182907.000,A,3748.7537,N,12217.9062,W,1.21,200.03,071011,,,A*78
$GPRMC,182908.000,A,3748.7531,N,12217.9069,W,0.85,179.15,071011,,,A*7F
$GPRMC,182909.000,A,3748.7526,N,12217.9078,W,0.96,165.66,071011,,,A*73
$GPRMC,182910.000,A,3748.7519,N,12217.9085,W,0.84,181.88,071011,,,A*7C
$GPRMC,182911.000,A,3748.7506,N,12217.9097,W,0.70,168.08,071011,,,A*74
$GPRMC,182912.000,A,3748.7494,N,12217.9103,W,1.88,179.28,071011,,,A*75
$GPRMC,182913.000,A,3748.7488,N,12217.9110,W,2.18,193.03,071011,,,A*7C
$GPRMC,182914.000,A,3748.7472,N,12217.9120,W,2.25,195.26,071011,,,A*72
$GPRMC,182915.000,A,3748.7460,N,12217.9127,W,2.29,191.04,071011,,,A*7F
$GPRMC,182916.000,A,3748.7449,N,12217.9136,W,1.89,180.38,071011,,,A*71
$GPRMC,182917.000,A,3748.7441,N,12217.9139,W,1.78,180.87,071011,,,A*7D
$GPRMC,182918.000,A,3748.7432,N,12217.9139,W,1.24,165.52,071011,,,A*7C
$GPRMC,182919.000,A,3748.7426,N,12217.9138,W,1.65,172.31,071011,,,A*7F
$GPRMC,182920.000,A,3748.7414,N,12217.9141,W,1.61,170.63,071011,,,A*7B
$GPRMC,182921.000,A,3748.7404,N,12217.9143,W,2.26,192.61,071011,,,A*77
$GPRMC,182922.000,A,3748.7396,N,12217.9149,W,2.00,197.46,071011,,,A*76
$GPRMC,182923.000,A,3748.7390,N,12217.9152,W,1.50,187.97,071011,,,A*70
$GPRMC,182924.000,A,3748.7382,N,12217.9158,W,1.68,187.48,071011,,,A*77
$GPRMC,182925.000,A,3748.7375,N,12217.9161,W,1.60,173.37,071011,,,A*7F
$GPRMC,182926.000,A,3748.7369,N,12217.9165,W,2.04,186.40,071011,,,A*7E
$GPRMC,182927.000,A,3748.7364,N,12217.9172,W,1.68,186.65,071011,,,A*7A
$GPRMC,182928.000,A,3748.7356,N,12217.9178,W,1.67,190.32,071011,,,A*74
$GPRMC,182929.000,A,3748.7346,N,12217.9190,W,2.07,198.24,071011,,,A*78
$GPRMC,182930.000,A,3748.7340,N,12217.9196,W,1.76,192.41,071011,,,A*7C
$GPRMC,182931.000,A,3748.7330,N,12217.9209,W,1.51,205.61,071011,,,A*75
$GPRMC,182932.000,A,3748.7322,N,12217.9216,W,1.42,191.45,071011,,,A*71
$GPRMC,182933.000,A,3748.7314,N,12217.9223,W,1.53,186.32,071011,,,A*75
$GPRMC,182934.000,A,3748.7312,N,12217.9224,W,1.38,188.02,071011,,,A*73
$GPRMC,182935.000,A,3748.7312,N,12217.9229,W,0.77,190.02,071011,,,A*7C
$GPRMC,182936.000,A,3748.7310,N,12217.9235,W,1.04,177.77,071011,,,A*7E
$GPRMC,182937.000,A,3748.7308,N,12217.9242,W,1.01,179.12,071011,,,A*7E
$GPRMC,182938.000,A,3748.7302,N,12217.9245,W,1.69,191.04,071011,,,A*73
$GPRMC,182939.000,A,3748.7295,N,12217.9249,W,1.26,191.50,071011,,,A*7B
$GPRMC,182940.000,A,3748.7285,N,12217.9256,W,1.35,199.80,071011,,,A*7D
$GPRMC,182941.000,A,3748.7278,N,12217.9259,W,1.87,195.93,071011,,,A*76
$GPRMC,182942.000,A,3748.7269,N,12217.9264,W,2.15,196.57,071011,,,A*78
$GPRMC,182943.000,A,3748.7257,N,12217.9270,W,2.53,190.82,071011,,,A*7D
$GPRMC,182944.000,A,3748.7247,N,12217.9275,W,2.65,197.85,071011,,,A*7B
$GPRMC,182945.000,A,3748.7241,N,12217.9283,W,2.35,216.82,071011,,,A*7D
$GPRMC,182946.000,A,3748.7238,N,12217.9294,W,1.53,224.03,071011,,,A*7D
$GPRMC,182947.000,A,3748.7232,N,12217.9299,W,1.59,184.65,071011,,,A*78
$GPRMC,182948.000,A,3748.7225,N,12217.9296,W,1.15,159.15,071011,,,A*71
$GPRMC,182949.000,A,3748.7219,N,12217.9304,W,1.62,192.89,071011,,,A*77
$GPRMC,182950.000,A,3748.7216,N,12217.9315,W,1.54,210.57,071011,,,A*7F
$GPRMC,182951.000,A,3748.7212,N,12217.9331,W,2.91,209.70,071011,,,A*7B
$GPRMC,182952.000,A,3748.7205,N,12217.9346,W,2.67,194.48,071011,,,A*7B
$GPRMC,182953.000,A,3748.7198,N,12217.9362,W,2.71,206.69,071011,,,A*77
$GPRMC,182954.000,A,3748.7193,N,12217.9370,W,2.58,204.95,071011,,,A*72
$GPRMC,182955.000,A,3748.7194,N,12217.9373,W,2.25,199.63,071011,,,A*73
$GPRMC,182956.000,A,3748.7179,N,12217.9382,W,2.38,202.18,071011,,,A*7C
$GPRMC,182957.000,A,3748.7171,N,12217.9391,W,2.28,188.64,071011,,,A*7C
$GPRMC,182958.000,A,3748.7161,N,12217.9395,W,2.86,192.26,071011,,,A*7F
$GPRMC,182959.000,A,3748.7147,N,12217.9398,W,2.45,188.50,071011,,,A*72
$GPRMC,183000.000,A,3748.7137,N,12217.9400,W,2.07,182.93,071011,,,A*74
$GPRMC,183001.000,A,3748.7125,N,12217.9404,W,1.97,188.52,071011,,,A*7F
$GPRMC,183002.000,A,3748.7115,N,12217.9411,W,2.49,203.62,071011,,,A*78
$GPRMC,183003.000,A,3748.7102,N,12217.9420,W,2.20,191.47,071011,,,A*7D
$GPRMC,183004.000,A,3748.7090,N,12217.9423,W,2.35,191.64,071011,,,A*76
$GPRMC,183005.000,A,3748.7074,N,12217.9424,W,2.53,185.40,071011,,,A*79
$GPRMC,183006.000,A,3748.7063,N,12217.9430,W,2.49,184.35,071011,,,A*71
$GPRMC,183007.000,A,3748.7053,N,12217.9438,W,2.58,188.23,071011,,,A*70
$GPRMC,183008.000,A,3748.7044,N,12217.9444,W,2.54,190.25,071011,,,A*71
$GPRMC,183009.000,A,3748.7036,N,12217.9451,W,2.23,191.75,071011,,,A*75
$GPRMC,183010.000,A,3748.7033,N,12217.9447,W,1.98,183.57,071011,,,A*7F
$GPRMC,183011.000,A,3748.7031,N,12217.9450,W,2.06,192.32,071011,,,A*7D
$GPRMC,183012.000,A,3748.7026,N,12217.9458,W,1.95,190.39,071011,,,A*70
$GPRMC,183013.000,A,3748.7022,N,12217.9462,W,1.80,184.27,071011,,,A*72
$GPRMC,183014.000,A,3748.7017,N,12217.9465,W,1.88,186.39,071011,,,A*71
$GPRMC,183015.000,A,3748.7004,N,12217.9473,W,2.10,187.35,071011,,,A*7A
$GPRMC,183016.000,A,3748.7001,N,12217.9475,W,1.92,192.57,071011,,,A*73
$GPRMC,183017.000,A,3748.6992,N,12217.9478,W,1.97,184.86,071011,,,A*73
$GPRMC,183018.000,A,3748.6983,N,12217.9481,W,2.32,187.69,071011,,,A*74
$GPRMC,183019.000,A,3748.6970,N,12217.9488,W,2.47,194.91,071011,,,A*77
$GPRMC,183020.000,A,3748.6961,N,12217.9492,W,2.27,192.00,071011,,,A*7E
$GPRMC,183021.000,A,3748.6955,N,12217.9497,W,2.36,200.03,071011,,,A*76
$GPRMC,183022.000,A,3748.6946,N,12217.9501,W,2.45,214.78,071011,,,A*74
$GPRMC,183023.000,A,3748.6939,N,12217.9505,W,1.91,199.60,071011,,,A*7C
$GPRMC,183024.000,A,3748.6932,N,12217.9506,W,2.40,207.67,071011,,,A*7F
$GPRMC,183025.000,A,3748.6926,N,12217.9515,W,2.15,210.16,071011,,,A*79
$GPRMC,183026.000,A,3748.6920,N,12217.9525,W,2.38,208.57,071011,,,A*7C
$GPRMC,183027.000,A,3748.6911,N,12217.9531,W,2.10,194.61,071011,,,A*73
$GPRMC,183028.000,A,3748.6908,N,12217.9533,W,1.75,187.03,071011,,,A*70
$GPRMC,183029.000,A,3748.6899,N,12217.9537,W,1.94,199.46,071011,,,A*7D
$GPRMC,183030.000,A,3748.6893,N,12217.9541,W,2.18,194.00,071011,,,A*76
$GPRMC,183031.000,A,3748.6884,N,12217.9549,W,2.04,204.57,071011,,,A*7C
$GPRMC,183032.000,A,3748.6884,N,12217.9549,W,2.15,209.90,071011,,,A*79
$GPRMC,183033.000,A,3748.6887,N,12217.9550,W,1.77,202.96,071011,,,A*79
$GPRMC,183034.000,A,3748.6888,N,12217.9549,W,1.18,144.50,071011,,,A*7B
$GPRMC,183035.000,A,3748.6886,N,12217.9551,W,1.19,162.55,071011,,,A*7D
$GPRMC,183036.000,A,3748.6882,N,12217.9552,W,0.99,152.92,071011,,,A*78
$GPRMC,183037.000,A,3748.6877,N,12217.9555,W,0.76,138.18,071011,,,A*7B
$GPRMC,183038.000,A,3748.6873,N,12217.9558,W,1.07,199.60,071011,,,A*7E
$GPRMC,183039.000,A,3748.6860,N,12217.9568,W,2.02,197.51,071011,,,A*74
$GPRMC,183040.000,A,3748.6852,N,12217.9570,W,2.21,192.00,071011,,,A*72
$GPRMC,183041.000,A,3748.6839,N,12217.9577,W,2.34,196.41,071011,,,A*7C
$GPRMC,183042.000,A,3748.6827,N,12217.9586,W,2.69,198.98,071011,,,A*7C
$GPRMC,183043.000,A,3748.6818,N,12217.9596,W,2.25,194.50,071011,,,A*70
$GPRMC,183044.000,A,3748.6808,N,12217.9602,W,2.31,192.15,071011,,,A*7A
$GPRMC,183045.000,A,3748.6803,N,12217.9609,W,1.80,193.82,071011,,,A*7D
$GPRMC,183046.000,A,3748.6801,N,12217.9617,W,1.49,183.33,071011,,,A*7D
$GPRMC,183047.000,A,3748.6791,N,12217.9623,W,2.07,196.78,071011,,,A*7F
$GPRMC,183048.000,A,3748.6786,N,12217.9630,W,1.79,189.36,071011,,,A*7A
$GPRMC,183049.000,A,3748.6781,N,12217.9632,W,1.68,190.14,071011,,,A*76
$GPRMC,183050.000,A,3748.6777,N,12217.9634,W,1.65,204.39,071011,,,A*7D
$GPRMC,183051.000,A,3748.6780,N,12217.9637,W,0.69,205.65,071011,,,A*72
$GPRMC,183052.000,A,3748.6779,N,12217.9640,W,0.78,198.41,071011,,,A*76
$GPRMC,183053.000,A,3748.6778,N,12217.9644,W,1.24,172.32,071011,,,A*7A
$GPRMC,183054.000,A,3748.6776,N,12217.9649,W,1.16,185.08,071011,,,A*7E
$GPRMC,183055.000,A,3748.6776,N,12217.9654,W,1.54,211.78,071011,,,A*7C
$GPRMC,183056.000,A,3748.6774,N,12217.9661,W,1.70,217.28,071011,,,A*7E
$GPRMC,183057.000,A,3748.6770,N,12217.9669,W,1.48,210.13,071011,,,A*77
$GPRMC,183058.000,A,3748.6763,N,12217.9677,W,1.63,204.44,071011,,,A*7B
$GPRMC,183059.000,A,3748.6755,N,12217.9684,W,1.59,202.64,071011,,,A*7E
$GPRMC,183100.000,A,3748.6742,N,12217.9691,W,1.61,183.96,071011,,,A*7D
$GPRMC,183101.000,A,3748.6729,N,12217.9694,W,1.66,171.59,071011,,,A*7D
$GPRMC,183102.000,A,3748.6715,N,12217.9698,W,1.59,174.51,071011,,,A*7C
$GPRMC,183103.000,A,3748.6702,N,12217.9702,W,1.86,188.94,071011,,,A*71
$GPRMC,183104.000,A,3748.6685,N,12217.9704,W,2.31,190.54,071011,,,A*74
$GPRMC,183105.000,A,3748.6675,N,12217.9715,W,2.35,203.65,071011,,,A*75
$GPRMC,183106.000,A,3748.6666,N,12217.9727,W,2.44,225.26,071011,,,A*70
$GPRMC,183107.000,A,3748.6658,N,12217.9738,W,2.27,221.91,071011,,,A*7F
$GPRMC,183108.000,A,3748.6651,N,12217.9750,W,2.26,205.79,071011,,,A*76
$GPRMC,183109.000,A,3748.6641,N,12217.9756,W,2.20,188.36,071011,,,A*7B
$GPRMC,183110.000,A,3748.6630,N,12217.9767,W,2.60,194.97,071011,,,A*75
$GPRMC,183111.000,A,3748.6619,N,12217.9773,W,3.41,200.28,071011,,,A*72
$GPRMC,183112.000,A,3748.6606,N,12217.9777,W,3.01,187.92,071011,,,A*72
$GPRMC,183113.000,A,3748.6594,N,12217.9780,W,2.36,177.55,071011,,,A*72
$GPRMC,183114.000,A,3748.6589,N,12217.9785,W,1.77,178.89,071011,,,A*74
$GPRMC,183115.000,A,3748.6581,N,12217.9787,W,2.06,173.18,071011,,,A*79
$GPRMC,183116.000,A,3748.6569,N,12217.9791,W,2.53,181.93,071011,,,A*75
$GPRMC,183117.000,A,3748.6560,N,12217.9794,W,2.31,184.09,071011,,,A*7A
$GPRMC,183118.000,A,3748.6558,N,12217.9797,W,2.33,186.00,071011,,,A*74
$GPRMC,183119.000,A,3748.6552,N,12217.9802,W,2.36,189.84,071011,,,A*7A
$GPRMC,183120.000,A,3748.6548,N,12217.9806,W,1.55,173.54,071011,,,A*71
$GPRMC,183121.000,A,3748.6546,N,12217.9812,W,1.64,179.91,071011,,,A*7A
$GPRMC,183122.000,A,3748.6544,N,12217.9818,W,2.11,194.48,071011,,,A*77
$GPRMC,183123.000,A,3748.6541,N,12217.9822,W,2.36,185.97,071011,,,A*7D
$GPRMC,183124.000,A,3748.6539,N,12217.9821,W,1.94,175.11,071011,,,A*7C
$GPRMC,183125.000,A,3748.6534,N,12217.9824,W,1.97,182.00,071011,,,A*7E
$GPRMC,183126.000,A,3748.6536,N,12217.9824,W,1.69,182.29,071011,,,A*75
$GPRMC,183127.000,A,3748.6535,N,12217.9828,W,1.77,191.41,071011,,,A*78
$GPRMC,183128.000,A,3748.6531,N,12217.9836,W,1.96,206.76,071011,,,A*7A
$GPRMC,183129.000,A,3748.6531,N,12217.9845,W,1.93,202.66,071011,,,A*7F
$GPRMC,183130.000,A,3748.6526,N,12217.9853,W,1.66,194.95,071011,,,A*7C
$GPRMC,183131.000,A,3748.6519,N,12217.9857,W,1.47,172.96,071011,,,A*7D
$GPRMC,183132.000,A,3748.6507,N,12217.9858,W,1.83,174.27,071011,,,A*7A
$GPRMC,183133.000,A,3748.6499,N,12217.9862,W,1.83,173.74,071011,,,A*75
$GPRMC,183134.000,A,3748.6490,N,12217.9866,W,1.76,177.13,071011,,,A*70
$GPRMC,183135.000,A,3748.6482,N,12217.9872,W,1.71,186.51,071011,,,A*78
$GPRMC,183136.000,A,3748.6477,N,12217.9879,W,1.61,199.32,071011,,,A*70
$GPRMC,183137.000,A,3748.6469,N,12217.9882,W,1.22,182.11,071011,,,A*76
$GPRMC,183138.000,A,3748.6463,N,12217.9885,W,1.48,180.33,071011,,,A*7A
$GPRMC,183139.000,A,3748.6462,N,12217.9889,W,1.25,181.72,071011,,,A*79
$GPRMC,183140.000,A,3748.6460,N,12217.9891,W,1.23,179.83,071011,,,A*73
$GPRMC,183141.000,A,3748.6458,N,12217.9891,W,1.07,131.19,071011,,,A*70
$GPRMC,183142.000,A,3748.6453,N,12217.9892,W,1.03,186.41,071011,,,A*7E
$GPRMC,183143.000,A,3748.6441,N,12217.9900,W,1.74,199.01,071011,,,A*7C
$GPRMC,183144.000,A,3748.6436,N,12217.9905,W,1.40,180.65,071011,,,A*73
$GPRMC,183145.000,A,3748.6429,N,12217.9908,W,1.60,196.34,071011,,,A*70
$GPRMC,183146.000,A,3748.6423,N,12217.9911,W,1.65,191.67,071011,,,A*75
$GPRMC,183147.000,A,3748.6417,N,12217.9916,W,1.10,186.53,071011,,,A*77
$GPRMC,183148.000,A,3748.6409,N,12217.9921,W,0.89,172.49,071011,,,A*72
$GPRMC,183149.000,A,3748.6398,N,12217.9927,W,1.23,179.88,071011,,,A*7D
$GPRMC,183150.000,A,3748.6390,N,12217.9932,W,1.09,185.70,071011,,,A*75
$GPRMC,183151.000,A,3748.6382,N,12217.9937,W,1.08,179.24,071011,,,A*71
$GPRMC,183152.000,A,3748.6379,N,12217.9942,W,1.17,167.33,071011,,,A*73
$GPRMC,183153.000,A,3748.6376,N,12217.9947,W,1.20,159.31,071011,,,A*73
$GPRMC,183154.000,A,3748.6370,N,12217.9951,W,0.83,103.97,071011,,,A*7E
$GPRMC,183155.000,A,3748.6357,N,12217.9958,W,0.68,198.06,071011,,,A*7C
$GPRMC,183156.000,A,3748.6349,N,12217.9965,W,1.04,189.63,071011,,,A*76
$GPRMC,183157.000,A,3748.6337,N,12217.9975,W,1.26,184.35,071011,,,A*71
$GPRMC,183158.000,A,3748.6332,N,12217.9981,W,1.49,207.32,071011,,,A*76
$GPRMC,183159.000,A,3748.6331,N,12217.9986,W,1.90,208.96,071011,,,A*76
$GPRMC,183200.000,A,3748.6324,N,12217.9997,W,1.97,207.20,071011,,,A*78
$GPRMC,183201.000,A,3748.6309,N,12218.0008,W,2.06,204.39,071011,,,A*7F
$GPRMC,183202.000,A,3748.6298,N,12218.0018,W,2.12,207.43,071011,,,A*7F
$GPRMC,183203.000,A,3748.6291,N,12218.0027,W,2.07,205.75,071011,,,A*78
$GPRMC,183204.000,A,3748.6289,N,12218.0030,W,1.95,191.92,071011,,,A*7F
$GPRMC,183205.000,A,3748.6288,N,12218.0027,W,1.85,157.96,071011,,,A*76
$GPRMC,183206.000,A,3748.6278,N,12218.0025,W,2.35,145.12,071011,,,A*7F
$GPRMC,183207.000,A,3748.6266,N,12218.0023,W,2.83,126.16,071011,,,A*7B
$GPRMC,183208.000,A,3748.6255,N,12218.0017,W,2.97,121.62,071011,,,A*72
$GPRMC,183209.000,A,3748.6247,N,12218.0013,W,2.57,116.71,071011,,,A*7E
$GPRMC,183210.000,A,3748.6237,N,12218.0006,W,2.60,112.39,071011,,,A*79
$GPRMC,183211.000,A,3748.6226,N,12217.9999,W,2.50,119.69,071011,,,A*7C
$GPRMC,183212.000,A,3748.6218,N,12217.9991,W,1.81,111.36,071011,,,A*77
$GPRMC,183213.000,A,3748.6208,N,12217.9987,W,1.92,110.30,071011,,,A*75
$GPRMC,183214.000,A,3748.6195,N,12217.9985,W,2.10,118.95,071011,,,A*79
$GPRMC,183215.000,A,3748.6183,N,12217.9977,W,2.24,120.31,071011,,,A*70
$GPRMC,183216.000,A,3748.6172,N,12217.9970,W,2.14,135.17,071011,,,A*79
$GPRMC,183217.000,A,3748.6166,N,12217.9961,W,2.36,124.88,071011,,,A*7B
$GPRMC,183218.000,A,3748.6157,N,12217.9951,W,2.39,118.77,071011,,,A*75
$GPRMC,183219.000,A,3748.6153,N,12217.9943,W,1.89,117.29,071011,,,A*7F
$GPRMC,183220.000,A,3748.6150,N,12217.9932,W,2.83,127.38,071011,,,A*7A
$GPRMC,183221.000,A,3748.6145,N,12217.9919,W,2.75,117.88,071011,,,A*77
$GPRMC,183222.000,A,3748.6139,N,12217.9904,W,3.02,118.62,071011,,,A*79
$GPRMC,183223.000,A,3748.6133,N,12217.9889,W,2.65,120.50,071011,,,A*7C
$GPRMC,183224.000,A,3748.6127,N,12217.9876,W,1.96,111.51,071011,,,A*72
$GPRMC,183225.000,A,3748.6123,N,12217.9863,W,2.27,93.69,071011,,,A*4A
$GPRMC,183226.000,A,3748.6118,N,12217.9848,W,2.25,100.24,071011,,,A*78
$GPRMC,183227.000,A,3748.6118,N,12217.9840,W,1.97,106.72,071011,,,A*7E
$GPRMC,183228.000,A,3748.6113,N,12217.9835,W,1.60,125.11,071011,,,A*74
$GPRMC,183229.000,A,3748.6108,N,12217.9832,W,1.46,128.90,071011,,,A*78
$GPRMC,183230.000,A,3748.6103,N,12217.9828,W,1.59,121.91,071011,,,A*76
$GPRMC,183231.000,A,3748.6097,N,12217.9822,W,2.14,128.00,071011,,,A*7A
$GPRMC,183232.000,A,3748.6090,N,12217.9813,W,2.11,125.19,071011,,,A*7C
$GPRMC,183233.000,A,3748.6086,N,12217.9807,W,1.91,114.23,071011,,,A*7F
$GPRMC,183234.000,A,3748.6085,N,12217.9799,W,1.59,107.74,071011,,,A*77
$GPRMC,183235.000,A,3748.6081,N,12217.9790,W,1.87,96.92,071011,,,A*49
$GPRMC,183236.000,A,3748.6076,N,12217.9778,W,1.37,124.98,071011,,,A*7D
$GPRMC,183237.000,A,3748.6068,N,12217.9760,W,1.73,120.20,071011,,,A*7D
$GPRMC,183238.000,A,3748.6064,N,12217.9746,W,1.99,111.90,071011,,,A*77
$GPRMC,183239.000,A,3748.6061,N,12217.9736,W,2.79,105.97,071011,,,A*7B
$GPRMC,183240.000,A,3748.6056,N,12217.9723,W,2.41,114.39,071011,,,A*7A
$GPRMC,183241.000,A,3748.6048,N,12217.9710,W,2.16,127.99,071011,,,A*7C
$GPRMC,183242.000,A,3748.6040,N,12217.9695,W,2.18,120.65,071011,,,A*71
$GPRMC,183243.000,A,3748.6039,N,12217.9686,W,2.24,102.84,071011,,,A*7C
$GPRMC,183244.000,A,3748.6036,N,12217.9678,W,2.25,107.26,071011,,,A*79
$GPRMC,183245.000,A,3748.6033,N,12217.9672,W,1.75,106.36,071011,,,A*71
$GPRMC,183246.000,A,3748.6030,N,12217.9665,W,1.97,113.00,071011,,,A*7A
$GPRMC,183247.000,A,3748.6025,N,12217.9655,W,1.90,108.43,071011,,,A*76
$GPRMC,183248.000,A,3748.6019,N,12217.9642,W,1.96,96.45,071011,,,A*46
$GPRMC,183249.000,A,3748.6017,N,12217.9633,W,1.51,97.88,071011,,,A*44
$GPRMC,183250.000,A,3748.6012,N,12217.9622,W,1.47,111.64,071011,,,A*73
$GPRMC,183251.000,A,3748.6005,N,12217.9609,W,1.39,100.53,071011,,,A*70
$GPRMC,183252.000,A,3748.5999,N,12217.9596,W,1.89,103.58,071011,,,A*7A
$GPRMC,183253.000,A,3748.5996,N,12217.9591,W,1.55,115.40,071011,,,A*7C
$GPRMC,183254.000,A,3748.5993,N,12217.9586,W,1.59,113.52,071011,,,A*71
$GPRMC,183255.000,A,3748.5992,N,12217.9582,W,1.71,120.04,071011,,,A*7C
$GPRMC,183256.000,A,3748.5985,N,12217.9577,W,1.49,127.75,071011,,,A*79
$GPRMC,183257.000,A,3748.5976,N,12217.9567,W,2.09,123.92,071011,,,A*7F
$GPRMC,183258.000,A,3748.5969,N,12217.9562,W,1.94,132.04,071011,,,A*73
$GPRMC,183259.000,A,3748.5961,N,12217.9558,W,1.89,129.21,071011,,,A*72
$GPRMC,183300.000,A,3748.5955,N,12217.9545,W,2.22,115.78,071011,,,A*75
$GPRMC,183301.000,A,3748.5951,N,12217.9535,W,1.89,120.57,071011,,,A*7E
$GPRMC,183302.000,A,3748.5942,N,12217.9529,W,2.05,138.53,071011,,,A*78
$GPRMC,183303.000,A,3748.5942,N,12217.9527,W,1.20,120.11,071011,,,A*7C
$GPRMC,183304.000,A,3748.5939,N,12217.9523,W,1.76,123.74,071011,,,A*70
$GPRMC,183305.000,A,3748.5934,N,12217.9511,W,2.37,121.43,071011,,,A*7D
$GPRMC,183306.000,A,3748.5929,N,12217.9492,W,2.25,118.07,071011,,,A*71
$GPRMC,183307.000,A,3748.5929,N,12217.9482,W,2.11,118.08,071011,,,A*79
$GPRMC,183308.000,A,3748.5925,N,12217.9477,W,2.23,116.49,071011,,,A*7A
$GPRMC,183309.000,A,3748.5921,N,12217.9466,W,2.43,118.88,071011,,,A*7A
$GPRMC,183310.000,A,3748.5913,N,12217.9449,W,2.61,121.79,071011,,,A*7A
$GPRMC,183311.000,A,3748.5910,N,12217.9439,W,2.58,110.45,071011,,,A*78
$GPRMC,183312.000,A,3748.5911,N,12217.9436,W,1.39,100.51,071011,,,A*75
$GPRMC,183313.000,A,3748.5908,N,12217.9423,W,1.93,110.72,071011,,,A*78
$GPRMC,183314.000,A,3748.5900,N,12217.9412,W,1.86,112.32,071011,,,A*77
$GPRMC,183315.000,A,3748.5895,N,12217.9411,W,2.01,115.81,071011,,,A*7B
$GPRMC,183316.000,A,3748.5884,N,12217.9399,W,2.78,119.62,071011,,,A*70
$GPRMC,183317.000,A,3748.5876,N,12217.9390,W,1.93,119.47,071011,,,A*74
$GPRMC,183318.000,A,3748.5867,N,12217.9392,W,1.76,154.50,071011,,,A*7D
$GPRMC,183319.000,A,3748.5856,N,12217.9399,W,2.06,150.30,071011,,,A*73
$GPRMC,183320.000,A,3748.5851,N,12217.9403,W,0.93,125.91,071011,,,A*7D
$GPRMC,183321.000,A,3748.5842,N,12217.9401,W,0.99,125.31,071011,,,A*7C
$GPRMC,183322.000,A,3748.5842,N,12217.9403,W,1.10,155.57,071011,,,A*7A
$GPRMC,183323.000,A,3748.5841,N,12217.9402,W,1.04,184.45,071011,,,A*73
$GPRMC,183324.000,A,3748.5832,N,12217.9406,W,1.77,183.10,071011,,,A*77
$GPRMC,183325.000,A,3748.5820,N,12217.9405,W,1.76,209.38,071011,,,A*7C
$GPRMC,183326.000,A,3748.5814,N,12217.9413,W,2.20,209.16,071011,,,A*73
$GPRMC,183327.000,A,3748.5806,N,12217.9429,W,2.99,227.34,071011,,,A*76
$GPRMC,183328.000,A,3748.5800,N,12217.9439,W,3.05,212.31,071011,,,A*79
$GPRMC,183329.000,A,3748.5787,N,12217.9446,W,3.10,202.54,071011,,,A*76
$GPRMC,183330.000,A,3748.5777,N,12217.9458,W,3.04,201.18,071011,,,A*70
$GPRMC,183331.000,A,3748.5775,N,12217.9464,W,2.77,201.56,071011,,,A*73
$GPRMC,183332.000,A,3748.5771,N,12217.9464,W,2.27,205.66,071011,,,A*76
$GPRMC,183333.000,A,3748.5763,N,12217.9468,W,2.38,184.47,071011,,,A*7F
$GPRMC,183334.000,A,3748.5756,N,12217.9469,W,2.34,187.92,071011,,,A*78
$GPRMC,183335.000,A,3748.5755,N,12217.9468,W,2.25,192.74,071011,,,D*72
$GPRMC,183336.000,A,3748.5750,N,12217.9474,W,2.08,200.48,071011,,,D*71
$GPRMC,183337.000,A,3748.5745,N,12217.9479,W,2.18,195.89,071011,,,D*7A
$GPRMC,183338.000,A,3748.5742,N,12217.9478,W,1.87,193.73,071011,,,D*75
$GPRMC,183339.000,A,3748.5735,N,12217.9481,W,1.99,187.28,071011,,,D*76
$GPRMC,183340.000,A,3748.5730,N,12217.9480,W,2.29,185.89,071011,,,D*7D
$GPRMC,183341.000,A,3748.5721,N,12217.9482,W,2.31,188.35,071011,,,D*7D
$GPRMC,183342.000,A,3748.5715,N,12217.9484,W,1.96,206.72,071011,,,D*77
$GPRMC,183343.000,A,3748.5711,N,12217.9487,W,1.81,170.83,071011,,,D*7B
$GPRMC,183344.000,A,3748.5711,N,12217.9492,W,1.25,179.86,071011,,,D*7A
$GPRMC,183345.000,A,3748.5708,N,12217.9494,W,1.48,193.53,071011,,,D*72
$GPRMC,183346.000,A,3748.5706,N,12217.9499,W,1.65,199.33,071011,,,D*71
$GPRMC,183347.000,A,3748.5702,N,12217.9506,W,1.77,197.48,071011,,,D*72
$GPRMC,183348.000,A,3748.5697,N,12217.9511,W,1.57,186.67,071011,,,D*79
$GPRMC,183349.000,A,3748.5691,N,12217.9513,W,1.91,196.46,071011,,,D*74
$GPRMC,183350.000,A,3748.5690,N,12217.9517,W,1.75,194.13,071011,,,D*71
$GPRMC,183351.000,A,3748.5684,N,12217.9521,W,1.64,188.72,071011,,,D*7A
$GPRMC,183352.000,A,3748.5680,N,12217.9525,W,1.80,201.98,071011,,,D*75
$GPRMC,183353.000,A,3748.5674,N,12217.9530,W,1.81,190.70,071011,,,D*77
$GPRMC,183354.000,A,3748.5664,N,12217.9539,W,1.86,190.40,071011,,,D*7C
$GPRMC,183355.000,A,3748.5660,N,12217.9544,W,1.47,176.13,071011,,,D*70
$GPRMC,183356.000,A,3748.5654,N,12217.9550,W,1.78,190.79,071011,,,D*79
$GPRMC,183357.000,A,3748.5645,N,12217.9555,W,2.04,195.80,071011,,,D*76
$GPRMC,183358.000,A,3748.5641,N,12217.9561,W,1.93,193.50,071011,,,D*7C
$GPRMC,183359.000,A,3748.5631,N,12217.9569,W,1.77,194.58,071011,,,D*77
$GPRMC,183400.000,A,3748.5627,N,12217.9574,W,1.32,200.01,071011,,,D*74
$GPRMC,183401.000,A,3748.5621,N,12217.9586,W,1.82,199.83,071011,,,D*7C
$GPRMC,183402.000,A,3748.5619,N,12217.9589,W,1.55,195.64,071011,,,D*74
$GPRMC,183403.000,A,3748.5611,N,12217.9591,W,1.48,177.36,071011,,,D*73
$GPRMC,183404.000,A,3748.5604,N,12217.9593,W,1.61,189.27,071011,,,D*78
$GPRMC,183405.000,A,3748.5600,N,12217.9594,W,1.30,182.13,071011,,,D*72
$GPRMC,183406.000,A,3748.5590,N,12217.9599,W,1.67,195.25,071011,,,D*77
$GPRMC,183407.000,A,3748.5579,N,12217.9607,W,1.68,196.98,071011,,,D*7F
$GPRMC,183408.000,A,3748.5570,N,12217.9614,W,1.78,201.25,071011,,,D*71
$GPRMC,183409.000,A,3748.5562,N,12217.9621,W,1.92,211.11,071011,,,D*77
$GPRMC,183410.000,A,3748.5556,N,12217.9624,W,2.00,197.85,071011,,,D*75
$GPRMC,183411.000,A,3748.5551,N,12217.9628,W,1.97,198.28,071011,,,D*7A
$GPRMC,183412.000,A,3748.5543,N,12217.9637,W,2.43,206.07,071011,,,A*72
$GPRMC,183413.000,A,3748.5538,N,12217.9642,W,2.01,202.09,071011,,,A*71
$GPRMC,183414.000,A,3748.5528,N,12217.9649,W,2.10,205.15,071011,,,A*76
$GPRMC,183415.000,A,3748.5520,N,12217.9654,W,2.37,209.34,071011,,,A*79
$GPRMC,183416.000,A,3748.5508,N,12217.9664,W,2.79,215.43,071011,,,A*74
$GPRMC,183417.000,A,3748.5499,N,12217.9673,W,2.77,209.71,071011,,,A*78
$GPRMC,183418.000,A,3748.5491,N,12217.9679,W,2.38,201.01,071011,,,A*71
$GPRMC,183419.000,A,3748.5486,N,12217.9681,W,2.36,203.85,071011,,,A*71
$GPRMC,183420.000,A,3748.5484,N,12217.9684,W,2.32,207.64,071011,,,A*73
$GPRMC,183421.000,A,3748.5477,N,12217.9690,W,2.05,204.36,071011,,,A*7B
$GPRMC,183422.000,A,3748.5470,N,12217.9695,W,2.01,189.56,071011,,,A*7E
$GPRMC,183423.000,A,3748.5464,N,12217.9702,W,1.88,194.49,071011,,,A*75
$GPRMC,183424.000,A,3748.5460,N,12217.9707,W,1.98,200.39,071011,,,D*7E
$GPRMC,183425.000,A,3748.5454,N,12217.9712,W,2.50,214.33,071011,,,D*74
$GPRMC,183426.000,A,3748.5444,N,12217.9722,W,2.42,201.59,071011,,,D*7E
$GPRMC,183427.000,A,3748.5433,N,12217.9732,W,2.48,193.46,071011,,,D*72
$GPRMC,183428.000,A,3748.5425,N,12217.9738,W,2.45,200.77,071011,,,D*76
$GPRMC,183429.000,A,3748.5416,N,12217.9746,W,2.17,197.37,071011,,,D*70
$GPRMC,183430.000,A,3748.5408,N,12217.9751,W,1.94,186.32,071011,,,D*7C
$GPRMC,183431.000,A,3748.5401,N,12217.9759,W,2.10,190.58,071011,,,D*78
$GPRMC,183432.000,A,3748.5395,N,12217.9768,W,2.27,207.69,071011,,,D*78
$GPRMC,183433.000,A,3748.5384,N,12217.9778,W,2.41,201.92,071011,,,D*7A
$GPRMC,183434.000,A,3748.5372,N,12217.9783,W,2.63,197.89,071011,,,D*76
$GPRMC,183435.000,A,3748.5355,N,12217.9789,W,2.50,177.90,071011,,,D*7E
$GPRMC,183436.000,A,3748.5344,N,12217.9784,W,2.54,155.73,071011,,,D*79
$GPRMC,183437.000,A,3748.5339,N,12217.9776,W,2.44,162.67,071011,,,D*7F
$GPRMC,183438.000,A,3748.5326,N,12217.9779,W,2.92,192.25,071011,,,D*73
$GPRMC,183439.000,A,3748.5319,N,12217.9789,W,2.82,205.95,071011,,,D*76
$GPRMC,183440.000,A,3748.5315,N,12217.9793,W,2.74,229.01,071011,,,D*75
$GPRMC,183441.000,A,3748.5312,N,12217.9802,W,2.27,231.82,071011,,,D*70
$GPRMC,183442.000,A,3748.5307,N,12217.9807,W,2.21,198.17,071011,,,D*78
$GPRMC,183443.000,A,3748.5300,N,12217.9812,W,2.33,197.88,071011,,,D*70
$GPRMC,183444.000,A,3748.5292,N,12217.9815,W,2.19,202.97,071011,,,D*73
$GPRMC,183445.000,A,3748.5283,N,12217.9819,W,2.23,197.72,071011,,,D*73
$GPRMC,183446.000,A,3748.5282,N,12217.9821,W,1.97,195.45,071011,,,D*70
$GPRMC,183447.000,A,3748.5278,N,12217.9826,W,2.63,207.81,071011,,,D*7B
$GPRMC,183448.000,A,3748.5274,N,12217.9830,W,2.05,204.88,071011,,,D*75
$GPRMC,183449.000,A,3748.5269,N,12217.9833,W,1.97,195.15,071011,,,D*7C
$GPRMC,183450.000,A,3748.5261,N,12217.9842,W,1.86,198.23,071011,,,D*72
$GPRMC,183451.000,A,3748.5252,N,12217.9849,W,2.17,193.57,071011,,,D*7B
$GPRMC,183452.000,A,3748.5243,N,12217.9858,W,2.14,199.06,071011,,,D*75
$GPRMC,183453.000,A,3748.5238,N,12217.9863,W,2.07,194.40,071011,,,D*7D
$GPRMC,183454.000,A,3748.5228,N,12217.9868,W,2.39,199.80,071011,,,D*7C
$GPRMC,183455.000,A,3748.5222,N,12217.9875,W,2.31,198.95,071011,,,D*76
$GPRMC,183456.000,A,3748.5213,N,12217.9881,W,1.97,195.91,071011,,,D*7A
$GPRMC,183457.000,A,3748.5207,N,12217.9887,W,1.60,204.18,071011,,,D*7A
$GPRMC,183458.000,A,3748.5199,N,12217.9894,W,1.95,192.09,071011,,,D*75
$GPRMC,183459.000,A,3748.5188,N,12217.9902,W,2.05,196.50,071011,,,D*78
$GPRMC,183500.000,A,3748.5180,N,12217.9911,W,2.62,213.60,071011,,,D*73
$GPRMC,183501.000,A,3748.5173,N,12217.9918,W,2.20,203.44,071011,,,D*76
$GPRMC,183502.000,A,3748.5165,N,12217.9924,W,2.38,191.73,071011,,,D*78
$GPRMC,183503.000,A,3748.5158,N,12217.9930,W,1.95,193.62,071011,,,D*74
$GPRMC,183504.000,A,3748.5151,N,12217.9937,W,1.70,189.90,071011,,,D*70
$GPRMC,183505.000,A,3748.5145,N,12217.9944,W,1.57,197.48,071011,,,D*7F
$GPRMC,183506.000,A,3748.5141,N,12217.9950,W,1.69,209.56,071011,,,D*7B
$GPRMC,183507.000,A,3748.5137,N,12217.9955,W,1.33,200.95,071011,,,D*77
$GPRMC,183508.000,A,3748.5132,N,12217.9962,W,1.91,203.30,071011,,,D*7D
$GPRMC,183509.000,A,3748.5125,N,12217.9966,W,1.93,193.77,071011,,,D*75
$GPRMC,183510.000,A,3748.5119,N,12217.9971,W,1.81,203.75,071011,,,D*7F
$GPRMC,183511.000,A,3748.5112,N,12217.9977,W,2.22,201.72,071011,,,D*7C
$GPRMC,183512.000,A,3748.5106,N,12217.9982,W,1.73,198.79,071011,,,D*7F
$GPRMC,183513.000,A,3748.5103,N,12217.9983,W,1.49,185.41,071011,,,D*74
$GPRMC,183514.000,A,3748.5102,N,12217.9985,W,1.03,178.00,071011,,,D*7D
$GPRMC,183515.000,A,3748.5099,N,12217.9991,W,1.56,233.13,071011,,,D*74
$GPRMC,183516.000,A,3748.5089,N,12217.9997,W,1.84,212.57,071011,,,D*7C
$GPRMC,183517.000,A,3748.5082,N,12218.0001,W,1.94,216.67,071011,,,D*70
$GPRMC,183518.000,A,3748.5082,N,12218.0003,W,1.45,202.19,071011,,,D*7D
$GPRMC,183519.000,A,3748.5071,N,12218.0014,W,2.30,200.90,071011,,,D*74
$GPRMC,183520.000,A,3748.5060,N,12218.0021,W,2.24,196.95,071011,,,D*74
$GPRMC,183521.000,A,3748.5051,N,12218.0028,W,1.98,194.52,071011,,,D*73
$GPRMC,183522.000,A,3748.5040,N,12218.0034,W,2.12,197.57,071011,,,D*7A
$GPRMC,183523.000,A,3748.5034,N,12218.0041,W,2.37,211.85,071011,,,D*7F
$GPRMC,183524.000,A,3748.5026,N,12218.0050,W,2.44,210.06,071011,,,D*75
$GPRMC,183525.000,A,3748.5018,N,12218.0057,W,2.17,207.92,071011,,,D*73
$GPRMC,183526.000,A,3748.5013,N,12218.0063,W,2.27,202.43,071011,,,D*76
$GPRMC,183527.000,A,3748.5006,N,12218.0072,W,2.00,217.41,071011,,,D*70
$GPRMC,183528.000,A,3748.5000,N,12218.0078,W,2.17,205.26,071011,,,D*77
$GPRMC,183529.000,A,3748.4993,N,12218.0080,W,2.15,206.72,071011,,,D*73
$GPRMC,183530.000,A,3748.4986,N,12218.0087,W,2.28,215.01,071011,,,D*70
$GPRMC,183531.000,A,3748.4976,N,12218.0095,W,2.44,206.96,071011,,,D*7B
$GPRMC,183532.000,A,3748.4966,N,12218.0104,W,2.47,200.80,071011,,,D*72
$GPRMC,183533.000,A,3748.4954,N,12218.0113,W,2.54,195.30,071011,,,D*72
$GPRMC,183534.000,A,3748.4946,N,12218.0122,W,2.73,209.93,071011,,,D*7E
$GPRMC,183535.000,A,3748.4943,N,12218.0132,W,2.63,208.74,071011,,,D*72
$GPRMC,183536.000,A,3748.4941,N,12218.0140,W,2.03,190.60,071011,,,D*77
$GPRMC,183537.000,A,3748.4934,N,12218.0147,W,2.69,202.85,071011,,,D*7C
$GPRMC,183538.000,A,3748.4926,N,12218.0155,W,2.30,198.21,071011,,,D*71
$GPRMC,183539.000,A,3748.4918,N,12218.0157,W,1.83,175.46,071011,,,D*76
$GPRMC,183540.000,A,3748.4911,N,12218.0159,W,1.86,183.32,071011,,,D*70
$GPRMC,183541.000,A,3748.4901,N,12218.0168,W,2.15,199.18,071011,,,D*78
$GPRMC,183542.000,A,3748.4895,N,12218.0173,W,2.16,200.21,071011,,,D*77
$GPRMC,183543.000,A,3748.4890,N,12218.0176,W,2.20,205.98,071011,,,D*74
$GPRMC,183544.000,A,3748.4885,N,12218.0180,W,2.05,203.59,071011,,,D*72
$GPRMC,183545.000,A,3748.4877,N,12218.0182,W,2.18,212.40,071011,,,D*78
$GPRMC,183546.000,A,3748.4867,N,12218.0189,W,2.00,221.56,071011,,,D*7F
$GPRMC,183547.000,A,3748.4860,N,12218.0194,W,2.19,198.47,071011,,,D*7C
$GPRMC,183548.000,A,3748.4851,N,12218.0200,W,2.16,195.94,071011,,,D*73
$GPRMC,183549.000,A,3748.4845,N,12218.0205,W,2.11,198.29,071011,,,D*7E
$GPRMC,183550.000,A,3748.4836,N,12218.0210,W,2.18,193.45,071011,,,D*7E
$GPRMC,183551.000,A,3748.4828,N,12218.0215,W,1.94,194.15,071011,,,D*70
$GPRMC,183552.000,A,3748.4823,N,12218.0219,W,1.82,195.18,071011,,,D*7F
$GPRMC,183553.000,A,3748.4811,N,12218.0221,W,2.28,189.72,071011,,,D*76
$GPRMC,183554.000,A,3748.4803,N,12218.0225,W,2.06,184.82,071011,,,D*78
$GPRMC,183555.000,A,3748.4797,N,12218.0233,W,2.02,200.63,071011,,,D*78
$GPRMC,183556.000,A,3748.4794,N,12218.0246,W,2.31,210.28,071011,,,D*74
$GPRMC,183557.000,A,3748.4786,N,12218.0261,W,2.18,204.21,071011,,,D*74
$GPRMC,183558.000,A,3748.4782,N,12218.0269,W,2.08,207.42,071011,,,D*70
$GPRMC,183559.000,A,3748.4780,N,12218.0272,W,2.15,200.28,071011,,,D*7E
$GPRMC,183600.000,A,3748.4767,N,12218.0288,W,2.24,202.47,071011,,,D*74
$GPRMC,183601.000,A,3748.4756,N,12218.0294,W,2.56,200.79,071011,,,D*70
$GPRMC,183602.000,A,3748.4745,N,12218.0301,W,2.15,193.37,071011,,,D*78
$GPRMC,183603.000,A,3748.4729,N,12218.0314,W,2.48,197.77,071011,,,D*7F
$GPRMC,183604.000,A,3748.4720,N,12218.0317,W,2.41,194.65,071011,,,D*7B
$GPRMC,183605.000,A,3748.4712,N,12218.0323,W,2.33,191.33,071011,,,D*7F
$GPRMC,183606.000,A,3748.4705,N,12218.0328,W,2.34,191.82,071011,,,D*7C
$GPRMC,183607.000,A,3748.4698,N,12218.0333,W,2.21,192.62,071011,,,D*7B
$GPRMC,183608.000,A,3748.4690,N,12218.0338,W,2.27,198.95,071011,,,D*73
$GPRMC,183609.000,A,3748.4686,N,12218.0346,W,2.05,197.44,071011,,,D*7F
$GPRMC,183610.000,A,3748.4681,N,12218.0350,W,1.94,190.32,071011,,,D*7A
$GPRMC,183611.000,A,3748.4674,N,12218.0354,W,2.25,181.73,071011,,,D*79
$GPRMC,183612.000,A,3748.4667,N,12218.0359,W,2.49,179.45,071011,,,D*7D
$GPRMC,183613.000,A,3748.4653,N,12218.0362,W,2.23,200.45,071011,,,D*72
$GPRMC,183614.000,A,3748.4641,N,12218.0366,W,2.23,189.65,071011,,,D*72
$GPRMC,183615.000,A,3748.4629,N,12218.0373,W,2.76,197.01,071011,,,D*74
$GPRMC,183616.000,A,3748.4620,N,12218.0378,W,3.07,198.89,071011,,,D*7D
$GPRMC,183617.000,A,3748.4608,N,12218.0384,W,2.92,193.56,071011,,,D*71
$GPRMC,183618.000,A,3748.4601,N,12218.0385,W,2.51,176.81,071011,,,D*78
$GPRMC,183619.000,A,3748.4592,N,12218.0386,W,2.62,175.20,071011,,,D*7B
$GPRMC,183620.000,A,3748.4586,N,12218.0386,W,2.59,172.86,071011,,,D*77
$GPRMC,183621.000,A,3748.4576,N,12218.0391,W,2.70,191.49,071011,,,D*7A
$GPRMC,183622.000,A,3748.4566,N,12218.0397,W,2.71,192.16,071011,,,D*76
$GPRMC,183623.000,A,3748.4553,N,12218.0401,W,2.83,188.09,071011,,,D*71
$GPRMC,183624.000,A,3748.4545,N,12218.0404,W,2.69,183.86,071011,,,D*7C
$GPRMC,183625.000,A,3748.4542,N,12218.0401,W,2.35,180.51,071011,,,D*7F
$GPRMC,183626.000,A,3748.4540,N,12218.0397,W,1.94,179.87,071011,,,D*73
$GPRMC,183627.000,A,3748.4535,N,12218.0395,W,2.11,177.29,071011,,,D*76
$GPRMC,183628.000,A,3748.4528,N,12218.0394,W,1.82,203.82,071011,,,D*7C
$GPRMC,183629.000,A,3748.4524,N,12218.0389,W,2.25,193.00,071011,,,D*73
$GPRMC,183630.000,A,3748.4519,N,12218.0391,W,2.06,195.67,071011,,,D*7A
$GPRMC,183631.000,A,3748.4511,N,12218.0390,W,1.99,186.48,071011,,,D*78
$GPRMC,183632.000,A,3748.4502,N,12218.0387,W,2.14,199.34,071011,,,D*7C
$GPRMC,183633.000,A,3748.4496,N,12218.0390,W,2.02,215.69,071011,,,D*7F
$GPRMC,183634.000,A,3748.4490,N,12218.0392,W,2.31,189.86,071011,,,D*7B
$GPRMC,183635.000,A,3748.4483,N,12218.0393,W,2.33,171.35,071011,,,D*74
$GPRMC,183636.000,A,3748.4471,N,12218.0398,W,2.35,169.09,071011,,,D*71
$GPRMC,183637.000,A,3748.4464,N,12218.0403,W,1.97,189.19,071011,,,D*75
$GPRMC,183638.000,A,3748.4454,N,12218.0411,W,2.17,186.12,071011,,,D*75
$GPRMC,183639.000,A,3748.4441,N,12218.0416,W,2.52,182.47,071011,,,D*72
$GPRMC,183640.000,A,3748.4430,N,12218.0423,W,2.71,179.75,071011,,,D*78
$GPRMC,183641.000,A,3748.4418,N,12218.0425,W,2.94,182.96,071011,,,D*77
$GPRMC,183642.000,A,3748.4412,N,12218.0429,W,2.84,190.60,071011,,,D*79
$GPRMC,183643.000,A,3748.4408,N,12218.0425,W,2.44,176.60,071011,,,D*7B
$GPRMC,183644.000,A,3748.4406,N,12218.0420,W,2.06,163.10,071011,,,D*72
$GPRMC,183645.000,A,3748.4399,N,12218.0423,W,1.97,173.30,071011,,,D*79
$GPRMC,183646.000,A,3748.4392,N,12218.0425,W,2.23,183.12,071011,,,D*74
$GPRMC,183647.000,A,3748.4385,N,12218.0426,W,2.49,188.10,071011,,,D*75
$GPRMC,183648.000,A,3748.4377,N,12218.0429,W,2.38,175.71,071011,,,D*7B
$GPRMC,183649.000,A,3748.4370,N,12218.0435,W,1.72,204.89,071011,,,D*7F
$GPRMC,183650.000,A,3748.4364,N,12218.0441,W,1.39,201.29,071011,,,D*71
$GPRMC,183651.000,A,3748.4357,N,12218.0446,W,1.93,196.61,071011,,,D*76
$GPRMC,183652.000,A,3748.4350,N,12218.0448,W,2.28,171.33,071011,,,D*71
$GPRMC,183653.000,A,3748.4342,N,12218.0450,W,2.67,195.22,071011,,,D*7B
$GPRMC,183654.000,A,3748.4333,N,12218.0456,W,2.54,193.04,071011,,,D*7E
$GPRMC,183655.000,A,3748.4327,N,12218.0459,W,2.01,205.89,071011,,,D*7C
$GPRMC,183656.000,A,3748.4321,N,12218.0462,W,2.12,198.42,071011,,,D*73
$GPRMC,183657.000,A,3748.4311,N,12218.0463,W,2.41,189.00,071011,,,D*70
$GPRMC,183658.000,A,3748.4299,N,12218.0463,W,2.58,191.27,071011,,,D*7A
$GPRMC,183659.000,A,3748.4288,N,12218.0467,W,3.19,197.12,071011,,,D*7B
$GPRMC,183700.000,A,3748.4280,N,12218.0476,W,2.64,201.69,071011,,,D*75
$GPRMC,183701.000,A,3748.4272,N,12218.0485,W,2.74,201.47,071011,,,D*78
$GPRMC,183702.000,A,3748.4265,N,12218.0490,W,2.11,202.36,071011,,,D*7F
$GPRMC,183703.000,A,3748.4256,N,12218.0493,W,1.79,183.28,071011,,,D*75
$GPRMC,183704.000,A,3748.4251,N,12218.0492,W,2.10,176.02,071011,,,D*7A
$GPRMC,183705.000,A,3748.4242,N,12218.0495,W,1.51,190.36,071011,,,D*77
$GPRMC,183706.000,A,3748.4238,N,12218.0499,W,1.48,214.88,071011,,,D*77
$GPRMC,183707.000,A,3748.4232,N,12218.0503,W,1.40,193.22,071011,,,D*7A
$GPRMC,183708.000,A,3748.4227,N,12218.0505,W,1.71,179.05,071011,,,D*74
$GPRMC,183709.000,A,3748.4218,N,12218.0507,W,2.29,187.13,071011,,,D*73
$GPRMC,183710.000,A,3748.4209,N,12218.0510,W,2.30,189.62,071011,,,D*7D
$GPRMC,183711.000,A,3748.4199,N,12218.0515,W,2.56,189.13,071011,,,D*75
$GPRMC,183712.000,A,3748.4191,N,12218.0520,W,2.26,184.20,071011,,,D*72
$GPRMC,183713.000,A,3748.4182,N,12218.0524,W,2.26,184.76,071011,,,D*76
$GPRMC,183714.000,A,3748.4174,N,12218.0527,W,2.03,173.83,071011,,,D*7E
$GPRMC,183715.000,A,3748.4168,N,12218.0528,W,1.88,166.75,071011,,,D*70
$GPRMC,183716.000,A,3748.4162,N,12218.0530,W,1.59,164.63,071011,,,D*79
$GPRMC,183717.000,A,3748.4156,N,12218.0532,W,1.51,158.09,071011,,,D*76
$GPRMC,183718.000,A,3748.4149,N,12218.0535,W,1.76,172.95,071011,,,D*78
$GPRMC,183719.000,A,3748.4140,N,12218.0539,W,2.49,193.96,071011,,,D*7F
$GPRMC,183720.000,A,3748.4129,N,12218.0546,W,2.79,193.39,071011,,,D*74
$GPRMC,183721.000,A,3748.4116,N,12218.0552,W,2.51,177.68,071011,,,D*78
$GPRMC,183722.000,A,3748.4094,N,12218.0570,W,3.30,195.03,071011,,,D*77
$GPRMC,183723.000,A,3748.4078,N,12218.0579,W,2.95,186.19,071011,,,D*7A
$GPRMC,183724.000,A,3748.4066,N,12218.0583,W,2.92,185.55,071011,,,D*7B
$GPRMC,183725.000,A,3748.4059,N,12218.0590,W,2.66,198.24,071011,,,D*75
$GPRMC,183726.000,A,3748.4052,N,12218.0596,W,2.05,195.26,071011,,,D*71
$GPRMC,183727.000,A,3748.4053,N,12218.0600,W,1.93,224.59,071011,,,D*70
$GPRMC,183728.000,A,3748.4056,N,12218.0605,W,2.41,253.63,071011,,,D*7A
$GPRMC,183729.000,A,3748.4064,N,12218.0606,W,2.65,260.28,071011,,,D*70
$GPRMC,183730.000,A,3748.4068,N,12218.0610,W,2.55,264.55,071011,,,D*7E
$GPRMC,183731.000,A,3748.4073,N,12218.0617,W,2.80,263.35,071011,,,D*7B
$GPRMC,183732.000,A,3748.4082,N,12218.0625,W,2.81,276.36,071011,,,D*71
$GPRMC,183733.000,A,3748.4093,N,12218.0633,W,2.99,283.38,071011,,,D*7A
$GPRMC,183734.000,A,3748.4100,N,12218.0643,W,3.05,296.19,071011,,,D*72
