$ADVER,3080,2.3
$GPRMC,182504.516,A,3748.7887,N,12217.8646,W,0.10,105.28,071011,,,A*7E
$GPGGA,182505.516,3748.7886,N,12217.8646,W,1,03,6.2,25.1,M,-25.1,M,,0000*5F
$GPGSA,A,2,17,09,28,,,,,,,,,,6.3,6.2,1.0*36
$GPGSV,3,1,09,27,62,293,37,17,56,041,40,09,46,308,38,28,30,085,39*7E
$GPGSV,3,2,09,04,45,143,,02,19,182,28,12,14,292,32,26,11,206,*77
$GPGSV,3,3,09,01,01,032,*41
$GPRMC,182505.516,A,3748.7886,N,12217.8646,W,0.33,15.82,071011,,,A*4F
$GPVTG,15.82,T,,M,0.33,N,0.6,K,N*3A
$GPGGA,182506.516,3748.7885,N,12217.8646,W,1,03,6.2,25.1,M,-25.1,M,,0000*5F
$GPGSA,A,2,17,09,28,,,,,,,,,,6.3,6.2,1.0*36
$GPRMC,182506.516,A,3748.7885,N,12217.8646,W,0.23,27.44,071011,,,A*45
$GPVTG,27.44,T,,M,0.23,N,0.4,K,N*32
$GPGGA,182507.516,3748.7883,N,12217.8646,W,1,03,6.2,25.1,M,-25.1,M,,0000*58
$GPGSA,A,2,17,09,28,,,,,,,,,,6.3,6.2,1.0*36
$GPRMC,182507.516,A,3748.7883,N,12217.8646,W,0.13,23.90,071011,,,A*4C
$GPVTG,23.90,T,,M,0.13,N,0.2,K,N*3A
$GPGGA,182508.516,3748.7883,N,12217.8646,W,1,03,6.2,25.1,M,-25.1,M,,0000*57
$GPGSA,A,2,17,09,28,,,,,,,,,,6.3,6.2,1.0*36
$GPRMC,182508.516,A,3748.7883,N,12217.8646,W,0.21,19.01,071011,,,A*43
$GPVTG,19.01,T,,M,0.21,N,0.4,K,N*3C
$GPGGA,182509.516,3748.7883,N,12217.8646,W,1,03,6.2,25.1,M,-25.1,M,,0000*56
$GPGSA,A,2,17,09,28,,,,,,,,,,6.3,6.2,1.0*36
$GPRMC,182509.516,A,3748.7883,N,12217.8646,W,0.06,248.82,071011,,,A*7A
$GPVTG,248.82,T,,M,0.06,N,0.1,K,N*01
$GPGGA,182528.515,3748.7895,N,12217.8628,W,1,03,6.1,25.1,M,-25.1,M,,0000*5A
$GPGSA,A,2,17,09,28,,,,,,,,,,6.2,6.1,1.0*34
$GPRMC,182528.515,A,3748.7895,N,12217.8628,W,5.08,18.63,071011,,,A*46
$GPVTG,18.63,T,,M,5.08,N,9.4,K,N*3E
$GPGGA,182529.515,3748.7890,N,12217.8664,W,1,03,6.1,25.1,M,-25.1,M,,0000*56
$GPGSA,A,2,17,09,28,,,,,,,,,,6.2,6.1,1.0*34
$GPRMC,182529.515,A,3748.7890,N,12217.8664,W,0.43,26.27,071011,,,A*4D
$GPVTG,26.27,T,,M,0.43,N,0.8,K,N*3C
$GPGGA,182530.515,3748.8023,N,12217.8623,W,1,03,6.1,25.1,M,-25.1,M,,0000*52
$GPGSA,A,2,17,09,28,,,,,,,,,,6.2,6.1,1.0*34
$GPGSV,3,1,10,27,62,293,33,17,56,041,37,09,46,308,37,28,30,085,31*75
$GPGSV,3,2,10,04,45,143,21,02,19,182,28,12,14,292,33,26,11,206,*7D
$GPGSV,3,3,10,01,01,032,,48,00,000,27*70
$GPRMC,182530.515,A,3748.8023,N,12217.8623,W,0.02,134.12,071011,,,A*78
$GPVTG,134.12,T,,M,0.02,N,0.0,K,N*05
$GPGGA,182531.515,3748.7842,N,12217.8678,W,1,03,6.1,25.1,M,-25.1,M,,0000*5D
$GPGSA,A,2,17,09,28,,,,,,,,,,6.2,6.1,1.0*34
$GPRMC,182531.515,A,3748.7842,N,12217.8678,W,7.20,4.62,071011,,,A*75
$GPVTG,4.62,T,,M,7.20,N,13.3,K,N*36
$GPGGA,182534.515,3748.7928,N,12217.8637,W,1,04,5.1,19.3,M,-25.1,M,,0000*57
$GPGSA,A,3,17,09,28,12,,,,,,,,,5.2,5.1,1.0*36
$GPRMC,182534.515,A,3748.7928,N,12217.8637,W,0.60,123.30,071011,,,A*76
$GPVTG,123.30,T,,M,0.60,N,1.1,K,A*08
$GPGGA,182535.515,3748.7752,N,12217.8716,W,1,04,5.1,29.7,M,-25.1,M,,0000*50
$GPGSA,A,3,17,09,28,12,,,,,,,,,5.2,5.1,1.0*36
$GPGSV,3,1,10,27,62,292,,17,56,041,27,09,46,308,32,28,29,086,28*73
$GPGSV,3,2,10,12,15,292,34,04,46,143,28,02,19,182,36,26,11,206,*7E
$GPGSV,3,3,10,01,01,032,,48,44,197,29*71
$GPRMC,182535.515,A,3748.7752,N,12217.8716,W,1.11,198.36,071011,,,A*77
$GPVTG,198.36,T,,M,1.11,N,2.1,K,A*0A
$GPGGA,182536.515,3748.7779,N,12217.8688,W,1,04,5.1,26.6,M,-25.1,M,,0000*52
$GPGSA,A,3,17,09,28,12,,,,,,,,,5.2,5.1,1.0*36
$GPRMC,182536.515,A,3748.7779,N,12217.8688,W,0.24,267.53,071011,,,A*7C
$GPVTG,267.53,T,,M,0.24,N,0.4,K,A*0A
$GPGGA,182537.000,3748.7792,N,12217.8686,W,1,04,5.1,26.0,M,-25.1,M,,0000*5F
$GPGSA,A,3,17,09,28,12,,,,,,,,,5.2,5.1,1.0*36
$GPRMC,182537.000,A,3748.7792,N,12217.8686,W,0.87,340.57,071011,,,A*7E
$GPVTG,340.57,T,,M,0.87,N,1.6,K,A*00
$GPGGA,182538.000,3748.7818,N,12217.8680,W,1,04,5.1,24.4,M,-25.1,M,,0000*5D
$GPGSA,A,3,17,09,28,12,,,,,,,,,5.2,5.1,1.0*36
$GPRMC,182538.000,A,3748.7818,N,12217.8680,W,1.80,357.40,071011,,,A*7C
$GPVTG,357.40,T,,M,1.80,N,3.3,K,A*01
$GPGGA,182539.000,3748.7842,N,12217.8676,W,1,04,5.1,22.8,M,-25.1,M,,0000*50
$GPGSA,A,3,17,09,28,12,,,,,,,,,5.2,5.1,1.0*36
$GPRMC,182539.000,A,3748.7842,N,12217.8676,W,1.09,6.03,071011,,,A*7A
$GPVTG,6.03,T,,M,1.09,N,2.0,K,A*02
$GPGGA,182540.000,3748.7865,N,12217.8670,W,1,04,5.1,20.3,M,-25.1,M,,0000*54
$GPGSA,A,3,17,09,28,12,,,,,,,,,5.2,5.1,1.0*36
$GPGSV,3,1,09,27,62,292,31,17,56,041,28,09,46,308,35,28,29,086,23*7A
$GPGSV,3,2,09,12,15,292,38,04,46,143,26,02,19,182,32,26,11,206,*70
$GPGSV,3,3,09,01,01,032,*41
$GPVTG,1.33,T,,M,1.37,N,2.5,K,A*0E
$GPGGA,182541.000,3748.7917,N,12217.8651,W,1,04,5.1,16.6,M,-25.1,M,,0000*52
$GPGSA,A,3,17,09,28,12,,,,,,,,,5.2,5.1,1.0*36
$GPRMC,182541.000,A,3748.7917,N,12217.8651,W,2.03,5.56,071011,,,A*7B
$GPVTG,5.56,T,,M,2.03,N,3.8,K,A*01
$GPGGA,182542.000,3748.7977,N,12217.8634,W,1,04,5.1,13.1,M,-25.1,M,,0000*56
$GPGSA,A,3,17,09,28,12,,,,,,,,,5.2,5.1,1.0*36
$GPRMC,182542.000,A,3748.7977,N,12217.8634,W,2.73,0.96,071011,,,A*73
$GPVTG,0.96,T,,M,2.73,N,5.1,K,A*00
$GPGGA,182543.000,3748.7998,N,12217.8622,W,1,04,5.1,11.1,M,-25.1,M,,0000*53
$GPGSA,A,3,17,09,28,12,,,,,,,,,5.2,5.1,1.0*36
$GPRMC,182543.000,A,3748.7998,N,12217.8622,W,1.83,21.13,071011,,,A*46
$GPVTG,21.13,T,,M,1.83,N,3.4,K,A*31
$GPGGA,182544.000,3748.8024,N,12217.8612,W,1,04,5.1,7.8,M,-25.1,M,,0000*68
$GPGSA,A,3,17,09,28,12,,,,,,,,,5.2,5.1,1.0*36
$GPRMC,182544.000,A,3748.8024,N,12217.8612,W,1.21,359.56,071011,,,A*76
$GPVTG,359.56,T,,M,1.21,N,2.2,K,A*03
$GPGGA,182545.000,3748.8038,N,12217.8607,W,1,04,5.1,6.4,M,-25.1,M,,0000*6D
$GPGSA,A,3,17,09,28,12,,,,,,,,,5.2,5.1,1.0*36
$GPGSV,3,1,10,27,62,292,30,17,56,041,33,09,46,308,36,28,29,086,31*79
$GPGSV,3,2,10,12,15,292,42,04,46,143,28,02,19,182,31,26,11,206,*78
$GPGSV,3,3,10,01,01,032,,48,44,197,28*70
$GPRMC,182545.000,A,3748.8038,N,12217.8607,W,1.09,12.55,071011,,,A*4B
$GPVTG,12.55,T,,M,1.09,N,2.0,K,A*34
$GPGGA,182546.000,3748.8051,N,12217.8607,W,1,04,5.1,6.0,M,-25.1,M,,0000*65
$GPGSA,A,3,17,09,28,12,,,,,,,,,5.2,5.1,1.0*36
$GPRMC,182546.000,A,3748.8051,N,12217.8607,W,1.49,19.65,071011,,,A*4B
$GPVTG,19.65,T,,M,1.49,N,2.8,K,A*30
$GPGGA,182547.000,3748.8078,N,12217.8609,W,1,04,5.1,5.6,M,-25.1,M,,0000*64
$GPGSA,A,3,17,09,28,12,,,,,,,,,5.2,5.1,1.0*36
$GPRMC,182547.000,A,3748.8078,N,12217.8609,W,2.63,2.87,071011,,,A*72
$GPVTG,2.87,T,,M,2.63,N,4.9,K,A*0A
$GPGGA,182548.000,3748.8098,N,12217.8607,W,1,04,5.1,4.9,M,-25.1,M,,0000*65
$GPGSA,A,3,17,09,28,12,,,,,,,,,5.2,5.1,1.0*36
$GPRMC,182548.000,A,3748.8098,N,12217.8607,W,2.48,5.76,071011,,,A*7D
$GPVTG,5.76,T,,M,2.48,N,4.6,K,A*05
$GPGGA,182549.000,3748.8109,N,12217.8606,W,1,04,5.1,4.6,M,-25.1,M,,0000*63
$GPGSA,A,3,17,09,28,12,,,,,,,,,5.2,5.1,1.0*36
$GPRMC,182549.000,A,3748.8109,N,12217.8606,W,2.14,7.58,071011,,,A*73
$GPVTG,7.58,T,,M,2.14,N,4.0,K,A*04
$GPGGA,182550.000,3748.8104,N,12217.8608,W,1,04,5.1,4.9,M,-25.1,M,,0000*67
$GPGSA,A,3,17,09,28,12,,,,,,,,,5.2,5.1,1.0*36
$GPGSV,3,1,10,27,62,292,30,17,56,041,26,09,47,308,36,04,46,142,26*74
$GPGSV,3,2,10,28,29,086,27,02,20,182,28,12,15,292,43,26,11,206,*7B
$GPGSV,3,3,10,01,01,032,,48,44,197,42*7C
$GPRMC,182550.000,A,3748.8104,N,12217.8608,W,1.49,8.99,071011,,,A*71
$GPVTG,8.99,T,,M,1.49,N,2.8,K,A*03
$GPGGA,182551.000,3748.8070,N,12217.8610,W,1,04,5.1,5.7,M,-25.1,M,,0000*62
$GPGSA,A,3,17,09,28,12,,,,,,,,,5.2,5.1,1.0*36
$GPRMC,182551.000,A,3748.8070,N,12217.8610,W,0.20,73.28,071011,,,A*43
$GPVTG,73.28,T,,M,0.20,N,0.4,K,A*35
$GPGGA,182552.000,3748.8054,N,12217.8609,W,1,04,5.1,5.4,M,-25.1,M,,0000*6C
$GPGSA,A,3,17,09,28,12,,,,,,,,,5.2,5.1,1.0*36
$GPRMC,182552.000,A,3748.8054,N,12217.8609,W,0.93,181.24,071011,,,A*76
$GPVTG,181.24,T,,M,0.93,N,1.7,K,A*0F
$GPGGA,182553.000,3748.7996,N,12217.8621,W,1,04,5.1,8.0,M,-25.1,M,,0000*66
$GPGSA,A,3,17,09,28,12,,,,,,,,,5.2,5.1,1.0*36
$GPRMC,182553.000,A,3748.7996,N,12217.8621,W,3.10,179.35,071011,,,A*7A
$GPVTG,179.35,T,,M,3.10,N,5.7,K,A*04
$GPGGA,182554.000,3748.7967,N,12217.8626,W,1,04,5.1,8.6,M,-25.1,M,,0000*6E
$GPGSA,A,3,17,09,28,12,,,,,,,,,5.2,5.1,1.0*36
$GPRMC,182554.000,A,3748.7967,N,12217.8626,W,2.69,186.39,071011,,,A*77
$GPVTG,186.39,T,,M,2.69,N,5.0,K,A*00
$GPGGA,182555.000,3748.7974,N,12217.8624,W,1,04,5.1,8.2,M,-25.1,M,,0000*6B
$GPGSA,A,3,17,09,28,12,,,,,,,,,5.2,5.1,1.0*36
$GPGSV,3,1,10,27,62,292,36,17,56,041,35,09,47,308,37,04,46,142,19*7D
$GPGSV,3,2,10,28,29,086,30,02,20,182,29,12,15,292,27,26,11,206,*7E
$GPGSV,3,3,10,01,01,032,,48,44,197,36*7F
$GPRMC,182555.000,A,3748.7974,N,12217.8624,W,1.40,190.86,071011,,,A*7D
$GPVTG,190.86,T,,M,1.40,N,2.6,K,A*0A
$GPGGA,182556.000,3748.7981,N,12217.8623,W,1,04,5.1,8.0,M,-25.1,M,,0000*67
$GPGSA,A,3,17,09,28,12,,,,,,,,,5.2,5.1,1.0*36
$GPRMC,182556.000,A,3748.7981,N,12217.8623,W,0.76,189.84,071011,,,A*7D
$GPVTG,189.84,T,,M,0.76,N,1.4,K,A*05
$GPGGA,182557.000,3748.8007,N,12217.8616,W,1,04,5.1,6.9,M,-25.1,M,,0000*6F
$GPGSA,A,3,17,09,28,12,,,,,,,,,5.2,5.1,1.0*36
$GPRMC,182557.000,A,3748.8007,N,12217.8616,W,0.72,28.71,071011,,,A*46
$GPVTG,28.71,T,,M,0.72,N,1.3,K,A*36
$GPGGA,182558.000,3748.8016,N,12217.8612,W,1,04,5.1,6.4,M,-25.1,M,,0000*69
$GPGSA,A,3,17,09,28,12,,,,,,,,,5.2,5.1,1.0*36
$GPRMC,182558.000,A,3748.8016,N,12217.8612,W,0.86,40.04,071011,,,A*4A
$GPVTG,40.04,T,,M,0.86,N,1.6,K,A*34
$GPGGA,182559.000,3748.8028,N,12217.8608,W,1,04,5.1,5.8,M,-25.1,M,,0000*61
$GPGSA,A,3,17,09,28,12,,,,,,,,,5.2,5.1,1.0*36
$GPRMC,182559.000,A,3748.8028,N,12217.8608,W,1.00,19.06,071011,,,A*4C
$GPVTG,19.06,T,,M,1.00,N,1.8,K,A*3B
$GPGGA,182600.000,3748.8037,N,12217.8606,W,1,04,5.1,5.4,M,-25.1,M,,0000*62
$GPGSA,A,3,17,09,28,12,,,,,,,,,5.2,5.1,1.0*36
$GPGSV,3,1,10,27,62,292,35,17,56,041,35,09,47,308,37,04,46,142,29*7D
$GPGSV,3,2,10,28,29,086,32,02,20,182,26,12,15,292,28,26,11,206,*7C
$GPGSV,3,3,10,01,01,032,,48,44,197,28*70
$GPRMC,182600.000,A,3748.8037,N,12217.8606,W,0.93,357.16,071011,,,A*70
$GPVTG,357.16,T,,M,0.93,N,1.7,K,A*07
$GPGGA,182601.000,3748.8043,N,12217.8604,W,1,04,5.1,4.9,M,-25.1,M,,0000*6E
$GPGSA,A,3,17,09,28,12,,,,,,,,,5.2,5.1,1.0*36
$GPRMC,182601.000,A,3748.8043,N,12217.8604,W,0.80,18.56,071011,,,A*4E
$GPVTG,18.56,T,,M,0.80,N,1.5,K,A*3B
$GPGGA,182602.000,3748.8053,N,12217.8597,W,1,04,5.1,4.3,M,-25.1,M,,0000*6F
$GPGSA,A,3,17,09,28,12,,,,,,,,,5.2,5.1,1.0*36
$GPRMC,182602.000,A,3748.8053,N,12217.8597,W,1.10,41.53,071011,,,A*44
$GPVTG,41.53,T,,M,1.10,N,2.0,K,A*3C
$GPGGA,182603.000,3748.8078,N,12217.8583,W,1,04,5.1,1.7,M,-25.1,M,,0000*63
$GPGSA,A,3,17,09,28,12,,,,,,,,,5.2,5.1,1.0*36
$GPRMC,182603.000,A,3748.8078,N,12217.8583,W,1.75,46.86,071011,,,A*45
$GPVTG,46.86,T,,M,1.75,N,3.2,K,A*33
$GPGGA,182604.000,3748.8082,N,12217.8581,W,1,04,5.1,1.2,M,-25.1,M,,0000*66
$GPGSA,A,3,17,09,28,12,,,,,,,,,5.2,5.1,1.0*36
$GPRMC,182604.000,A,3748.8082,N,12217.8581,W,1.15,28.72,071011,,,A*40
$GPVTG,28.72,T,,M,1.15,N,2.1,K,A*34
$GPGGA,182605.000,3748.8077,N,12217.8579,W,1,04,5.1,2.6,M,-25.1,M,,0000*6D
$GPGSA,A,3,17,09,28,12,,,,,,,,,5.2,5.1,1.0*36
$GPGSV,3,1,10,27,62,292,18,17,56,041,36,09,47,308,28,04,46,142,34*73
$GPGSV,3,2,10,28,29,086,35,02,20,182,28,12,15,292,19,26,11,206,26*73
$GPGSV,3,3,10,01,01,032,,48,44,197,25*7D
$GPRMC,182605.000,A,3748.8077,N,12217.8579,W,0.99,7.82,071011,,,A*7B
$GPGGA,182606.000,3748.8076,N,12217.8578,W,1,04,5.1,3.3,M,-25.1,M,,0000*6A
$GPGSA,A,3,17,09,28,12,,,,,,,,,5.2,5.1,1.0*36
$GPRMC,182606.000,A,3748.8076,N,12217.8578,W,1.13,28.30,071011,,,A*4F
$GPVTG,28.30,T,,M,1.13,N,2.1,K,A*34
$GPGGA,182607.000,3748.8075,N,12217.8576,W,1,04,5.1,3.7,M,-25.1,M,,0000*62
$GPGSA,A,3,17,09,28,12,,,,,,,,,5.1,5.1,1.0*35
$GPRMC,182607.000,A,3748.8075,N,12217.8576,W,0.69,21.27,071011,,,A*40
$GPVTG,21.27,T,,M,0.69,N,1.3,K,A*36
$GPGGA,182608.000,3748.8069,N,12217.8575,W,1,04,5.1,5.0,M,-25.1,M,,0000*62
$GPGSA,A,3,17,09,28,12,,,,,,,,,5.1,5.1,1.0*35
$GPRMC,182608.000,A,3748.8069,N,12217.8575,W,0.46,27.47,071011,,,A*4C
$GPVTG,27.47,T,,M,0.46,N,0.9,K,A*30
$GPGGA,182609.000,3748.8067,N,12217.8575,W,1,04,5.1,4.7,M,-25.1,M,,0000*6B
$GPGSA,A,3,17,09,28,12,,,,,,,,,5.1,5.1,1.0*35
$GPRMC,182609.000,A,3748.8067,N,12217.8575,W,0.28,181.84,071011,,,A*79
$GPVTG,181.84,T,,M,0.28,N,0.5,K,A*06
$GPGGA,182610.000,3748.8067,N,12217.8576,W,1,04,5.0,4.5,M,-25.1,M,,0000*63
$GPGSA,A,3,17,09,28,12,,,,,,,,,5.1,5.0,1.0*34
$GPGSV,3,1,09,27,62,292,35,17,56,041,37,09,47,308,35,04,46,142,32*7F
$GPGSV,3,2,09,28,29,086,36,02,20,182,21,12,15,292,33,26,11,206,23*7C
$GPGSV,3,3,09,01,01,032,*41
$GPRMC,182610.000,A,3748.8067,N,12217.8576,W,0.21,324.88,071011,,,A*7A
$GPVTG,324.88,T,,M,0.21,N,0.4,K,A*0F
$GPGGA,182611.000,3748.8067,N,12217.8577,W,1,04,5.0,4.3,M,-25.1,M,,0000*65
$GPGSA,A,3,17,09,28,12,,,,,,,,,5.1,5.0,1.0*34
$GPRMC,182611.000,A,3748.8067,N,12217.8577,W,0.06,15.37,071011,,,A*4A
$GPVTG,15.37,T,,M,0.06,N,0.1,K,A*3A
$GPGGA,182612.000,3748.8066,N,12217.8577,W,1,04,5.0,4.0,M,-25.1,M,,0000*64
$GPGSA,A,3,17,09,28,12,,,,,,,,,5.1,5.0,1.0*34
$GPRMC,182612.000,A,3748.8066,N,12217.8577,W,0.13,62.73,071011,,,A*4C
$GPVTG,62.73,T,,M,0.13,N,0.2,K,A*3D
$GPGGA,182613.000,3748.8065,N,12217.8578,W,1,04,5.0,3.9,M,-25.1,M,,0000*67
$GPGSA,A,3,17,09,28,12,,,,,,,,,5.1,5.0,1.0*34
$GPRMC,182613.000,A,3748.8065,N,12217.8578,W,0.14,2.26,071011,,,A*70
$GPVTG,2.26,T,,M,0.14,N,0.3,K,A*0D
$GPGGA,182614.000,3748.8063,N,12217.8579,W,1,04,5.0,3.7,M,-25.1,M,,0000*69
$GPGSA,A,3,17,09,28,12,,,,,,,,,5.1,5.0,1.0*34
$GPRMC,182614.000,A,3748.8063,N,12217.8579,W,0.16,47.72,071011,,,A*42
$GPVTG,47.72,T,,M,0.16,N,0.3,K,A*3F
$GPGGA,182615.000,3748.8062,N,12217.8579,W,1,04,5.0,3.6,M,-25.1,M,,0000*68
$GPGSA,A,3,17,09,28,12,,,,,,,,,5.1,5.0,1.0*34
$GPGSV,3,1,10,27,62,292,37,17,56,041,38,09,47,308,40,04,46,142,21*7A
$GPGSV,3,2,10,28,29,086,29,02,20,182,18,12,15,292,36,26,11,206,26*70
$GPRMC,182615.000,A,3748.8062,N,12217.8579,W,0.10,29.66,071011,,,A*49
$GPVTG,29.66,T,,M,0.10,N,0.2,K,A*35
$GPGGA,182616.000,3748.8059,N,12217.8580,W,1,04,5.0,3.6,M,-25.1,M,,0000*65
$GPGSA,A,3,17,09,28,12,,,,,,,,,5.1,5.0,1.0*34
$GPRMC,182616.000,A,3748.8059,N,12217.8580,W,0.08,95.05,071011,,,A*4F
$GPVTG,95.05,T,,M,0.08,N,0.1,K,A*3D
$GPGGA,182617.000,3748.8056,N,12217.8581,W,1,04,5.0,3.6,M,-25.1,M,,0000*6A
$GPGSA,A,3,17,09,28,12,,,,,,,,,5.1,5.0,1.0*34
$GPRMC,182617.000,A,3748.8056,N,12217.8581,W,0.07,125.81,071011,,,A*79
$GPVTG,125.81,T,,M,0.07,N,0.1,K,A*04
$GPGGA,182618.000,3748.8054,N,12217.8582,W,1,04,5.0,3.6,M,-25.1,M,,0000*64
$GPGSA,A,3,17,09,28,12,,,,,,,,,5.1,5.0,1.0*34
$GPRMC,182618.000,A,3748.8054,N,12217.8582,W,0.10,160.50,071011,,,A*7C
$GPVTG,160.50,T,,M,0.10,N,0.2,K,A*0C
$GPGGA,182619.000,3748.8051,N,12217.8583,W,1,04,5.0,3.7,M,-25.1,M,,0000*60
$GPGSA,A,3,17,09,28,12,,,,,,,,,5.1,5.0,1.0*34
$GPRMC,182619.000,A,3748.8051,N,12217.8583,W,0.04,102.29,071011,,,A*76
$GPVTG,102.29,T,,M,0.04,N,0.1,K,A*00
$GPGGA,182620.000,3748.8045,N,12217.8583,W,1,04,5.0,4.5,M,-25.1,M,,0000*6A
$GPGSA,A,3,17,09,28,12,,,,,,,,,5.1,5.0,1.0*34
$GPGSV,3,1,09,27,62,292,30,17,55,041,38,09,47,308,33,04,46,142,25*76
$GPGSV,3,2,09,28,29,086,38,02,20,182,16,12,15,292,25,26,11,206,26*74
$GPGSV,3,3,09,01,01,032,*41
$GPRMC,182620.000,A,3748.8045,N,12217.8583,W,0.33,165.13,071011,,,A*75
$GPVTG,165.13,T,,M,0.33,N,0.6,K,A*0B
$GPGGA,182621.000,3748.8042,N,12217.8584,W,1,04,5.0,4.7,M,-25.1,M,,0000*69
$GPGSA,A,3,17,09,28,12,,,,,,,,,5.1,5.0,1.0*34
$GPRMC,182621.000,A,3748.8042,N,12217.8584,W,0.42,225.67,071011,,,A*76
$GPVTG,225.67,T,,M,0.42,N,0.8,K,A*07
$GPGGA,182622.000,3748.8053,N,12217.8586,W,1,04,5.0,4.6,M,-25.1,M,,0000*69
$GPGSA,A,3,17,09,28,12,,,,,,,,,5.1,5.0,1.0*34
$GPRMC,182622.000,A,3748.8053,N,12217.8586,W,0.37,343.33,071011,,,A*75
$GPVTG,343.33,T,,M,0.37,N,0.7,K,A*0A
$GPGGA,182623.000,3748.8060,N,12217.8588,W,1,04,5.0,4.6,M,-25.1,M,,0000*66
$GPGSA,A,3,17,09,28,12,,,,,,,,,5.1,5.0,1.0*34
$GPRMC,182623.000,A,3748.8060,N,12217.8588,W,0.65,2.76,071011,,,A*7A
$GPVTG,2.76,T,,M,0.65,N,1.2,K,A*0E
$GPGGA,182624.000,3748.8062,N,12217.8589,W,1,04,5.0,4.7,M,-25.1,M,,0000*63
$GPGSA,A,3,17,09,28,12,,,,,,,,,5.1,5.0,1.0*34
$GPRMC,182624.000,A,3748.8062,N,12217.8589,W,0.66,3.16,071011,,,A*7A
$GPVTG,3.16,T,,M,0.66,N,1.2,K,A*0A
$GPGGA,182625.000,3748.8059,N,12217.8591,W,1,04,5.0,4.9,M,-25.1,M,,0000*6D
$GPGSA,A,3,17,09,28,12,,,,,,,,,5.1,5.0,1.0*34
$GPGSV,3,1,09,27,62,292,30,17,55,041,31,09,47,308,34,04,46,142,*7F
$GPGSV,3,2,09,28,29,086,26,02,20,182,15,12,15,292,32,26,11,206,13*78
$GPGSV,3,3,09,01,01,032,*41
$GPRMC,182625.000,A,3748.8059,N,12217.8591,W,0.21,38.38,071011,,,A*4D
$GPVTG,38.38,T,,M,0.21,N,0.4,K,A*3A
$GPGGA,182626.000,3748.8068,N,12217.8593,W,1,04,5.0,5.0,M,-25.1,M,,0000*66
$GPGSA,A,3,17,09,28,12,,,,,,,,,5.1,5.0,1.0*34
$GPRMC,182626.000,A,3748.8068,N,12217.8593,W,0.44,16.32,071011,,,A*4B
$GPVTG,16.32,T,,M,0.44,N,0.8,K,A*33
$GPGGA,182627.000,3748.8072,N,12217.8594,W,1,04,5.0,5.2,M,-25.1,M,,0000*69
$GPGSA,A,3,17,09,28,12,,,,,,,,,5.1,5.0,1.0*34
$GPRMC,182627.000,A,3748.8072,N,12217.8594,W,0.46,5.26,071011,,,A*73
$GPVTG,5.26,T,,M,0.46,N,0.8,K,A*06
$GPGGA,182628.000,3748.8073,N,12217.8596,W,1,04,5.0,5.4,M,-25.1,M,,0000*63
$GPGSA,A,3,17,09,28,12,,,,,,,,,5.1,5.0,1.0*34
$GPRMC,182628.000,A,3748.8073,N,12217.8596,W,0.44,7.90,071011,,,A*72
$GPVTG,7.90,T,,M,0.44,N,0.8,K,A*0B
$GPGGA,182629.000,3748.8073,N,12217.8598,W,1,04,5.0,5.5,M,-25.1,M,,0000*6D
$GPGSA,A,3,17,09,28,12,,,,,,,,,5.1,5.0,1.0*34
$GPRMC,182629.000,A,3748.8073,N,12217.8598,W,0.35,9.32,071011,,,A*7D
$GPVTG,9.32,T,,M,0.35,N,0.6,K,A*05
$GPGGA,182630.000,3748.8072,N,12217.8599,W,1,04,5.0,5.7,M,-25.1,M,,0000*67
$GPGSA,A,3,17,09,28,12,,,,,,,,,5.1,5.0,1.0*34
$GPGSV,3,1,09,27,62,292,30,17,55,041,32,09,47,308,34,04,46,142,*7C
$GPGSV,3,2,09,28,29,086,28,02,20,182,,12,15,292,33,26,11,206,21*72
$GPGSV,3,3,09,01,01,032,*41
$GPRMC,182630.000,A,3748.8072,N,12217.8599,W,0.21,1.14,071011,,,A*7C
$GPVTG,1.14,T,,M,0.21,N,0.4,K,A*0E
$GPGGA,182631.000,3748.8073,N,12217.8601,W,1,04,5.0,5.9,M,-25.1,M,,0000*6B
$GPGSA,A,3,17,09,28,12,,,,,,,,,5.1,5.0,1.0*34
$GPRMC,182631.000,A,3748.8073,N,12217.8601,W,0.24,12.82,071011,,,A*46
$GPVTG,12.82,T,,M,0.24,N,0.4,K,A*36
$GPGGA,182632.000,3748.8075,N,12217.8602,W,1,04,5.0,6.0,M,-25.1,M,,0000*67
$GPGSA,A,3,17,09,28,12,,,,,,,,,5.1,5.0,1.0*34
$GPRMC,182632.000,A,3748.8075,N,12217.8602,W,0.33,10.15,071011,,,A*4A
$GPVTG,10.15,T,,M,0.33,N,0.6,K,A*3E
$GPGGA,182633.000,3748.8077,N,12217.8603,W,1,04,5.0,6.0,M,-25.1,M,,0000*65
$GPGSA,A,3,17,09,28,12,,,,,,,,,5.1,5.0,1.0*34
$GPRMC,182633.000,A,3748.8077,N,12217.8603,W,0.31,17.15,071011,,,A*4D
$GPVTG,17.15,T,,M,0.31,N,0.6,K,A*3B
$GPGGA,182634.000,3748.8079,N,12217.8604,W,1,04,5.0,6.1,M,-25.1,M,,0000*6A
$GPGSA,A,3,17,09,28,12,,,,,,,,,5.1,5.0,1.0*34
$GPRMC,182634.000,A,3748.8079,N,12217.8604,W,0.25,15.06,071011,,,A*46
$GPVTG,15.06,T,,M,0.25,N,0.5,K,A*3D
$GPGGA,182635.000,3748.8079,N,12217.8604,W,1,04,5.0,6.1,M,-25.1,M,,0000*6B
$GPGSA,A,3,17,09,28,12,,,,,,,,,5.1,5.0,1.0*34
$GPGSV,3,1,09,27,62,292,29,17,55,041,32,09,47,308,34,04,46,142,*74
$GPGSV,3,2,09,28,29,086,29,02,20,182,,12,15,292,33,26,11,206,22*70
$GPGSV,3,3,09,01,01,032,*41
$GPRMC,182635.000,A,3748.8079,N,12217.8604,W,0.21,15.80,071011,,,A*4D
$GPVTG,15.80,T,,M,0.21,N,0.4,K,A*36
$GPGGA,182636.000,3748.8078,N,12217.8605,W,1,04,5.0,6.2,M,-25.1,M,,0000*6B
$GPGSA,A,3,17,09,28,12,,,,,,,,,5.1,5.0,1.0*34
$GPRMC,182636.000,A,3748.8078,N,12217.8605,W,0.18,74.29,071011,,,A*40
$GPVTG,74.29,T,,M,0.18,N,0.3,K,A*3F
$GPGGA,182637.000,3748.8077,N,12217.8605,W,1,04,5.0,6.2,M,-25.1,M,,0000*65
$GPGSA,A,3,17,09,28,12,,,,,,,,,5.1,5.0,1.0*34
$GPRMC,182637.000,A,3748.8077,N,12217.8605,W,0.03,48.01,071011,,,A*41
$GPVTG,48.01,T,,M,0.03,N,0.1,K,A*32
$GPGGA,182638.000,3748.8076,N,12217.8606,W,1,04,5.0,6.2,M,-25.1,M,,0000*68
$GPGSA,A,3,17,09,28,12,,,,,,,,,5.1,5.0,1.0*34
$GPRMC,182638.000,A,3748.8076,N,12217.8606,W,0.05,51.94,071011,,,A*4E
$GPVTG,51.94,T,,M,0.05,N,0.1,K,A*30
$GPGGA,182639.000,3748.8075,N,12217.8606,W,1,04,5.0,6.2,M,-25.1,M,,0000*6A
$GPGSA,A,3,17,09,28,12,,,,,,,,,5.1,5.0,1.0*34
$GPRMC,182639.000,A,3748.8075,N,12217.8606,W,0.08,91.95,071011,,,A*4C
$GPVTG,91.95,T,,M,0.08,N,0.2,K,A*33
$GPGGA,182640.000,3748.8075,N,12217.8606,W,1,04,5.0,6.2,M,-25.1,M,,0000*64
$GPGSA,A,3,17,09,28,12,,,,,,,,,5.1,5.0,1.0*34
$GPGSV,3,1,10,27,62,292,24,17,55,041,36,09,47,308,34,04,46,142,*75
$GPGSV,3,2,10,28,29,086,33,02,20,182,,12,15,292,34,26,11,206,26*70
$GPGSV,3,3,10,01,01,032,,48,44,197,31*78
$GPRMC,182640.000,A,3748.8075,N,12217.8606,W,0.07,96.49,071011,,,A*4B
$GPGGA,182641.000,3748.8075,N,12217.8607,W,1,04,5.0,6.2,M,-25.1,M,,0000*64
$GPGSA,A,3,17,09,28,12,,,,,,,,,5.1,5.0,1.0*34
$GPRMC,182641.000,A,3748.8075,N,12217.8607,W,0.05,344.35,071011,,,A*7E
$GPVTG,344.35,T,,M,0.05,N,0.1,K,A*0C
$GPGGA,182642.000,3748.8074,N,12217.8607,W,1,04,5.0,6.2,M,-25.1,M,,0000*66
$GPGSA,A,3,17,09,28,12,,,,,,,,,5.1,5.0,1.0*34
$GPRMC,182642.000,A,3748.8074,N,12217.8607,W,0.09,56.40,071011,,,A*42
$GPVTG,56.40,T,,M,0.09,N,0.2,K,A*31
$GPGGA,182643.000,3748.8073,N,12217.8607,W,1,04,5.0,6.3,M,-25.1,M,,0000*61
$GPGSA,A,3,17,09,28,12,,,,,,,,,5.1,5.0,1.0*34
$GPRMC,182643.000,A,3748.8073,N,12217.8607,W,0.11,103.82,071011,,,A*72
$GPVTG,103.82,T,,M,0.11,N,0.2,K,A*07
$GPGGA,182644.000,3748.8072,N,12217.8607,W,1,04,5.0,6.3,M,-25.1,M,,0000*67
$GPGSA,A,3,17,09,28,12,,,,,,,,,5.1,5.0,1.0*34
$GPRMC,182644.000,A,3748.8072,N,12217.8607,W,0.05,125.05,071011,,,A*7A
$GPVTG,125.05,T,,M,0.05,N,0.1,K,A*0A
$GPGGA,182645.000,3748.8070,N,12217.8608,W,1,04,5.0,6.4,M,-25.1,M,,0000*6C
$GPGSA,A,3,17,09,28,12,,,,,,,,,5.1,5.0,1.0*34
$GPGSV,3,1,10,27,62,292,27,17,55,041,36,09,47,308,34,04,46,142,*76
$GPGSV,3,2,10,28,29,086,34,02,20,182,,12,15,292,35,26,11,206,26*76
$GPGSV,3,3,10,01,01,032,,48,44,197,28*70
$GPRMC,182645.000,A,3748.8070,N,12217.8608,W,0.03,115.07,071011,,,A*71
$GPVTG,115.07,T,,M,0.03,N,0.1,K,A*0D
$GPGGA,182646.000,3748.8068,N,12217.8608,W,1,04,5.0,6.4,M,-25.1,M,,0000*66
$GPGSA,A,3,17,09,28,12,,,,,,,,,5.1,5.0,1.0*34
$GPRMC,182646.000,A,3748.8068,N,12217.8608,W,0.07,109.28,071011,,,A*7F
$GPVTG,109.28,T,,M,0.07,N,0.1,K,A*09
$GPGGA,182647.000,3748.8066,N,12217.8608,W,1,04,5.0,6.5,M,-25.1,M,,0000*68
$GPGSA,A,3,17,09,28,12,,,,,,,,,5.1,5.0,1.0*34
$GPRMC,182647.000,A,3748.8066,N,12217.8608,W,0.10,141.87,071011,,,A*7F
$GPVTG,141.87,T,,M,0.10,N,0.2,K,A*05
$GPGGA,182648.000,3748.8064,N,12217.8608,W,1,04,5.0,6.5,M,-25.1,M,,0000*65
$GPGSA,A,3,17,09,28,12,,,,,,,,,5.1,5.0,1.0*34
$GPRMC,182648.000,A,3748.8064,N,12217.8608,W,0.06,182.84,071011,,,A*79
$GPVTG,182.84,T,,M,0.06,N,0.1,K,A*0D
$GPGGA,182649.000,3748.8062,N,12217.8608,W,1,04,5.0,6.6,M,-25.1,M,,0000*61
$GPGSA,A,3,17,09,28,12,,,,,,,,,5.1,5.0,1.0*34
$GPRMC,182649.000,A,3748.8062,N,12217.8608,W,0.21,113.55,071011,,,A*7F
$GPVTG,113.55,T,,M,0.21,N,0.4,K,A*09
$GPGGA,182650.000,3748.8062,N,12217.8605,W,1,04,5.0,6.6,M,-25.1,M,,0000*64
$GPGSA,A,3,17,09,28,12,,,,,,,,,5.1,5.0,1.0*34
$GPGSV,3,1,09,27,62,291,25,17,55,041,36,09,47,308,22,04,46,142,*78
$GPGSV,3,2,09,28,29,086,35,02,20,182,,12,15,293,24,26,11,206,27*7F
$GPGSV,3,3,09,01,01,031,*42
$GPRMC,182650.000,A,3748.8062,N,12217.8605,W,0.29,111.59,071011,,,A*7C
$GPVTG,111.59,T,,M,0.29,N,0.5,K,A*0E
$GPGGA,182651.000,3748.8060,N,12217.8605,W,1,04,5.0,6.5,M,-25.1,M,,0000*64
$GPGSA,A,3,17,09,28,12,,,,,,,,,5.1,5.0,1.0*34
$GPRMC,182651.000,A,3748.8060,N,12217.8605,W,0.12,102.92,071011,,,A*72
$GPVTG,102.92,T,,M,0.12,N,0.2,K,A*04
$GPGGA,182652.000,3748.8059,N,12217.8606,W,1,04,5.0,6.1,M,-25.1,M,,0000*6A
$GPGSA,A,3,17,09,28,12,,,,,,,,,5.1,5.0,1.0*34
$GPRMC,182652.000,A,3748.8059,N,12217.8606,W,0.13,85.04,071011,,,A*48
$GPVTG,85.04,T,,M,0.13,N,0.2,K,A*34
$GPGGA,182653.000,3748.8058,N,12217.8608,W,1,04,5.0,5.9,M,-25.1,M,,0000*6F
$GPGSA,A,3,17,09,28,12,,,,,,,,,5.1,5.0,1.0*34
$GPRMC,182653.000,A,3748.8058,N,12217.8608,W,0.28,35.28,071011,,,A*4B
$GPVTG,35.28,T,,M,0.28,N,0.5,K,A*3E
$GPGGA,182654.000,3748.8056,N,12217.8608,W,1,04,5.0,5.8,M,-25.1,M,,0000*67
$GPGSA,A,3,17,09,28,12,,,,,,,,,5.1,5.0,1.0*34
$GPRMC,182654.000,A,3748.8056,N,12217.8608,W,0.20,8.61,071011,,,A*79
$GPVTG,8.61,T,,M,0.20,N,0.4,K,A*04
$GPGGA,182655.000,3748.8053,N,12217.8609,W,1,04,5.0,6.0,M,-25.1,M,,0000*69
$GPGSA,A,3,17,09,28,12,,,,,,,,,5.1,5.0,1.0*34
$GPGSV,3,1,09,27,62,291,26,17,55,041,35,09,47,308,35,04,46,142,*7E
$GPGSV,3,2,09,28,29,086,35,02,20,182,,12,15,293,34,26,11,206,24*7D
$GPGSV,3,3,09,01,01,031,*42
$GPRMC,182655.000,A,3748.8053,N,12217.8609,W,0.09,32.67,071011,,,A*48
$GPVTG,32.67,T,,M,0.09,N,0.2,K,A*36
$GPGGA,182656.000,3748.8051,N,12217.8610,W,1,04,5.0,6.1,M,-25.1,M,,0000*61
$GPGSA,A,3,17,09,28,12,,,,,,,,,5.1,5.0,1.0*34
$GPRMC,182656.000,A,3748.8051,N,12217.8610,W,0.11,86.27,071011,,,A*43
$GPVTG,86.27,T,,M,0.11,N,0.2,K,A*34
$GPGGA,182657.000,3748.8048,N,12217.8610,W,1,04,5.0,6.2,M,-25.1,M,,0000*6B
$GPGSA,A,3,17,09,28,12,,,,,,,,,5.1,5.0,1.0*34
$GPRMC,182657.000,A,3748.8048,N,12217.8610,W,0.09,86.88,071011,,,A*46
$GPVTG,86.88,T,,M,0.09,N,0.2,K,A*38
$GPGGA,182658.000,3748.8046,N,12217.8611,W,1,04,5.0,6.3,M,-25.1,M,,0000*6A
$GPGSA,A,3,17,09,28,12,,,,,,,,,5.1,5.0,1.0*34
$GPRMC,182658.000,A,3748.8046,N,12217.8611,W,0.06,183.34,071011,,,A*7A
$GPVTG,183.34,T,,M,0.06,N,0.1,K,A*07
$GPGGA,182659.000,3748.8044,N,12217.8611,W,1,04,5.0,6.3,M,-25.1,M,,0000*69
$GPGSA,A,3,17,09,28,12,,,,,,,,,5.1,5.0,1.0*34
$GPRMC,182659.000,A,3748.8044,N,12217.8611,W,0.09,118.63,071011,,,A*76
$GPVTG,118.63,T,,M,0.09,N,0.2,K,A*0B
$GPGGA,182700.000,3748.8043,N,12217.8612,W,1,04,5.0,6.4,M,-25.1,M,,0000*67
$GPGSA,A,3,17,09,28,12,,,,,,,,,5.1,5.0,1.0*34
$GPGSV,3,1,09,27,62,291,33,17,55,041,35,09,47,308,35,04,46,142,*7A
$GPGSV,3,2,09,28,29,086,36,02,20,182,,12,15,293,34,26,11,206,26*7C
$GPGSV,3,3,09,01,01,031,*42
$GPRMC,182700.000,A,3748.8043,N,12217.8612,W,0.11,126.10,071011,,,A*7F
$GPVTG,126.10,T,,M,0.11,N,0.2,K,A*0B
$GPGGA,182701.000,3748.8041,N,12217.8612,W,1,04,5.0,6.4,M,-25.1,M,,0000*64
$GPGSA,A,3,17,09,28,12,,,,,,,,,5.1,5.0,1.0*34
$GPRMC,182701.000,A,3748.8041,N,12217.8612,W,0.02,156.01,071011,,,A*79
$GPVTG,156.01,T,,M,0.02,N,0.0,K,A*0C
$GPGGA,182702.000,3748.8040,N,12217.8612,W,1,04,5.0,6.3,M,-25.1,M,,0000*61
$GPGSA,A,3,17,09,28,12,,,,,,,,,5.1,5.0,1.0*34
$GPRMC,182702.000,A,3748.8040,N,12217.8612,W,0.06,107.55,071011,,,A*7A
$GPVTG,107.55,T,,M,0.06,N,0.1,K,A*0C
$GPGGA,182703.000,3748.8039,N,12217.8612,W,1,04,5.0,6.3,M,-25.1,M,,0000*6E
$GPGSA,A,3,17,09,28,12,,,,,,,,,5.0,5.0,1.0*35
$GPRMC,182703.000,A,3748.8039,N,12217.8612,W,0.05,119.47,071011,,,A*7A
$GPVTG,119.47,T,,M,0.05,N,0.1,K,A*03
$GPGGA,182704.000,3748.8039,N,12217.8612,W,1,04,5.0,6.2,M,-25.1,M,,0000*68
$GPGSA,A,3,17,09,28,12,,,,,,,,,5.0,5.0,1.0*35
$GPRMC,182704.000,A,3748.8039,N,12217.8612,W,0.12,58.89,071011,,,A*4D
$GPVTG,58.89,T,,M,0.12,N,0.2,K,A*30
$GPGGA,182705.000,3748.8038,N,12217.8612,W,1,04,5.0,6.0,M,-25.1,M,,0000*6A
$GPGSA,A,3,17,09,28,12,,,,,,,,,5.0,5.0,1.0*35
$GPGSV,3,1,10,27,62,291,34,17,55,041,36,09,47,308,36,04,46,142,*75
$GPGSV,3,2,10,28,29,086,36,02,20,182,,12,15,293,22,26,11,206,26*73
$GPGSV,3,3,10,01,01,031,,48,44,197,27*7C
$GPRMC,182705.000,A,3748.8038,N,12217.8612,W,0.04,185.19,071011,,,A*72
$GPVTG,185.19,T,,M,0.04,N,0.1,K,A*0C
$GPGGA,182706.000,3748.8037,N,12217.8612,W,1,04,4.9,5.9,M,-25.1,M,,0000*64
$GPGSA,A,3,17,09,28,12,,,,,,,,,5.0,4.9,1.0*3D
$GPRMC,182706.000,A,3748.8037,N,12217.8612,W,0.15,104.53,071011,,,A*79
$GPVTG,104.53,T,,M,0.15,N,0.3,K,A*09
$GPGGA,182707.000,3748.8037,N,12217.8612,W,1,04,4.9,6.0,M,-25.1,M,,0000*6F
$GPGSA,A,3,17,09,28,12,,,,,,,,,5.0,4.9,1.0*3D
$GPRMC,182707.000,A,3748.8037,N,12217.8612,W,0.27,41.60,071011,,,A*49
$GPVTG,41.60,T,,M,0.27,N,0.5,K,A*3E
$GPGGA,182708.000,3748.8032,N,12217.8612,W,1,04,4.9,7.0,M,-25.1,M,,0000*64
$GPGSA,A,3,17,09,28,12,,,,,,,,,5.0,4.9,1.0*3D
$GPRMC,182708.000,A,3748.8032,N,12217.8612,W,0.16,37.21,071011,,,A*45
$GPVTG,37.21,T,,M,0.16,N,0.3,K,A*3E
$GPGGA,182709.000,3748.8032,N,12217.8611,W,1,04,4.9,7.2,M,-25.1,M,,0000*64
$GPGSA,A,3,17,09,28,12,,,,,,,,,5.0,4.9,1.0*3D
$GPRMC,182709.000,A,3748.8032,N,12217.8611,W,0.40,52.52,071011,,,A*43
$GPVTG,52.52,T,,M,0.40,N,0.7,K,A*3E
$GPGGA,182710.000,3748.8025,N,12217.8611,W,1,04,4.9,8.5,M,-25.1,M,,0000*62
$GPGSA,A,3,17,09,28,12,,,,,,,,,5.0,4.9,1.0*3D
$GPGSV,3,1,09,27,62,291,28,17,55,041,36,09,47,308,27,04,46,142,*70
$GPGSV,3,2,09,28,29,086,36,02,20,182,,12,15,293,22,26,11,206,27*7A
$GPGSV,3,3,09,01,01,031,*42
$GPRMC,182710.000,A,3748.8025,N,12217.8611,W,0.08,167.57,071011,,,A*73
$GPVTG,167.57,T,,M,0.08,N,0.1,K,A*06
$GPGGA,182711.000,3748.8027,N,12217.8607,W,1,04,4.9,8.9,M,-25.1,M,,0000*6A
$GPGSA,A,3,17,09,28,12,,,,,,,,,5.0,4.9,1.0*3D
$GPRMC,182711.000,A,3748.8027,N,12217.8607,W,0.37,72.42,071011,,,A*4A
$GPVTG,72.42,T,,M,0.37,N,0.7,K,A*3D
$GPGGA,182712.000,3748.8031,N,12217.8602,W,1,04,4.9,9.0,M,-25.1,M,,0000*63
$GPGSA,A,3,17,09,28,12,,,,,,,,,5.0,4.9,1.0*3D
$GPRMC,182712.000,A,3748.8031,N,12217.8602,W,0.71,39.82,071011,,,A*4A
$GPVTG,39.82,T,,M,0.71,N,1.3,K,A*39
$GPGGA,182713.000,3748.8034,N,12217.8599,W,1,04,4.9,9.0,M,-25.1,M,,0000*66
$GPGSA,A,3,17,09,28,12,,,,,,,,,5.0,4.9,1.0*3D
$GPRMC,182713.000,A,3748.8034,N,12217.8599,W,0.48,24.03,071011,,,A*40
$GPVTG,24.03,T,,M,0.48,N,0.9,K,A*3D
$GPGGA,182714.000,3748.8035,N,12217.8596,W,1,04,4.9,9.2,M,-25.1,M,,0000*6D
$GPGSA,A,3,17,09,28,12,,,,,,,,,5.0,4.9,1.0*3D
$GPRMC,182714.000,A,3748.8035,N,12217.8596,W,0.22,28.18,071011,,,A*43
$GPVTG,28.18,T,,M,0.22,N,0.4,K,A*3A
$GPGGA,182715.000,3748.8036,N,12217.8594,W,1,04,4.9,9.6,M,-25.1,M,,0000*69
$GPGSA,A,3,17,09,28,12,,,,,,,,,5.0,4.9,1.0*3D
$GPGSV,3,1,10,27,62,291,29,17,55,041,36,09,47,308,34,04,46,142,*7B
$GPGSV,3,2,10,28,29,086,37,02,20,182,,12,15,293,28,26,11,206,26*78
$GPGSV,3,3,10,01,01,031,,48,44,197,32*78
$GPVTG,74.29,T,,M,0.13,N,0.2,K,A*35
$GPGGA,182716.000,3748.8036,N,12217.8592,W,1,04,4.9,9.9,M,-25.1,M,,0000*63
$GPGSA,A,3,17,09,28,12,,,,,,,,,5.0,4.9,1.0*3D
$GPRMC,182716.000,A,3748.8036,N,12217.8592,W,0.17,80.78,071011,,,A*44
$GPVTG,80.78,T,,M,0.17,N,0.3,K,A*3F
$GPGGA,182717.000,3748.8035,N,12217.8590,W,1,04,4.9,10.3,M,-25.1,M,,0000*51
$GPGSA,A,3,17,09,28,12,,,,,,,,,5.0,4.9,1.0*3D
$GPRMC,182717.000,A,3748.8035,N,12217.8590,W,0.14,113.36,071011,,,A*76
$GPVTG,113.36,T,,M,0.14,N,0.3,K,A*0D
$GPGGA,182718.000,3748.8035,N,12217.8589,W,1,04,4.9,10.6,M,-25.1,M,,0000*53
$GPGSA,A,3,17,09,28,12,,,,,,,,,5.0,4.9,1.0*3D
$GPRMC,182718.000,A,3748.8035,N,12217.8589,W,0.03,325.00,071011,,,A*75
$GPVTG,325.00,T,,M,0.03,N,0.1,K,A*0B
$GPGGA,182719.000,3748.8035,N,12217.8589,W,1,04,4.9,10.9,M,-25.1,M,,0000*5D
$GPGSA,A,3,17,09,28,12,,,,,,,,,5.0,4.9,1.0*3D
$GPRMC,182719.000,A,3748.8035,N,12217.8589,W,0.16,298.43,071011,,,A*70
$GPVTG,298.43,T,,M,0.16,N,0.3,K,A*0D
$GPGGA,182720.000,3748.8034,N,12217.8589,W,1,04,4.9,11.2,M,-25.1,M,,0000*5C
$GPGSA,A,3,17,09,28,12,,,,,,,,,5.0,4.9,1.0*3D
$GPGSV,3,1,11,27,62,291,30,17,55,041,36,09,47,307,33,04,46,142,30*79
$GPGSV,3,2,11,28,29,086,38,02,20,182,,15,19,242,21,12,15,293,28*79
$GPGSV,3,3,11,26,10,205,26,01,01,031,,48,44,197,33*4E
$GPRMC,182720.000,A,3748.8034,N,12217.8589,W,0.06,219.02,071011,,,A*76
$GPVTG,219.02,T,,M,0.06,N,0.1,K,A*02
$GPGGA,182721.000,3748.8033,N,12217.8588,W,1,04,4.9,11.5,M,-25.1,M,,0000*5C
$GPGSA,A,3,17,09,28,12,,,,,,,,,5.0,4.9,1.0*3D
$GPRMC,182721.000,A,3748.8033,N,12217.8588,W,0.06,110.80,071011,,,A*71
$GPVTG,110.80,T,,M,0.06,N,0.1,K,A*02
$GPGGA,182722.000,3748.8031,N,12217.8589,W,1,04,4.9,12.0,M,-25.1,M,,0000*5A
$GPGSA,A,3,17,09,28,12,,,,,,,,,5.0,4.9,1.0*3D
$GPRMC,182722.000,A,3748.8031,N,12217.8589,W,0.02,46.23,071011,,,A*4E
$GPVTG,46.23,T,,M,0.02,N,0.0,K,A*3C
$GPGGA,182723.000,3748.8028,N,12217.8589,W,1,04,4.9,12.4,M,-25.1,M,,0000*57
$GPGSA,A,3,17,09,28,12,,,,,,,,,5.0,4.9,1.0*3D
$GPRMC,182723.000,A,3748.8028,N,12217.8589,W,0.22,146.10,071011,,,A*74
$GPVTG,146.10,T,,M,0.22,N,0.4,K,A*0B
$GPGGA,182724.000,3748.8025,N,12217.8589,W,1,04,4.9,12.8,M,-25.1,M,,0000*51
$GPGSA,A,3,17,09,28,12,,,,,,,,,5.0,4.9,1.0*3D
$GPRMC,182724.000,A,3748.8025,N,12217.8589,W,0.11,171.92,071011,,,A*70
$GPVTG,171.92,T,,M,0.11,N,0.2,K,A*03
$GPGGA,182725.000,3748.8022,N,12217.8590,W,1,04,4.9,13.2,M,-25.1,M,,0000*54
$GPGSA,A,3,17,09,28,12,,,,,,,,,5.0,4.9,1.0*3D
$GPGSV,3,1,11,27,62,291,30,17,55,041,36,09,47,307,32,04,46,142,25*7C
$GPGSV,3,2,11,28,29,086,38,02,20,182,,15,19,242,29,12,15,293,29*70
$GPGSV,3,3,11,26,10,205,27,01,01,031,,48,44,197,32*4E
$GPRMC,182725.000,A,3748.8022,N,12217.8590,W,0.20,205.53,071011,,,A*71
$GPVTG,205.53,T,,M,0.20,N,0.4,K,A*0A
$GPGGA,182726.000,3748.8020,N,12217.8590,W,1,04,4.9,13.6,M,-25.1,M,,0000*51
$GPGSA,A,3,17,09,28,12,,,,,,,,,5.0,4.9,1.0*3D
$GPRMC,182726.000,A,3748.8020,N,12217.8590,W,0.14,148.26,071011,,,A*7F
$GPVTG,148.26,T,,M,0.14,N,0.3,K,A*02
$GPGGA,182727.000,3748.8017,N,12217.8591,W,1,04,4.9,14.0,M,-25.1,M,,0000*54
$GPGSA,A,3,17,09,28,12,,,,,,,,,5.0,4.9,1.0*3D
$GPRMC,182727.000,A,3748.8017,N,12217.8591,W,0.20,187.47,071011,,,A*78
$GPVTG,187.47,T,,M,0.20,N,0.4,K,A*06
$GPGGA,182728.000,3748.8015,N,12217.8592,W,1,04,4.9,14.3,M,-25.1,M,,0000*59
$GPGSA,A,3,17,09,28,12,,,,,,,,,5.0,4.9,1.0*3D
$GPRMC,182728.000,A,3748.8015,N,12217.8592,W,0.13,202.28,071011,,,A*71
$GPVTG,202.28,T,,M,0.13,N,0.2,K,A*07
$GPGGA,182729.000,3748.8017,N,12217.8593,W,1,04,4.9,13.9,M,-25.1,M,,0000*56
$GPGSA,A,3,17,09,28,12,,,,,,,,,5.0,4.9,1.0*3D
$GPRMC,182729.000,A,3748.8017,N,12217.8593,W,0.22,303.18,071011,,,A*72
$GPVTG,303.18,T,,M,0.22,N,0.4,K,A*00
$GPGGA,182730.000,3748.8018,N,12217.8595,W,1,04,4.9,13.4,M,-25.1,M,,0000*5A
$GPGSA,A,3,17,09,28,12,,,,,,,,,5.0,4.9,1.0*3D
$GPGSV,3,1,10,27,62,291,30,17,55,041,35,09,47,307,34,04,46,142,27*7A
$GPGSV,3,2,10,28,29,086,27,02,20,182,,15,19,242,37,12,15,293,38*70
$GPGSV,3,3,10,26,10,205,23,01,01,031,*79
$GPRMC,182730.000,A,3748.8018,N,12217.8595,W,0.05,19.15,071011,,,A*43
$GPVTG,19.15,T,,M,0.05,N,0.1,K,A*35
$GPGGA,182731.000,3748.8019,N,12217.8595,W,1,04,4.9,13.0,M,-25.1,M,,0000*5E
$GPGSA,A,3,17,09,28,12,,,,,,,,,5.0,4.9,1.0*3D
$GPRMC,182731.000,A,3748.8019,N,12217.8595,W,0.16,53.80,071011,,,A*43
$GPVTG,53.80,T,,M,0.16,N,0.3,K,A*37
$GPGGA,182732.000,3748.8020,N,12217.8596,W,1,04,4.9,12.6,M,-25.1,M,,0000*53
$GPGSA,A,3,17,09,28,12,,,,,,,,,5.0,4.9,1.0*3D
$GPRMC,182732.000,A,3748.8020,N,12217.8596,W,0.06,59.98,071011,,,A*4B
$GPVTG,59.98,T,,M,0.06,N,0.1,K,A*37
$GPGGA,182733.000,3748.8022,N,12217.8596,W,1,04,4.9,12.2,M,-25.1,M,,0000*54
$GPGSA,A,3,17,09,28,12,,,,,,,,,5.0,4.9,1.0*3D
$GPRMC,182733.000,A,3748.8022,N,12217.8596,W,0.16,46.06,071011,,,A*40
$GPVTG,46.06,T,,M,0.16,N,0.3,K,A*3D
$GPGGA,182734.000,3748.8024,N,12217.8597,W,1,04,4.9,11.8,M,-25.1,M,,0000*5D
$GPGSA,A,3,17,09,28,12,,,,,,,,,5.0,4.9,1.0*3D
$GPRMC,182734.000,A,3748.8024,N,12217.8597,W,0.15,32.89,071011,,,A*47
$GPVTG,32.89,T,,M,0.15,N,0.3,K,A*3A
$GPGGA,182735.000,3748.8025,N,12217.8597,W,1,04,4.9,11.4,M,-25.1,M,,0000*51
$GPGSA,A,3,17,09,28,12,,,,,,,,,5.0,4.9,1.0*3D
$GPGSV,3,1,11,27,62,291,31,17,55,041,36,09,47,307,40,04,46,142,21*7C
$GPGSV,3,2,11,28,29,086,31,02,20,182,,15,19,242,36,12,15,293,38*77
$GPGSV,3,3,11,26,10,205,20,01,01,031,,48,44,197,28*42
$GPRMC,182735.000,A,3748.8025,N,12217.8597,W,0.14,310.50,071011,,,A*71
$GPVTG,310.50,T,,M,0.14,N,0.3,K,A*0C
$GPGGA,182736.000,3748.8030,N,12217.8598,W,1,04,4.9,11.1,M,-25.1,M,,0000*5C
$GPGSA,A,3,17,09,28,12,,,,,,,,,5.0,4.9,1.0*3D
$GPRMC,182736.000,A,3748.8030,N,12217.8598,W,0.27,14.46,071011,,,A*49
$GPVTG,14.46,T,,M,0.27,N,0.5,K,A*3A
$GPGGA,182737.000,3748.8037,N,12217.8598,W,1,04,4.9,10.7,M,-25.1,M,,0000*5D
$GPGSA,A,3,17,09,28,12,,,,,,,,,5.0,4.9,1.0*3D
$GPRMC,182737.000,A,3748.8037,N,12217.8598,W,0.48,29.29,071011,,,A*41
$GPVTG,29.29,T,,M,0.48,N,0.9,K,A*38
$GPGGA,182738.000,3748.8038,N,12217.8598,W,1,04,4.9,10.4,M,-25.1,M,,0000*5E
$GPGSA,A,3,17,09,28,12,,,,,,,,,5.0,4.9,1.0*3D
$GPRMC,182738.000,A,3748.8038,N,12217.8598,W,0.17,56.15,071011,,,A*4C
$GPVTG,56.15,T,,M,0.17,N,0.3,K,A*3F
$GPGGA,182739.000,3748.8046,N,12217.8598,W,1,04,4.9,10.1,M,-25.1,M,,0000*53
$GPGSA,A,3,17,09,28,12,,,,,,,,,5.0,4.9,1.0*3D
$GPRMC,182739.000,A,3748.8046,N,12217.8598,W,0.21,38.37,071011,,,A*49
$GPVTG,38.37,T,,M,0.21,N,0.4,K,A*35
$GPGGA,182740.000,3748.8038,N,12217.8599,W,1,04,4.9,9.9,M,-25.1,M,,0000*65
$GPGSA,A,3,17,09,28,12,,,,,,,,,5.0,4.9,1.0*3D
$GPGSV,3,1,10,27,62,291,35,17,55,041,34,09,47,307,40,04,46,142,18*71
$GPGSV,3,2,10,28,29,086,22,02,20,182,27,15,19,242,39,12,15,293,32*74
$GPGSV,3,3,10,26,10,205,21,01,01,031,*7B
$GPRMC,182740.000,A,3748.8038,N,12217.8599,W,0.10,152.34,071011,,,A*73
$GPVTG,152.34,T,,M,0.10,N,0.2,K,A*0F
$GPGGA,182741.000,3748.8026,N,12217.8599,W,1,04,4.9,9.7,M,-25.1,M,,0000*65
$GPGSA,A,3,17,09,28,12,,,,,,,,,5.0,4.9,1.0*3D
$GPRMC,182741.000,A,3748.8026,N,12217.8599,W,0.36,184.24,071011,,,A*73
$GPVTG,184.24,T,,M,0.36,N,0.7,K,A*04
$GPGGA,182742.000,3748.8016,N,12217.8600,W,1,04,4.9,9.6,M,-25.1,M,,0000*67
$GPGSA,A,3,17,09,28,12,,,,,,,,,5.0,4.9,1.0*3D
$GPRMC,182742.000,A,3748.8016,N,12217.8600,W,0.41,188.79,071011,,,A*74
$GPVTG,188.79,T,,M,0.41,N,0.8,K,A*0F
$GPGGA,182743.000,3748.8003,N,12217.8601,W,1,04,8.8,9.5,M,-25.1,M,,0000*6D
$GPGSA,A,3,17,09,28,12,,,,,,,,,10.0,8.8,4.7*06
$GPRMC,182743.000,A,3748.8003,N,12217.8601,W,1.31,176.80,071011,,,A*71
$GPVTG,176.80,T,,M,1.31,N,2.4,K,A*00
$GPGGA,182744.000,3748.8015,N,12217.8602,W,1,04,8.8,9.2,M,-25.1,M,,0000*69
$GPGSA,A,3,17,09,28,12,,,,,,,,,10.0,8.8,4.7*06
$GPRMC,182744.000,A,3748.8015,N,12217.8602,W,0.35,234.45,071011,,,A*7B
$GPVTG,234.45,T,,M,0.35,N,0.6,K,A*09
$GPGGA,182745.000,3748.8005,N,12217.8609,W,1,04,8.8,9.6,M,-25.1,M,,0000*66
$GPGSA,A,3,17,09,28,12,,,,,,,,,10.0,8.8,4.7*06
$GPGSV,3,1,11,27,62,291,36,17,55,041,27,09,47,307,40,04,46,142,25*7F
$GPGSV,3,2,11,28,29,086,21,02,20,182,22,15,19,242,39,12,15,293,38*79
$GPGSV,3,3,11,26,10,205,27,01,01,031,,48,44,197,37*4B
$GPRMC,182745.000,A,3748.8005,N,12217.8609,W,0.76,204.36,071011,,,A*70
$GPVTG,204.36,T,,M,0.76,N,1.4,K,A*0A
$GPGGA,182746.000,3748.7998,N,12217.8614,W,1,04,8.8,9.8,M,-25.1,M,,0000*65
$GPGSA,A,3,17,09,28,12,,,,,,,,,9.9,8.8,4.7*37
$GPRMC,182746.000,A,3748.7998,N,12217.8614,W,0.95,194.51,071011,,,A*7B
$GPVTG,194.51,T,,M,0.95,N,1.8,K,A*00
$GPGGA,182747.000,3748.7989,N,12217.8618,W,1,04,8.8,10.0,M,-25.1,M,,0000*58
$GPGSA,A,3,17,09,28,12,,,,,,,,,9.9,8.8,4.6*36
$GPRMC,182747.000,A,3748.7989,N,12217.8618,W,1.88,193.39,071011,,,A*72
$GPVTG,193.39,T,,M,1.88,N,3.5,K,A*0B
$GPGGA,182748.000,3748.7973,N,12217.8624,W,1,04,8.8,10.4,M,-25.1,M,,0000*59
$GPGSA,A,3,17,09,28,12,,,,,,,,,9.9,8.8,4.6*36
$GPRMC,182748.000,A,3748.7973,N,12217.8624,W,2.27,177.50,071011,,,A*74
$GPVTG,177.50,T,,M,2.27,N,4.2,K,A*08
$GPGGA,182749.000,3748.7961,N,12217.8627,W,1,04,8.8,10.4,M,-25.1,M,,0000*58
$GPGSA,A,3,17,09,28,12,,,,,,,,,9.9,8.8,4.6*36
$GPRMC,182749.000,A,3748.7961,N,12217.8627,W,3.62,185.95,071011,,,A*71
$GPVTG,185.95,T,,M,3.62,N,6.7,K,A*0B
$GPGGA,182750.000,3748.7954,N,12217.8631,W,1,04,8.7,10.5,M,-25.1,M,,0000*5F
$GPGSA,A,3,17,09,28,12,,,,,,,,,9.9,8.7,4.6*39
$GPGSV,3,1,11,27,62,291,35,17,55,041,26,09,47,307,39,04,46,142,31*76
$GPGSV,3,2,11,28,29,086,20,02,20,182,38,15,18,242,40,12,15,293,37*73
$GPGSV,3,3,11,26,10,205,29,01,00,031,,48,44,197,36*45
$GPRMC,182750.000,A,3748.7954,N,12217.8631,W,3.09,190.21,071011,,,A*7E
$GPVTG,190.21,T,,M,3.09,N,5.7,K,A*0E
$GPGGA,182751.000,3748.7934,N,12217.8641,W,1,04,8.7,11.2,M,-25.1,M,,0000*59
$GPGSA,A,3,17,09,28,12,,,,,,,,,9.9,8.7,4.6*39
$GPRMC,182751.000,A,3748.7934,N,12217.8641,W,3.87,193.85,071011,,,A*75
$GPVTG,193.85,T,,M,3.87,N,7.2,K,A*02
$GPGGA,182752.000,3748.7916,N,12217.8648,W,1,04,8.7,11.5,M,-25.1,M,,0000*54
$GPGSA,A,3,17,09,28,12,,,,,,,,,9.9,8.7,4.6*39
$GPRMC,182752.000,A,3748.7916,N,12217.8648,W,4.53,188.27,071011,,,A*73
$GPVTG,188.27,T,,M,4.53,N,8.4,K,A*07
$GPGGA,182753.000,3748.7899,N,12217.8653,W,1,04,8.7,11.8,M,-25.1,M,,0000*54
$GPGSA,A,3,17,09,28,12,,,,,,,,,9.8,8.7,4.6*38
$GPRMC,182753.000,A,3748.7899,N,12217.8653,W,5.26,187.65,071011,,,A*74
$GPVTG,187.65,T,,M,5.26,N,9.7,K,A*0F
$GPGGA,182754.000,3748.7894,N,12217.8654,W,1,04,8.7,11.5,M,-25.1,M,,0000*54
$GPGSA,A,3,17,09,28,12,,,,,,,,,9.8,8.7,4.6*38
$GPRMC,182754.000,A,3748.7894,N,12217.8654,W,5.38,189.30,071011,,,A*78
$GPVTG,189.30,T,,M,5.38,N,10.0,K,A*31
$GPGGA,182755.000,3748.7871,N,12217.8663,W,1,04,8.7,12.0,M,-25.1,M,,0000*5C
$GPGSA,A,3,17,09,28,12,,,,,,,,,9.8,8.7,4.6*38
$GPGSV,3,1,11,27,62,291,35,17,55,041,25,09,47,307,39,04,46,142,30*74
$GPGSV,3,2,11,28,29,086,21,02,20,182,26,15,18,242,38,12,15,293,35*70
$GPRMC,182755.000,A,3748.7871,N,12217.8663,W,5.84,190.05,071011,,,A*7F
$GPVTG,190.05,T,,M,5.84,N,10.8,K,A*30
$GPGGA,182756.000,3748.7863,N,12217.8667,W,1,04,8.7,12.1,M,-25.1,M,,0000*59
$GPGSA,A,3,17,09,28,12,,,,,,,,,9.8,8.7,4.6*38
$GPRMC,182756.000,A,3748.7863,N,12217.8667,W,5.47,184.93,071011,,,A*7E
$GPVTG,184.93,T,,M,5.47,N,10.1,K,A*3C
$GPGGA,182757.000,3748.7876,N,12217.8668,W,1,04,8.6,11.9,M,-25.1,M,,0000*59
$GPGSA,A,3,17,09,28,12,,,,,,,,,9.8,8.6,4.6*39
$GPRMC,182757.000,A,3748.7876,N,12217.8668,W,3.56,184.98,071011,,,A*79
$GPVTG,184.98,T,,M,3.56,N,6.6,K,A*01
$GPGGA,182758.000,3748.7884,N,12217.8668,W,1,04,8.6,11.6,M,-25.1,M,,0000*54
$GPGSA,A,3,17,09,28,12,,,,,,,,,9.8,8.6,4.6*39
$GPRMC,182758.000,A,3748.7884,N,12217.8668,W,2.46,178.59,071011,,,A*75
$GPVTG,178.59,T,,M,2.46,N,4.6,K,A*0D
$GPGGA,182759.000,3748.7894,N,12217.8666,W,1,04,8.6,11.6,M,-25.1,M,,0000*5A
$GPGSA,A,3,17,09,28,12,,,,,,,,,9.8,8.6,4.6*39
$GPRMC,182759.000,A,3748.7894,N,12217.8666,W,1.13,165.99,071011,,,A*78
$GPVTG,165.99,T,,M,1.13,N,2.1,K,A*0F
$GPGGA,182800.000,3748.7892,N,12217.8661,W,1,04,8.6,12.6,M,-25.1,M,,0000*5B
$GPGSA,A,3,17,09,28,12,,,,,,,,,9.7,8.6,4.6*36
$GPGSV,3,1,11,27,62,291,26,17,55,041,34,09,47,307,19,04,46,142,36*72
$GPGSV,3,2,11,28,29,086,37,02,20,182,26,15,18,242,19,12,15,293,18*7B
$GPGSV,3,3,11,26,10,205,18,01,00,031,,48,44,197,31*40
$GPRMC,182800.000,A,3748.7892,N,12217.8661,W,1.47,93.10,071011,,,A*42
$GPVTG,93.10,T,,M,1.47,N,2.7,K,A*31
$GPGGA,182801.000,3748.7901,N,12217.8649,W,1,03,5.4,11.8,M,-25.1,M,,0000*5E
$GPGSA,A,2,17,09,28,,,,,,,,,,5.5,5.4,1.0*36
$GPRMC,182801.000,A,3748.7901,N,12217.8649,W,2.64,68.34,071011,,,A*42
$GPVTG,68.34,T,,M,2.64,N,4.9,K,A*39
$GPGGA,182802.000,3748.7905,N,12217.8641,W,1,03,5.4,11.8,M,-25.1,M,,0000*51
$GPGSA,A,2,17,09,28,,,,,,,,,,5.5,5.4,1.0*36
$GPRMC,182802.000,A,3748.7905,N,12217.8641,W,2.27,60.17,071011,,,A*43
$GPVTG,60.17,T,,M,2.27,N,4.2,K,A*3C
$GPGGA,182803.000,3748.7916,N,12217.8630,W,1,03,5.4,10.8,M,-25.1,M,,0000*55
$GPGSA,A,2,17,09,28,,,,,,,,,,5.5,5.4,1.0*36
$GPRMC,182803.000,A,3748.7916,N,12217.8630,W,2.19,58.52,071011,,,A*41
$GPVTG,58.52,T,,M,2.19,N,4.0,K,A*39
$GPGGA,182804.000,3748.7921,N,12217.8622,W,1,03,5.4,10.2,M,-25.1,M,,0000*5F
$GPGSA,A,2,17,09,28,,,,,,,,,,5.5,5.4,1.0*36
$GPRMC,182804.000,A,3748.7921,N,12217.8622,W,1.49,70.82,071011,,,A*40
$GPVTG,70.82,T,,M,1.49,N,2.8,K,A*36
$GPGGA,182805.000,3748.7925,N,12217.8614,W,1,03,5.4,9.9,M,-25.1,M,,0000*6C
$GPGSA,A,2,17,09,28,,,,,,,,,,5.5,5.4,1.0*36
$GPGSV,3,1,11,27,62,291,27,17,55,041,33,09,47,307,24,04,46,142,38*74
$GPGSV,3,2,11,28,29,086,39,02,20,182,36,15,18,242,31,12,15,293,18*7E
$GPGSV,3,3,11,26,10,205,23,01,00,031,,48,44,197,35*4C
$GPRMC,182805.000,A,3748.7925,N,12217.8614,W,2.02,82.97,071011,,,A*45
$GPVTG,82.97,T,,M,2.02,N,3.7,K,A*3D
$GPGGA,182806.000,3748.7937,N,12217.8601,W,1,03,5.4,8.8,M,-25.1,M,,0000*68
$GPGSA,A,2,17,09,28,,,,,,,,,,5.5,5.4,1.0*36
$GPRMC,182806.000,A,3748.7937,N,12217.8601,W,1.95,82.33,071011,,,A*42
$GPVTG,82.33,T,,M,1.95,N,3.6,K,A*3F
$GPGGA,182807.000,3748.7950,N,12217.8588,W,1,03,5.4,7.7,M,-25.1,M,,0000*6A
$GPGSA,A,2,17,09,28,,,,,,,,,,5.5,5.4,1.0*36
$GPRMC,182807.000,A,3748.7950,N,12217.8588,W,1.87,82.19,071011,,,A*4B
$GPVTG,82.19,T,,M,1.87,N,3.5,K,A*37
$GPGGA,182808.000,3748.7953,N,12217.8578,W,1,04,8.5,7.6,M,-25.1,M,,0000*63
$GPGSA,A,3,17,09,28,12,,,,,,,,,9.6,8.5,4.5*37
$GPRMC,182808.000,A,3748.7953,N,12217.8578,W,1.85,89.91,071011,,,A*41
$GPVTG,89.91,T,,M,1.85,N,3.4,K,A*3F
$GPGGA,182809.000,3748.7964,N,12217.8563,W,1,04,8.5,7.2,M,-25.1,M,,0000*68
$GPGSA,A,3,17,09,28,12,,,,,,,,,9.6,8.5,4.5*37
$GPRMC,182809.000,A,3748.7964,N,12217.8563,W,1.83,90.73,071011,,,A*4C
$GPVTG,90.73,T,,M,1.83,N,3.4,K,A*3D
$GPGGA,182810.000,3748.7975,N,12217.8547,W,1,04,8.5,7.5,M,-25.1,M,,0000*61
$GPGSA,A,3,17,09,28,12,,,,,,,,,9.6,8.5,4.5*37
$GPGSV,3,1,11,27,62,291,27,17,55,041,27,09,47,307,23,04,46,142,39*77
$GPGSV,3,2,11,28,29,086,38,02,20,182,41,15,18,242,36,12,15,293,19*79
$GPGSV,3,3,11,26,10,205,25,01,00,031,,48,44,197,38*47
$GPRMC,182810.000,A,3748.7975,N,12217.8547,W,1.81,91.33,071011,,,A*45
$GPGGA,182811.000,3748.7988,N,12217.8529,W,1,04,8.4,7.4,M,-25.1,M,,0000*6A
$GPGSA,A,3,17,09,28,12,,,,,,,,,9.6,8.4,4.5*36
$GPRMC,182811.000,A,3748.7988,N,12217.8529,W,1.77,76.05,071011,,,A*4B
$GPVTG,76.05,T,,M,1.77,N,3.3,K,A*38
$GPGGA,182812.000,3748.7995,N,12217.8514,W,1,04,8.4,7.4,M,-25.1,M,,0000*6B
$GPGSA,A,3,17,09,28,12,,,,,,,,,9.6,8.4,4.5*36
$GPRMC,182812.000,A,3748.7995,N,12217.8514,W,1.64,78.40,071011,,,A*47
$GPVTG,78.40,T,,M,1.64,N,3.0,K,A*36
$GPGGA,182813.000,3748.8008,N,12217.8499,W,1,04,8.4,6.9,M,-25.1,M,,0000*60
$GPGSA,A,3,17,09,28,12,,,,,,,,,9.5,8.4,4.5*35
$GPRMC,182813.000,A,3748.8008,N,12217.8499,W,1.83,78.39,071011,,,A*47
$GPVTG,78.39,T,,M,1.83,N,3.4,K,A*35
$GPGGA,182814.000,3748.7990,N,12217.8496,W,1,04,8.4,9.9,M,-25.1,M,,0000*60
$GPGSA,A,3,17,09,28,12,,,,,,,,,9.5,8.4,4.5*35
$GPRMC,182814.000,A,3748.7990,N,12217.8496,W,1.42,100.44,071011,,,A*71
$GPVTG,100.44,T,,M,1.42,N,2.6,K,A*0F
$GPGGA,182815.000,3748.7973,N,12217.8497,W,1,04,8.4,11.4,M,-25.1,M,,0000*59
$GPGSA,A,3,17,09,28,12,,,,,,,,,9.5,8.4,4.5*35
$GPGSV,3,1,11,27,62,291,24,17,55,041,28,09,47,307,21,04,46,142,39*79
$GPGSV,3,2,11,28,29,086,28,02,20,182,41,15,18,242,35,12,15,293,23*72
$GPGSV,3,3,11,26,10,205,36,01,00,031,,48,44,197,38*45
$GPRMC,182815.000,A,3748.7973,N,12217.8497,W,1.61,116.19,071011,,,A*72
$GPVTG,116.19,T,,M,1.61,N,3.0,K,A*06
$GPGGA,182816.000,3748.7962,N,12217.8495,W,1,04,8.4,11.9,M,-25.1,M,,0000*55
$GPGSA,A,3,17,09,28,12,,,,,,,,,9.5,8.4,4.5*35
$GPRMC,182816.000,A,3748.7962,N,12217.8495,W,2.23,115.40,071011,,,A*79
$GPVTG,115.40,T,,M,2.23,N,4.1,K,A*0A
$GPGGA,182817.000,3748.7966,N,12217.8487,W,1,04,8.4,10.4,M,-25.1,M,,0000*5F
$GPGSA,A,3,17,09,28,12,,,,,,,,,9.5,8.4,4.5*35
$GPRMC,182817.000,A,3748.7966,N,12217.8487,W,2.10,110.22,071011,,,A*7E
$GPVTG,110.22,T,,M,2.10,N,3.9,K,A*04
$GPGGA,182818.000,3748.7994,N,12217.8466,W,1,04,8.4,5.7,M,-25.1,M,,0000*65
$GPGSA,A,3,17,09,28,12,,,,,,,,,9.5,8.4,4.5*35
$GPRMC,182818.000,A,3748.7994,N,12217.8466,W,2.93,95.23,071011,,,A*45
$GPVTG,95.23,T,,M,2.93,N,5.4,K,A*39
$GPGGA,182819.000,3748.8006,N,12217.8453,W,1,04,8.3,2.9,M,-25.1,M,,0000*61
$GPGSA,A,3,17,09,28,12,,,,,,,,,9.5,8.3,4.5*32
$GPRMC,182819.000,A,3748.8006,N,12217.8453,W,2.58,80.86,071011,,,A*43
$GPVTG,80.86,T,,M,2.58,N,4.8,K,A*38
$GPGGA,182820.000,3748.8004,N,12217.8446,W,1,04,8.3,2.3,M,-25.1,M,,0000*67
$GPGSA,A,3,17,09,28,12,,,,,,,,,9.4,8.3,4.5*33
$GPGSV,3,1,11,27,62,290,26,17,54,042,28,09,48,307,26,04,47,141,36*7D
$GPGSV,3,2,11,28,29,087,36,02,21,182,40,15,18,242,36,12,15,293,29*75
$GPGSV,3,3,11,26,10,205,38,01,00,031,,48,44,197,38*4B
$GPRMC,182820.000,A,3748.8004,N,12217.8446,W,2.53,76.74,071011,,,A*40
$GPVTG,76.74,T,,M,2.53,N,4.7,K,A*38
$GPGGA,182821.000,3748.8008,N,12217.8438,W,1,04,8.3,1.4,M,-25.1,M,,0000*67
$GPGSA,A,3,17,09,28,12,,,,,,,,,9.4,8.3,4.5*33
$GPRMC,182821.000,A,3748.8008,N,12217.8438,W,2.07,75.56,071011,,,A*46
$GPVTG,75.56,T,,M,2.07,N,3.8,K,A*32
$GPGGA,182822.000,3748.8012,N,12217.8430,W,1,04,8.3,1.4,M,-25.1,M,,0000*67
$GPGSA,A,3,17,09,28,12,,,,,,,,,9.4,8.3,4.5*33
$GPRMC,182822.000,A,3748.8012,N,12217.8430,W,2.49,72.72,071011,,,A*4D
$GPVTG,72.72,T,,M,2.49,N,4.6,K,A*30
$GPGGA,182823.000,3748.7990,N,12217.8431,W,1,04,8.3,2.2,M,-25.1,M,,0000*6E
$GPGSA,A,3,17,09,28,12,,,,,,,,,9.4,8.3,4.4*32
$GPRMC,182823.000,A,3748.7990,N,12217.8431,W,1.97,96.35,071011,,,A*48
$GPVTG,96.35,T,,M,1.97,N,3.6,K,A*3E
$GPGGA,182824.000,3748.7970,N,12217.8432,W,1,04,8.3,3.8,M,-25.1,M,,0000*6F
$GPGSA,A,3,17,09,28,12,,,,,,,,,9.4,8.3,4.4*32
$GPRMC,182824.000,A,3748.7970,N,12217.8432,W,2.17,92.73,071011,,,A*4F
$GPVTG,92.73,T,,M,2.17,N,4.0,K,A*32
$GPGGA,182825.000,3748.7966,N,12217.8428,W,1,04,8.3,3.8,M,-25.1,M,,0000*62
$GPGSA,A,3,17,09,28,12,,,,,,,,,9.4,8.3,4.4*32
$GPGSV,3,1,11,27,62,290,27,17,54,042,27,09,48,307,25,04,47,141,35*73
$GPGSV,3,2,11,28,29,087,28,02,21,182,35,15,18,242,32,12,15,293,29*7C
$GPGSV,3,3,11,26,10,205,29,01,00,031,,48,44,197,34*47
$GPRMC,182825.000,A,3748.7966,N,12217.8428,W,2.02,103.68,071011,,,A*75
$GPVTG,103.68,T,,M,2.02,N,3.7,K,A*05
$GPGGA,182826.000,3748.7970,N,12217.8420,W,1,04,8.3,3.2,M,-25.1,M,,0000*64
$GPGSA,A,3,17,09,28,12,,,,,,,,,9.4,8.3,4.4*32
$GPRMC,182826.000,A,3748.7970,N,12217.8420,W,2.10,90.40,071011,,,A*4B
$GPVTG,90.40,T,,M,2.10,N,3.9,K,A*39
$GPGGA,182827.000,3748.7929,N,12217.8425,W,1,04,8.2,4.6,M,-25.1,M,,0000*6E
$GPGSA,A,3,17,09,28,12,,,,,,,,,9.4,8.2,4.4*33
$GPRMC,182827.000,A,3748.7929,N,12217.8425,W,2.09,118.99,071011,,,A*7E
$GPVTG,118.99,T,,M,2.09,N,3.9,K,A*04
$GPGGA,182828.000,3748.7901,N,12217.8426,W,1,04,8.2,5.8,M,-25.1,M,,0000*67
$GPGSA,A,3,17,09,28,12,,,,,,,,,9.3,8.2,4.4*34
$GPRMC,182828.000,A,3748.7901,N,12217.8426,W,1.75,163.60,071011,,,A*7A
$GPVTG,163.60,T,,M,1.75,N,3.2,K,A*0D
$GPGGA,182829.000,3748.7894,N,12217.8421,W,1,04,8.2,5.1,M,-25.1,M,,0000*65
$GPGSA,A,3,17,09,28,12,,,,,,,,,9.3,8.2,4.4*34
$GPRMC,182829.000,A,3748.7894,N,12217.8421,W,2.42,161.89,071011,,,A*73
$GPVTG,161.89,T,,M,2.42,N,4.5,K,A*0F
$GPGGA,182830.000,3748.7884,N,12217.8416,W,1,04,8.2,5.2,M,-25.1,M,,0000*6B
$GPGSA,A,3,17,09,28,12,,,,,,,,,9.3,8.2,4.4*34
$GPGSV,3,1,11,27,62,290,24,17,54,042,27,09,48,307,25,04,47,141,34*71
$GPGSV,3,2,11,28,29,087,35,02,21,182,40,15,18,242,33,12,15,293,22*78
$GPGSV,3,3,11,26,10,205,37,01,00,031,,48,44,197,39*45
$GPRMC,182830.000,A,3748.7884,N,12217.8416,W,2.82,151.94,071011,,,A*7D
$GPVTG,151.94,T,,M,2.82,N,5.2,K,A*0A
$GPGGA,182831.000,3748.7888,N,12217.8407,W,1,04,8.2,5.6,M,-25.1,M,,0000*62
$GPGSA,A,3,17,09,28,12,,,,,,,,,9.3,8.2,4.4*34
$GPRMC,182831.000,A,3748.7888,N,12217.8407,W,1.88,152.60,071011,,,A*71
$GPVTG,152.60,T,,M,1.88,N,3.5,K,A*0A
$GPGGA,182832.000,3748.7890,N,12217.8399,W,1,04,8.2,4.9,M,-25.1,M,,0000*66
$GPGSA,A,3,17,09,28,12,,,,,,,,,9.3,8.2,4.4*34
$GPRMC,182832.000,A,3748.7890,N,12217.8399,W,1.92,158.15,071011,,,A*78
$GPVTG,158.15,T,,M,1.92,N,3.6,K,A*0A
$GPGGA,182833.000,3748.7886,N,12217.8395,W,1,04,8.2,5.5,M,-25.1,M,,0000*61
$GPGSA,A,3,17,09,28,12,,,,,,,,,9.3,8.2,4.4*34
$GPRMC,182833.000,A,3748.7886,N,12217.8395,W,2.41,142.65,071011,,,A*73
$GPVTG,142.65,T,,M,2.41,N,4.5,K,A*0F
$GPGGA,182834.000,3748.7883,N,12217.8386,W,1,05,1.8,4.9,M,-25.1,M,,0000*6E
$GPGSA,A,3,17,09,28,12,15,,,,,,,,3.3,1.8,2.8*33
$GPRMC,182834.000,A,3748.7883,N,12217.8386,W,2.16,127.89,071011,,,A*70
$GPVTG,127.89,T,,M,2.16,N,4.0,K,A*09
$GPGGA,182835.000,3748.7872,N,12217.8378,W,1,05,1.8,4.6,M,-25.1,M,,0000*6F
$GPGSA,A,3,17,09,28,12,15,,,,,,,,3.3,1.8,2.8*33
$GPGSV,3,1,11,27,62,290,26,17,54,042,27,09,48,307,25,04,47,141,36*71
$GPGSV,3,2,11,28,29,087,28,02,21,182,39,15,18,242,34,12,15,293,25*7A
$GPRMC,182835.000,A,3748.7872,N,12217.8378,W,2.14,113.80,071011,,,A*72
$GPVTG,113.80,T,,M,2.14,N,4.0,K,A*05
$GPGGA,182836.000,3748.7865,N,12217.8373,W,1,05,1.8,5.2,M,-25.1,M,,0000*64
$GPGSA,A,3,17,09,28,12,15,,,,,,,,3.3,1.8,2.8*33
$GPRMC,182836.000,A,3748.7865,N,12217.8373,W,2.25,124.85,071011,,,A*7F
$GPVTG,124.85,T,,M,2.25,N,4.2,K,A*04
$GPGGA,182837.000,3748.7861,N,12217.8364,W,1,05,1.8,4.3,M,-25.1,M,,0000*67
$GPGSA,A,3,17,09,28,12,15,,,,,,,,3.3,1.8,2.8*33
$GPRMC,182837.000,A,3748.7861,N,12217.8364,W,2.06,122.00,071011,,,A*76
$GPVTG,122.00,T,,M,2.06,N,3.8,K,A*03
$GPGGA,182838.000,3748.7858,N,12217.8356,W,1,05,1.8,3.6,M,-25.1,M,,0000*61
$GPGSA,A,3,17,09,28,12,15,,,,,,,,3.3,1.8,2.8*33
$GPRMC,182838.000,A,3748.7858,N,12217.8356,W,1.93,111.30,071011,,,A*7E
$GPVTG,111.30,T,,M,1.93,N,3.6,K,A*01
$GPGGA,182839.000,3748.7857,N,12217.8350,W,1,05,1.8,1.7,M,-25.1,M,,0000*6A
$GPGSA,A,3,17,09,28,12,15,,,,,,,,3.3,1.8,2.8*33
$GPRMC,182839.000,A,3748.7857,N,12217.8350,W,1.67,115.48,071011,,,A*76
$GPVTG,115.48,T,,M,1.67,N,3.1,K,A*06
$GPGGA,182840.000,3748.7861,N,12217.8339,W,1,05,1.8,-0.3,M,-25.1,M,,0000*46
$GPGSA,A,3,17,09,28,12,15,,,,,,,,3.3,1.8,2.8*33
$GPGSV,3,1,11,27,62,290,27,17,54,042,23,09,48,307,25,04,47,141,36*74
$GPGSV,3,2,11,28,29,087,24,02,21,182,40,15,18,242,34,12,15,293,25*78
$GPGSV,3,3,11,26,10,205,22,01,00,031,,48,44,197,37*4F
$GPRMC,182840.000,A,3748.7861,N,12217.8339,W,2.03,79.52,071011,,,A*43
$GPVTG,79.52,T,,M,2.03,N,3.8,K,A*3E
$GPGGA,182841.000,3748.7861,N,12217.8336,W,1,05,1.8,-0.4,M,-25.1,M,,0000*4F
$GPGSA,A,3,17,09,28,12,15,,,,,,,,3.3,1.8,2.8*33
$GPRMC,182841.000,A,3748.7861,N,12217.8336,W,1.69,105.23,071011,,,A*7E
$GPVTG,105.23,T,,M,1.69,N,3.1,K,A*04
$GPGGA,182842.000,3748.7858,N,12217.8330,W,1,05,1.8,-0.3,M,-25.1,M,,0000*47
$GPGSA,A,3,17,09,28,12,15,,,,,,,,3.3,1.8,2.8*33
$GPRMC,182842.000,A,3748.7858,N,12217.8330,W,2.02,103.06,071011,,,A*7E
$GPVTG,103.06,T,,M,2.02,N,3.7,K,A*0D
$GPGGA,182843.000,3748.7856,N,12217.8325,W,1,05,1.8,-0.5,M,-25.1,M,,0000*4A
$GPGSA,A,3,17,09,28,12,15,,,,,,,,3.3,1.8,2.8*33
$GPRMC,182843.000,A,3748.7856,N,12217.8325,W,1.99,106.54,071011,,,A*76
$GPVTG,106.54,T,,M,1.99,N,3.7,K,A*0E
$GPGGA,182844.000,3748.7857,N,12217.8319,W,1,05,1.8,-0.2,M,-25.1,M,,0000*44
$GPGSA,A,3,17,09,28,12,15,,,,,,,,3.3,1.8,2.8*33
$GPRMC,182844.000,A,3748.7857,N,12217.8319,W,1.69,100.98,071011,,,A*76
$GPVTG,100.98,T,,M,1.69,N,3.1,K,A*01
$GPGGA,182845.000,3748.7856,N,12217.8313,W,1,05,1.8,0.2,M,-25.1,M,,0000*63
$GPGSA,A,3,17,09,28,12,15,,,,,,,,3.3,1.8,2.8*33
$GPGSV,3,1,11,27,62,290,26,17,54,042,29,09,48,307,25,04,47,141,34*7D
$GPGSV,3,2,11,28,29,087,37,02,21,182,38,15,18,242,34,12,15,293,25*75
$GPGSV,3,3,11,26,10,205,31,01,00,031,,48,44,197,35*4F
$GPRMC,182845.000,A,3748.7856,N,12217.8313,W,1.69,104.87,071011,,,A*76
$GPVTG,104.87,T,,M,1.69,N,3.1,K,A*0B
$GPGGA,182846.000,3748.7853,N,12217.8306,W,1,05,1.8,0.4,M,-25.1,M,,0000*67
$GPGSA,A,3,17,09,28,12,15,,,,,,,,3.3,1.8,2.8*33
$GPRMC,182846.000,A,3748.7853,N,12217.8306,W,1.90,98.57,071011,,,A*4B
$GPVTG,98.57,T,,M,1.90,N,3.5,K,A*30
$GPGGA,182847.000,3748.7853,N,12217.8299,W,1,05,1.8,0.2,M,-25.1,M,,0000*67
$GPGSA,A,3,17,09,28,12,15,,,,,,,,3.3,1.8,2.8*33
$GPRMC,182847.000,A,3748.7853,N,12217.8299,W,1.67,81.94,071011,,,A*42
$GPVTG,81.94,T,,M,1.67,N,3.1,K,A*3B
$GPGGA,182848.000,3748.7851,N,12217.8294,W,1,05,1.8,1.1,M,-25.1,M,,0000*65
$GPGSA,A,3,17,09,28,12,15,,,,,,,,3.3,1.8,2.8*33
$GPRMC,182848.000,A,3748.7851,N,12217.8294,W,1.61,76.09,071011,,,A*48
$GPVTG,76.09,T,,M,1.61,N,3.0,K,A*30
$GPGGA,182849.000,3748.7853,N,12217.8291,W,1,05,1.8,1.2,M,-25.1,M,,0000*60
$GPGSA,A,3,17,09,28,12,15,,,,,,,,3.3,1.8,2.8*33
$GPRMC,182849.000,A,3748.7853,N,12217.8291,W,1.67,60.88,071011,,,A*46
$GPVTG,60.88,T,,M,1.67,N,3.1,K,A*39
$GPGGA,182850.000,3748.7850,N,12217.8282,W,1,05,1.8,1.2,M,-25.1,M,,0000*69
$GPGSA,A,3,17,09,28,12,15,,,,,,,,3.3,1.8,2.8*33
$GPGSV,3,1,11,27,62,290,26,17,54,042,28,09,48,307,25,04,47,141,28*71
$GPGSV,3,2,11,28,28,087,36,02,21,182,39,15,18,242,34,12,16,293,26*74
$GPGSV,3,3,11,26,10,205,37,01,00,031,,48,44,197,31*4D
$GPVTG,52.43,T,,M,1.91,N,3.5,K,A*32
$GPGGA,182851.000,3748.7849,N,12217.8272,W,1,05,1.8,0.2,M,-25.1,M,,0000*6E
$GPGSA,A,3,17,09,28,12,15,,,,,,,,3.3,1.8,2.8*33
$GPRMC,182851.000,A,3748.7849,N,12217.8272,W,1.80,54.95,071011,,,A*4B
$GPVTG,54.95,T,,M,1.80,N,3.3,K,A*39
$GPGGA,182852.000,3748.7847,N,12217.8265,W,1,05,1.8,1.2,M,-25.1,M,,0000*64
$GPGSA,A,3,17,09,28,12,15,,,,,,,,3.3,1.8,2.8*33
$GPRMC,182852.000,A,3748.7847,N,12217.8265,W,1.50,84.93,071011,,,A*46
$GPVTG,84.93,T,,M,1.50,N,2.8,K,A*35
$GPGGA,182853.000,3748.7846,N,12217.8259,W,1,05,1.8,0.8,M,-25.1,M,,0000*60
$GPGSA,A,3,17,09,28,12,15,,,,,,,,3.3,1.8,2.8*33
$GPRMC,182853.000,A,3748.7846,N,12217.8259,W,1.36,93.82,071011,,,A*4F
$GPVTG,93.82,T,,M,1.36,N,2.5,K,A*3E
$GPGGA,182854.000,3748.7840,N,12217.8253,W,1,05,1.8,1.4,M,-25.1,M,,0000*66
$GPGSA,A,3,17,09,28,12,15,,,,,,,,3.3,1.8,2.8*33
$GPRMC,182854.000,A,3748.7840,N,12217.8253,W,1.38,75.10,071011,,,A*49
$GPVTG,75.10,T,,M,1.38,N,2.6,K,A*30
$GPGGA,182855.000,3748.7837,N,12217.8247,W,1,05,1.8,0.7,M,-25.1,M,,0000*60
$GPGSA,A,3,17,09,28,12,15,,,,,,,,3.3,1.8,2.8*33
$GPGSV,3,1,11,27,62,290,26,17,54,042,27,09,48,307,24,04,47,141,36*70
$GPGSV,3,2,11,28,28,087,28,02,21,182,38,15,18,242,35,12,16,293,25*78
$GPGSV,3,3,11,26,10,205,28,01,00,031,,48,44,197,37*45
$GPRMC,182855.000,A,3748.7837,N,12217.8247,W,1.82,107.22,071011,,,A*79
$GPVTG,107.22,T,,M,1.82,N,3.4,K,A*07
$GPGGA,182856.000,3748.7826,N,12217.8236,W,1,05,1.8,1.9,M,-25.1,M,,0000*6A
$GPGSA,A,3,17,09,28,12,15,,,,,,,,3.3,1.8,2.8*33
$GPRMC,182856.000,A,3748.7826,N,12217.8236,W,3.00,120.46,071011,,,A*73
$GPVTG,120.46,T,,M,3.00,N,5.6,K,A*0C
$GPGGA,182857.000,3748.7814,N,12217.8225,W,1,05,1.8,4.2,M,-25.1,M,,0000*66
$GPGSA,A,3,17,09,28,12,15,,,,,,,,3.3,1.8,2.8*33
$GPRMC,182857.000,A,3748.7814,N,12217.8225,W,2.68,119.76,071011,,,A*77
$GPVTG,119.76,T,,M,2.68,N,5.0,K,A*0C
$GPGGA,182858.000,3748.7807,N,12217.8218,W,1,05,1.8,4.8,M,-25.1,M,,0000*6F
$GPGSA,A,3,17,09,28,12,15,,,,,,,,3.3,1.8,2.8*33
$GPRMC,182858.000,A,3748.7807,N,12217.8218,W,2.09,118.88,071011,,,A*73
$GPVTG,118.88,T,,M,2.09,N,3.9,K,A*04
$GPGGA,182859.000,3748.7803,N,12217.8212,W,1,05,1.8,5.6,M,-25.1,M,,0000*6F
$GPGSA,A,3,17,09,28,12,15,,,,,,,,3.3,1.8,2.8*33
$GPRMC,182859.000,A,3748.7803,N,12217.8212,W,1.63,99.83,071011,,,A*40
$GPVTG,99.83,T,,M,1.63,N,3.0,K,A*31
$GPGGA,182900.000,3748.7798,N,12217.8206,W,1,05,1.8,7.2,M,-25.1,M,,0000*6C
$GPGSA,A,3,17,09,28,12,15,,,,,,,,3.3,1.8,2.8*33
$GPGSV,3,1,11,27,62,290,26,17,54,042,27,09,48,307,25,04,47,141,35*72
$GPGSV,3,2,11,28,28,087,30,02,21,182,38,15,18,242,35,12,16,293,21*75
$GPGSV,3,3,11,26,10,205,28,01,00,031,,48,44,197,37*45
$GPRMC,182900.000,A,3748.7798,N,12217.8206,W,1.68,102.94,071011,,,A*7B
$GPVTG,102.94,T,,M,1.68,N,3.1,K,A*0E
$GPGGA,182901.000,3748.7793,N,12217.8200,W,1,05,1.8,7.8,M,-25.1,M,,0000*6A
$GPGSA,A,3,17,09,28,12,15,,,,,,,,3.3,1.8,2.8*33
$GPRMC,182901.000,A,3748.7793,N,12217.8200,W,1.90,112.85,071011,,,A*71
$GPVTG,112.85,T,,M,1.90,N,3.5,K,A*0C
$GPGGA,182902.000,3748.7789,N,12217.8194,W,1,05,1.8,8.0,M,-25.1,M,,0000*6B
$GPGSA,A,3,17,09,28,12,15,,,,,,,,3.3,1.8,2.8*33
$GPRMC,182902.000,A,3748.7789,N,12217.8194,W,1.83,114.87,071011,,,A*71
$GPVTG,114.87,T,,M,1.83,N,3.4,K,A*0B
$GPGGA,182903.000,3748.7786,N,12217.8189,W,1,05,1.8,8.1,M,-25.1,M,,0000*68
$GPGSA,A,3,17,09,28,12,15,,,,,,,,3.3,1.8,2.8*33
$GPRMC,182903.000,A,3748.7786,N,12217.8189,W,1.82,118.64,071011,,,A*73
$GPVTG,118.64,T,,M,1.82,N,3.4,K,A*0B
$GPGGA,182904.000,3748.7784,N,12217.8184,W,1,05,1.8,8.1,M,-25.1,M,,0000*60
$GPGSA,A,3,17,09,28,12,15,,,,,,,,3.3,1.8,2.8*33
$GPRMC,182904.000,A,3748.7784,N,12217.8184,W,2.20,125.82,071011,,,A*76
$GPVTG,125.82,T,,M,2.20,N,4.1,K,A*04
$GPGGA,182905.000,3748.7781,N,12217.8178,W,1,05,1.8,7.6,M,-25.1,M,,0000*6F
$GPGSA,A,3,17,09,28,12,15,,,,,,,,3.3,1.8,2.8*33
$GPGSV,3,1,11,27,62,290,27,17,54,042,27,09,48,307,25,04,47,141,35*73
$GPGSV,3,2,11,28,28,087,35,02,21,182,39,15,18,242,35,12,16,293,29*79
$GPGSV,3,3,11,26,10,205,34,01,00,031,,48,44,197,39*46
$GPRMC,182905.000,A,3748.7781,N,12217.8178,W,2.47,124.05,071011,,,A*7E
$GPGGA,182906.000,3748.7777,N,12217.8167,W,2,05,1.8,6.2,M,-25.1,M,1.8,0000*4A
$GPGSA,A,3,17,09,28,12,15,,,,,,,,3.3,1.8,2.8*33
$GPRMC,182906.000,A,3748.7777,N,12217.8167,W,2.25,119.89,071011,,,D*71
$GPVTG,119.89,T,,M,2.25,N,4.2,K,D*03
$GPGGA,182907.000,3748.7772,N,12217.8160,W,2,05,1.8,6.1,M,-25.1,M,1.8,0000*4A
$GPGSA,A,3,17,09,28,12,15,,,,,,,,3.3,1.8,2.8*33
$GPRMC,182907.000,A,3748.7772,N,12217.8160,W,2.26,124.74,071011,,,D*7D
$GPVTG,124.74,T,,M,2.26,N,4.2,K,D*0C
$GPGGA,182908.000,3748.7769,N,12217.8150,W,2,05,1.8,3.9,M,-25.1,M,1.8,0000*41
$GPGSA,A,3,17,09,28,12,15,,,,,,,,3.3,1.8,2.8*33
$GPRMC,182908.000,A,3748.7769,N,12217.8150,W,1.84,111.38,071011,,,D*7E
$GPVTG,111.38,T,,M,1.84,N,3.4,K,D*08
$GPGGA,182909.000,3748.7770,N,12217.8143,W,2,05,1.8,2.0,M,-25.1,M,2.8,0000*41
$GPGSA,A,3,17,09,28,12,15,,,,,,,,3.3,1.8,2.8*33
$GPRMC,182909.000,A,3748.7770,N,12217.8143,W,1.87,102.34,071011,,,D*78
$GPVTG,102.34,T,,M,1.87,N,3.5,K,D*04
$GPGGA,182910.000,3748.7770,N,12217.8139,W,2,05,1.8,1.5,M,-25.1,M,3.8,0000*43
$GPGSA,A,3,17,09,28,12,15,,,,,,,,3.3,1.8,2.8*33
$GPGSV,3,1,11,27,62,290,25,17,54,042,27,09,48,307,25,04,47,141,35*71
$GPGSV,3,2,11,28,28,087,26,02,21,182,39,15,18,242,36,12,16,293,25*74
$GPGSV,3,3,11,26,10,205,36,01,00,031,,48,44,197,37*4A
$GPRMC,182910.000,A,3748.7770,N,12217.8139,W,1.95,105.58,071011,,,D*73
$GPVTG,105.58,T,,M,1.95,N,3.6,K,D*09
$GPGGA,182911.000,3748.7768,N,12217.8131,W,2,05,1.8,-0.5,M,-25.1,M,4.8,0000*68
$GPGSA,A,3,17,09,28,12,15,,,,,,,,3.3,1.8,2.8*33
$GPRMC,182911.000,A,3748.7768,N,12217.8131,W,2.08,109.50,071011,,,D*70
$GPVTG,109.50,T,,M,2.08,N,3.9,K,D*05
$GPGGA,182912.000,3748.7764,N,12217.8125,W,2,05,1.8,-0.3,M,-25.1,M,1.8,0000*61
$GPGSA,A,3,17,09,28,12,15,,,,,,,,3.3,1.8,2.8*33
$GPRMC,182912.000,A,3748.7764,N,12217.8125,W,1.87,101.68,071011,,,D*7D
$GPVTG,101.68,T,,M,1.87,N,3.5,K,D*0E
