$ADVER,3080,2.3
$GPRMC,173828.155,A,3748.8089,N,12217.8692,W,0.23,198.07,130911,,,A*74
$GPGGA,173829.155,3748.8089,N,12217.8692,W,1,03,3.5,25.1,M,-25.1,M,,0000*52
$GPGSA,A,2,15,26,28,,,,,,,,,,3.6,3.5,1.0*3B
$GPRMC,173829.155,A,3748.8089,N,12217.8692,W,0.25,181.71,130911,,,A*7A
$GPVTG,181.71,T,,M,0.25,N,0.5,K,N*0E
$GPGGA,173830.155,3748.8090,N,12217.8692,W,1,03,3.5,25.1,M,-25.1,M,,0000*52
$GPGSA,A,2,15,26,28,,,,,,,,,,3.6,3.5,1.0*3B
$GPRMC,173830.155,A,3748.8090,N,12217.8692,W,0.23,207.81,130911,,,A*7E
$GPVTG,207.81,T,,M,0.23,N,0.4,K,N*0B
$GPGGA,173831.155,3748.8091,N,12217.8693,W,1,03,3.5,25.1,M,-25.1,M,,0000*53
$GPGSA,A,2,15,26,28,,,,,,,,,,3.6,3.5,1.0*3B
$GPRMC,173831.155,A,3748.8091,N,12217.8693,W,0.19,203.35,130911,,,A*7D
$GPVTG,203.35,T,,M,0.19,N,0.3,K,N*0E
$GPGGA,173832.155,3748.8091,N,12217.8693,W,1,03,3.5,25.1,M,-25.1,M,,0000*50
$GPGSA,A,2,15,26,28,,,,,,,,,,3.6,3.5,1.0*3B
$GPGSV,3,1,11,28,69,358,32,26,54,276,38,15,24,311,32,08,53,095,34*79
$GPGSV,3,2,11,17,50,186,34,07,29,113,30,11,20,067,26,24,14,079,*75
$GPGSV,3,3,11,27,07,307,32,01,00,163,,48,00,000,29*4C
$GPRMC,173832.155,A,3748.8091,N,12217.8693,W,0.19,187.30,130911,,,A*74
$GPVTG,187.30,T,,M,0.19,N,0.3,K,N*04
$GPGGA,173833.155,3748.8090,N,12217.8693,W,1,03,3.5,25.1,M,-25.1,M,,0000*50
$GPGSA,A,2,15,26,28,,,,,,,,,,3.6,3.5,1.0*3B
$GPRMC,173833.155,A,3748.8090,N,12217.8693,W,0.18,202.78,130911,,,A*77
$GPVTG,202.78,T,,M,0.18,N,0.3,K,N*07
$GPGGA,173834.155,3748.8090,N,12217.8693,W,1,03,3.5,25.1,M,-25.1,M,,0000*57
$GPGSA,A,2,15,26,28,,,,,,,,,,3.6,3.5,1.0*3B
$GPRMC,173834.155,A,3748.8090,N,12217.8693,W,0.21,197.94,130911,,,A*77
$GPVTG,197.94,T,,M,0.21,N,0.4,K,N*07
$GPGGA,173835.155,3748.8090,N,12217.8692,W,1,03,3.5,25.1,M,-25.1,M,,0000*57
$GPGSA,A,2,15,26,28,,,,,,,,,,3.6,3.5,1.0*3B
$GPRMC,173835.155,A,3748.8090,N,12217.8692,W,0.19,190.91,130911,,,A*7E
$GPVTG,190.91,T,,M,0.19,N,0.4,K,N*0E
$GPGGA,173836.155,3748.8091,N,12217.8692,W,1,03,3.5,25.1,M,-25.1,M,,0000*55
$GPGSA,A,2,15,26,28,,,,,,,,,,3.6,3.5,1.0*3B
$GPRMC,173836.155,A,3748.8091,N,12217.8692,W,0.16,180.93,130911,,,A*70
$GPVTG,180.93,T,,M,0.16,N,0.3,K,N*05
$GPGGA,173837.155,3748.8090,N,12217.8692,W,1,03,3.5,25.1,M,-25.1,M,,0000*55
$GPGSA,A,2,15,26,28,,,,,,,,,,3.6,3.5,1.0*3B
$GPGSV,3,1,11,28,69,358,32,26,54,276,39,15,24,311,32,08,53,095,34*78
$GPGSV,3,2,11,17,50,186,34,07,29,113,30,11,20,067,29,24,14,079,*7A
$GPGSV,3,3,11,27,07,307,32,01,00,163,,48,00,000,30*44
$GPRMC,173837.155,A,3748.8090,N,12217.8692,W,0.25,189.35,130911,,,A*75
$GPVTG,189.35,T,,M,0.25,N,0.5,K,N*06
$GPGGA,173838.155,3748.8090,N,12217.8692,W,1,03,3.5,25.1,M,-25.1,M,,0000*5A
$GPGSA,A,2,15,26,28,,,,,,,,,,3.6,3.5,1.0*3B
$GPRMC,173838.155,A,3748.8090,N,12217.8692,W,0.30,206.97,130911,,,A*72
$GPVTG,206.97,T,,M,0.30,N,0.5,K,N*0E
$GPGGA,173839.155,3748.8089,N,12217.8691,W,1,03,3.5,25.1,M,-25.1,M,,0000*50
$GPGSA,A,2,15,26,28,,,,,,,,,,3.6,3.5,1.0*3B
$GPRMC,173839.155,A,3748.8089,N,12217.8691,W,0.20,182.11,130911,,,A*78
$GPVTG,182.11,T,,M,0.20,N,0.4,K,N*0F
$GPGGA,173840.155,3748.8089,N,12217.8692,W,1,03,3.5,25.1,M,-25.1,M,,0000*5D
$GPGSA,A,2,15,26,28,,,,,,,,,,3.6,3.5,1.0*3B
$GPRMC,173840.155,A,3748.8089,N,12217.8692,W,0.14,220.07,130911,,,A*7E
$GPVTG,220.07,T,,M,0.14,N,0.3,K,N*03
$GPGGA,173841.155,3748.8088,N,12217.8692,W,1,03,3.5,25.1,M,-25.1,M,,0000*5D
$GPGSA,A,2,15,26,28,,,,,,,,,,3.6,3.5,1.0*3B
$GPRMC,173841.155,A,3748.8088,N,12217.8692,W,0.32,192.25,130911,,,A*70
$GPVTG,192.25,T,,M,0.32,N,0.6,K,N*08
$GPGGA,173842.155,3748.8087,N,12217.8692,W,1,03,3.5,25.1,M,-25.1,M,,0000*51
$GPGSA,A,2,15,26,28,,,,,,,,,,3.6,3.5,1.0*3B
$GPGSV,3,1,11,28,69,358,32,26,54,276,39,15,24,310,33,08,53,096,35*7A
$GPGSV,3,2,11,17,50,186,35,07,29,113,29,11,20,067,29,24,14,079,*73
$GPGSV,3,3,11,27,08,307,31,01,00,163,,48,44,197,29*4F
$GPRMC,173842.155,A,3748.8087,N,12217.8692,W,0.28,196.74,130911,,,A*77
$GPGGA,173843.155,3748.8087,N,12217.8692,W,1,03,3.5,25.1,M,-25.1,M,,0000*50
$GPGSA,A,2,15,26,28,,,,,,,,,,3.6,3.5,1.0*3B
$GPRMC,173843.155,A,3748.8087,N,12217.8692,W,0.21,205.83,130911,,,A*7E
$GPVTG,205.83,T,,M,0.21,N,0.4,K,N*09
$GPGGA,173844.155,3748.8086,N,12217.8691,W,1,03,3.5,25.1,M,-25.1,M,,0000*55
$GPGSA,A,2,15,26,28,,,,,,,,,,3.6,3.5,1.0*3B
$GPRMC,173844.155,A,3748.8086,N,12217.8691,W,0.22,197.50,130911,,,A*7E
$GPVTG,197.50,T,,M,0.22,N,0.4,K,N*0C
$GPGGA,173845.155,3748.8086,N,12217.8690,W,1,03,3.5,25.1,M,-25.1,M,,0000*55
$GPGSA,A,2,15,26,28,,,,,,,,,,3.6,3.5,1.0*3B
$GPRMC,173845.155,A,3748.8086,N,12217.8690,W,0.24,169.83,130911,,,A*77
$GPVTG,169.83,T,,M,0.24,N,0.4,K,N*05
$GPGGA,173846.155,3748.8086,N,12217.8690,W,1,03,3.5,25.1,M,-25.1,M,,0000*56
$GPGSA,A,2,15,26,28,,,,,,,,,,3.6,3.5,1.0*3B
$GPRMC,173846.155,A,3748.8086,N,12217.8690,W,0.22,208.28,130911,,,A*77
$GPVTG,208.28,T,,M,0.22,N,0.4,K,N*06
$GPGGA,173847.155,3748.8085,N,12217.8690,W,1,03,3.5,25.1,M,-25.1,M,,0000*54
$GPGSA,A,2,15,26,28,,,,,,,,,,3.6,3.5,1.0*3B
$GPGSV,3,1,11,28,69,358,32,26,54,276,39,15,24,310,33,08,52,096,35*7B
$GPGSV,3,2,11,17,50,186,35,07,29,113,27,11,20,067,29,24,14,079,*7D
$GPGSV,3,3,11,27,08,307,27,01,00,163,,48,44,197,28*49
$GPRMC,173847.155,A,3748.8085,N,12217.8690,W,0.23,200.17,130911,,,A*70
$GPVTG,200.17,T,,M,0.23,N,0.4,K,N*03
$GPGGA,173848.155,3748.8084,N,12217.8689,W,1,03,3.5,25.1,M,-25.1,M,,0000*52
$GPGSA,A,2,15,26,28,,,,,,,,,,3.6,3.5,1.0*3B
$GPRMC,173848.155,A,3748.8084,N,12217.8689,W,0.29,199.35,130911,,,A*7F
$GPVTG,199.35,T,,M,0.29,N,0.5,K,N*0B
$GPGGA,173849.155,3748.8083,N,12217.8689,W,1,03,3.5,25.1,M,-25.1,M,,0000*54
$GPGSA,A,2,15,26,28,,,,,,,,,,3.6,3.5,1.0*3B
$GPRMC,173849.155,A,3748.8083,N,12217.8689,W,0.32,186.76,130911,,,A*7A
$GPVTG,186.76,T,,M,0.32,N,0.6,K,N*0B
$GPGGA,173850.155,3748.8082,N,12217.8689,W,1,03,3.5,25.1,M,-25.1,M,,0000*5D
$GPGSA,A,2,15,26,28,,,,,,,,,,3.6,3.5,1.0*3B
$GPRMC,173850.155,A,3748.8082,N,12217.8689,W,0.19,197.13,130911,,,A*79
$GPVTG,197.13,T,,M,0.19,N,0.4,K,N*03
$GPGGA,173851.155,3748.8082,N,12217.8689,W,1,03,3.5,25.1,M,-25.1,M,,0000*5C
$GPGSA,A,2,15,26,28,,,,,,,,,,3.6,3.5,1.0*3B
$GPRMC,173851.155,A,3748.8082,N,12217.8689,W,0.11,180.72,130911,,,A*71
$GPVTG,180.72,T,,M,0.11,N,0.2,K,N*0C
$GPGGA,173852.155,3748.8081,N,12217.8689,W,1,03,3.5,25.1,M,-25.1,M,,0000*5C
$GPGSA,A,2,15,26,28,,,,,,,,,,3.6,3.5,1.0*3B
$GPGSV,3,1,10,28,69,358,32,26,54,276,37,15,24,310,33,08,52,096,36*77
$GPGSV,3,2,10,17,50,186,27,07,29,113,26,11,20,067,25,24,14,079,*72
$GPGSV,3,3,10,27,08,307,27,01,00,163,*71
$GPRMC,173852.155,A,3748.8081,N,12217.8689,W,0.19,193.81,130911,,,A*77
$GPVTG,193.81,T,,M,0.19,N,0.3,K,N*0B
$GPGGA,173853.155,3748.8093,N,12217.8627,W,1,03,3.5,25.1,M,-25.1,M,,0000*5A
$GPGSA,A,2,15,26,28,,,,,,,,,,3.6,3.5,1.0*3B
$GPRMC,173853.155,A,3748.8093,N,12217.8627,W,0.26,124.38,130911,,,A*73
$GPVTG,124.38,T,,M,0.26,N,0.5,K,N*0F
$GPGGA,173854.155,3748.8080,N,12217.8703,W,1,03,3.5,25.1,M,-25.1,M,,0000*58
$GPGSA,A,2,15,26,28,,,,,,,,,,3.6,3.5,1.0*3B
$GPRMC,173854.155,A,3748.8080,N,12217.8703,W,0.07,210.49,130911,,,A*70
$GPVTG,210.49,T,,M,0.07,N,0.1,K,N*0A
$GPGGA,173855.155,3748.8076,N,12217.8719,W,1,03,3.5,25.1,M,-25.1,M,,0000*5B
$GPGSA,A,2,15,26,28,,,,,,,,,,3.6,3.5,1.0*3B
$GPRMC,173855.155,A,3748.8076,N,12217.8719,W,0.58,165.08,130911,,,A*7D
$GPVTG,165.08,T,,M,0.58,N,1.1,K,N*05
$GPGGA,173856.155,3748.8072,N,12217.8740,W,1,03,3.5,25.1,M,-25.1,M,,0000*50
$GPGSA,A,2,15,26,28,,,,,,,,,,3.6,3.5,1.0*3B
$GPRMC,173856.155,A,3748.8072,N,12217.8740,W,0.31,144.93,130911,,,A*78
$GPVTG,144.93,T,,M,0.31,N,0.6,K,N*0D
$GPGGA,173857.155,3748.8072,N,12217.8733,W,1,03,3.5,25.1,M,-25.1,M,,0000*55
$GPGSA,A,2,15,26,28,,,,,,,,,,3.6,3.5,1.0*3B
$GPGSV,3,1,10,28,69,358,34,26,54,276,34,15,24,310,35,08,52,096,27*74
$GPGSV,3,2,10,17,50,186,31,07,29,113,21,11,20,067,28,24,14,079,*7F
$GPGSV,3,3,10,27,08,307,29,01,00,163,*7F
$GPRMC,173857.155,A,3748.8072,N,12217.8733,W,0.36,194.95,130911,,,A*71
$GPVTG,194.95,T,,M,0.36,N,0.7,K,N*00
$GPGGA,173858.155,3748.8074,N,12217.8726,W,1,03,3.5,25.1,M,-25.1,M,,0000*58
$GPGSA,A,2,15,26,28,,,,,,,,,,3.6,3.5,1.0*3B
$GPRMC,173858.155,A,3748.8074,N,12217.8726,W,0.38,223.01,130911,,,A*70
$GPVTG,223.01,T,,M,0.38,N,0.7,K,N*0C
$GPGGA,173859.155,3748.8075,N,12217.8717,W,1,03,3.5,25.1,M,-25.1,M,,0000*5A
$GPGSA,A,2,15,26,28,,,,,,,,,,3.6,3.5,1.0*3B
$GPRMC,173859.155,A,3748.8075,N,12217.8717,W,0.41,137.63,130911,,,A*7E
$GPVTG,137.63,T,,M,0.41,N,0.8,K,N*0F
$GPGGA,173900.155,3748.8085,N,12217.8668,W,1,03,3.5,25.1,M,-25.1,M,,0000*51
$GPGSA,A,2,15,26,28,,,,,,,,,,3.6,3.5,1.0*3B
$GPRMC,173900.155,A,3748.8085,N,12217.8668,W,0.50,290.15,130911,,,A*7A
$GPVTG,290.15,T,,M,0.50,N,0.9,K,N*01
$GPGGA,173901.155,3748.8092,N,12217.8623,W,1,03,3.5,25.1,M,-25.1,M,,0000*59
$GPGSA,A,2,15,26,28,,,,,,,,,,3.6,3.5,1.0*3B
$GPRMC,173901.155,A,3748.8092,N,12217.8623,W,0.15,206.67,130911,,,A*79
$GPVTG,206.67,T,,M,0.15,N,0.3,K,N*00
$GPGGA,173902.155,3748.8093,N,12217.8617,W,1,03,3.5,25.1,M,-25.1,M,,0000*5C
$GPGSA,A,2,15,26,28,,,,,,,,,,3.6,3.5,1.0*3B
$GPGSV,3,1,11,28,69,358,31,26,54,276,34,15,24,310,31,08,52,096,24*77
$GPGSV,3,2,11,17,50,186,36,07,29,113,21,11,20,067,24,24,14,079,*75
$GPGSV,3,3,11,27,08,307,29,01,00,163,,48,44,197,33*4D
$GPRMC,173902.155,A,3748.8093,N,12217.8617,W,0.57,162.34,130911,,,A*7D
$GPVTG,162.34,T,,M,0.57,N,1.1,K,N*02
$GPGGA,173903.155,3748.8095,N,12217.8608,W,1,03,3.5,25.1,M,-25.1,M,,0000*55
$GPGSA,A,2,15,26,28,,,,,,,,,,3.6,3.5,1.0*3B
$GPRMC,173903.155,A,3748.8095,N,12217.8608,W,0.15,179.21,130911,,,A*7C
$GPVTG,179.21,T,,M,0.15,N,0.3,K,N*09
$GPGGA,173904.155,3748.8093,N,12217.8619,W,1,03,3.5,25.1,M,-25.1,M,,0000*54
$GPGSA,A,2,15,26,28,,,,,,,,,,3.6,3.5,1.0*3B
$GPWPL,3748.8093,N,12217.8619,W,00001*63
$ADPMB,5,0
$GPRMC,173904.155,A,3748.8093,N,12217.8619,W,0.24,72.87,130911,,,A*49
$GPVTG,72.87,T,,M,0.24,N,0.4,K,N*3A
$GPGGA,173909.155,3748.8019,N,12217.9109,W,1,03,3.5,25.1,M,-25.1,M,,0000*5C
$GPGSA,A,2,15,26,28,,,,,,,,,,3.6,3.5,1.0*3B
$GPRMC,173909.155,A,3748.8019,N,12217.9109,W,0.39,169.90,130911,,,A*70
$GPVTG,169.90,T,,M,0.39,N,0.7,K,N*08
$GPGGA,173910.155,3748.8053,N,12217.8788,W,1,03,3.5,25.1,M,-25.1,M,,0000*54
$GPGSA,A,2,15,26,28,,,,,,,,,,3.6,3.5,1.0*3B
$GPRMC,173910.155,A,3748.8053,N,12217.8788,W,1.11,147.13,130911,,,A*74
$GPVTG,147.13,T,,M,1.11,N,2.1,K,N*00
$GPGGA,173911.155,3748.8072,N,12217.8717,W,1,03,3.5,25.1,M,-25.1,M,,0000*50
$GPGSA,A,2,15,26,28,,,,,,,,,,3.6,3.5,1.0*3B
$GPRMC,173911.155,A,3748.8072,N,12217.8717,W,0.18,196.15,130911,,,A*72
$GPVTG,196.15,T,,M,0.18,N,0.3,K,N*02
$GPGGA,173912.155,3748.8070,N,12217.8702,W,1,03,3.5,25.1,M,-25.1,M,,0000*55
$GPGSA,A,2,15,26,28,,,,,,,,,,3.6,3.5,1.0*3B
$GPGSV,3,1,11,28,69,358,36,26,54,276,39,15,24,310,39,08,52,096,30*70
$GPGSV,3,2,11,17,50,186,39,07,29,113,16,11,20,067,26,24,14,079,*7C
$GPGSV,3,3,11,27,08,307,35,01,00,163,,48,44,197,40*44
$GPRMC,173912.155,A,3748.8070,N,12217.8702,W,0.18,206.18,130911,,,A*70
$GPVTG,206.18,T,,M,0.18,N,0.3,K,N*05
$GPGGA,173913.155,3748.8068,N,12217.8693,W,1,03,3.5,25.1,M,-25.1,M,,0000*54
$GPGSA,A,2,15,26,28,,,,,,,,,,3.6,3.5,1.0*3B
$GPRMC,173913.155,A,3748.8068,N,12217.8693,W,0.11,253.39,130911,,,A*7B
$GPVTG,253.39,T,,M,0.11,N,0.2,K,N*0E
$GPGGA,173914.155,3748.8069,N,12217.8674,W,1,03,3.5,25.1,M,-25.1,M,,0000*5B
$GPGSA,A,2,15,26,28,,,,,,,,,,3.6,3.5,1.0*3B
$GPRMC,173914.155,A,3748.8069,N,12217.8674,W,0.25,179.06,130911,,,A*74
$GPVTG,179.06,T,,M,0.25,N,0.5,K,N*09
$GPGGA,173915.155,3748.8069,N,12217.8656,W,1,03,3.4,25.1,M,-25.1,M,,0000*5B
$GPGSA,A,2,15,26,28,,,,,,,,,,3.6,3.4,1.0*3A
$GPRMC,173915.155,A,3748.8069,N,12217.8656,W,0.45,148.34,130911,,,A*70
$GPVTG,148.34,T,,M,0.45,N,0.8,K,N*01
$GPGGA,173916.155,3748.8064,N,12217.8679,W,1,03,3.4,25.1,M,-25.1,M,,0000*58
$GPGSA,A,2,15,26,28,,,,,,,,,,3.6,3.4,1.0*3A
$GPRMC,173916.155,A,3748.8064,N,12217.8679,W,0.22,247.84,130911,,,A*75
$GPVTG,247.84,T,,M,0.22,N,0.4,K,N*0B
$GPGGA,173917.155,3748.8067,N,12217.8661,W,1,03,3.4,25.1,M,-25.1,M,,0000*53
$GPGSA,A,2,15,26,28,,,,,,,,,,3.6,3.4,1.0*3A
$GPGSV,3,1,11,28,69,359,38,26,54,276,39,15,24,310,39,08,52,096,30*7F
$GPGSV,3,2,11,17,50,186,39,07,28,114,24,11,20,066,21,24,14,078,*7C
$GPGSV,3,3,11,27,08,308,34,01,00,163,,48,44,197,39*44
$GPRMC,173917.155,A,3748.8067,N,12217.8661,W,0.30,197.05,130911,,,A*7A
$GPVTG,197.05,T,,M,0.30,N,0.6,K,N*0D
$GPGGA,173918.155,3748.8068,N,12217.8664,W,1,03,3.4,25.1,M,-25.1,M,,0000*56
$GPGSA,A,2,15,26,28,,,,,,,,,,3.6,3.4,1.0*3A
$GPRMC,173918.155,A,3748.8068,N,12217.8664,W,0.06,258.56,130911,,,A*7C
$GPVTG,258.56,T,,M,0.06,N,0.1,K,N*09
$GPGGA,173919.155,3748.8068,N,12217.8682,W,1,03,3.4,25.1,M,-25.1,M,,0000*5F
$GPGSA,A,2,15,26,28,,,,,,,,,,3.6,3.4,1.0*3A
$GPRMC,173919.155,A,3748.8068,N,12217.8682,W,0.30,191.38,130911,,,A*7E
$GPVTG,191.38,T,,M,0.30,N,0.6,K,N*05
$GPGGA,173920.155,3748.8068,N,12217.8686,W,1,03,3.4,25.1,M,-25.1,M,,0000*51
$GPGSA,A,2,15,26,28,,,,,,,,,,3.6,3.4,1.0*3A
$GPRMC,173920.155,A,3748.8068,N,12217.8686,W,0.25,163.00,130911,,,A*72
$GPVTG,163.00,T,,M,0.25,N,0.5,K,N*04
$GPGGA,173921.155,3748.8091,N,12217.8695,W,1,03,3.4,25.1,M,-25.1,M,,0000*54
$GPGSA,A,2,15,26,28,,,,,,,,,,3.6,3.4,1.0*3A
$GPRMC,173921.155,A,3748.8091,N,12217.8695,W,0.18,248.24,130911,,,A*75
$GPVTG,248.24,T,,M,0.18,N,0.3,K,N*00
$GPGGA,173922.155,3748.8060,N,12217.8676,W,1,03,3.4,25.1,M,-25.1,M,,0000*54
$GPGSA,A,2,15,26,28,,,,,,,,,,3.6,3.4,1.0*3A
$GPGSV,3,1,11,28,69,359,32,26,54,276,39,15,24,310,32,08,52,096,31*7F
$GPGSV,3,2,11,17,50,186,39,07,28,114,24,11,20,066,25,24,14,078,*78
$GPGSV,3,3,11,27,08,308,19,01,00,163,,48,44,197,39*4B
$GPRMC,173922.155,A,3748.8060,N,12217.8676,W,0.24,169.83,130911,,,A*77
$GPGGA,173923.155,3748.8044,N,12217.8665,W,1,03,3.4,25.1,M,-25.1,M,,0000*51
$GPGSA,A,2,15,26,28,,,,,,,,,,3.6,3.4,1.0*3A
$GPRMC,173923.155,A,3748.8044,N,12217.8665,W,0.19,205.75,130911,,,A*7C
$GPVTG,205.75,T,,M,0.19,N,0.4,K,N*0B
$GPGGA,173924.155,3748.8049,N,12217.8658,W,1,03,3.4,25.1,M,-25.1,M,,0000*55
$GPGSA,A,2,15,26,28,,,,,,,,,,3.6,3.4,1.0*3A
$GPRMC,173924.155,A,3748.8049,N,12217.8658,W,0.14,266.48,130911,,,A*7E
$GPVTG,266.48,T,,M,0.14,N,0.3,K,N*0A
$GPGGA,173925.155,3748.8019,N,12217.8636,W,1,03,3.4,25.1,M,-25.1,M,,0000*59
$GPGSA,A,2,15,26,28,,,,,,,,,,3.6,3.4,1.0*3A
$GPRMC,173925.155,A,3748.8019,N,12217.8636,W,0.20,287.57,130911,,,A*74
$GPVTG,287.57,T,,M,0.20,N,0.4,K,N*0B
$GPGGA,173926.155,3748.8022,N,12217.8638,W,1,03,3.4,25.1,M,-25.1,M,,0000*5C
$GPGSA,A,2,15,26,28,,,,,,,,,,3.6,3.4,1.0*3A
$GPRMC,173926.155,A,3748.8022,N,12217.8638,W,0.12,182.93,130911,,,A*7E
$GPVTG,182.93,T,,M,0.12,N,0.2,K,N*02
$GPGGA,173927.155,3748.8045,N,12217.8654,W,1,03,3.4,25.1,M,-25.1,M,,0000*56
$GPGSA,A,2,15,26,28,,,,,,,,,,3.6,3.4,1.0*3A
$GPGSV,3,1,11,28,69,359,35,26,54,276,38,15,24,310,30,08,52,096,32*78
$GPGSV,3,2,11,17,50,186,42,07,28,114,30,11,20,066,24,24,14,078,*70
$GPGSV,3,3,11,27,08,308,22,01,00,163,,48,44,197,40*4D
$GPRMC,173927.155,A,3748.8045,N,12217.8654,W,0.18,190.20,130911,,,A*75
$GPVTG,190.20,T,,M,0.18,N,0.3,K,N*02
$GPGGA,173928.155,3748.8009,N,12217.8611,W,1,04,3.2,11.1,M,-25.1,M,,0000*56
$GPGSA,A,3,15,26,28,08,,,,,,,,,4.7,3.2,3.5*34
$GPRMC,173928.155,A,3748.8009,N,12217.8611,W,0.24,184.44,130911,,,A*7B
$GPVTG,184.44,T,,M,0.24,N,0.5,K,A*03
$GPGGA,173929.155,3748.8012,N,12217.8612,W,1,04,3.2,9.0,M,-25.1,M,,0000*66
$GPGSA,A,3,15,26,28,08,,,,,,,,,4.7,3.2,3.5*34
$GPRMC,173929.155,A,3748.8012,N,12217.8612,W,0.15,208.52,130911,,,A*71
$GPVTG,208.52,T,,M,0.15,N,0.3,K,A*07
$GPGGA,173930.155,3748.8012,N,12217.8612,W,1,04,3.2,8.7,M,-25.1,M,,0000*68
$GPGSA,A,3,15,26,28,08,,,,,,,,,4.7,3.2,3.5*34
$GPRMC,173930.155,A,3748.8012,N,12217.8612,W,0.15,174.61,130911,,,A*71
$GPVTG,174.61,T,,M,0.15,N,0.3,K,A*0F
$GPGGA,173931.000,3748.8013,N,12217.8612,W,1,04,3.2,8.4,M,-25.1,M,,0000*6A
$GPGSA,A,3,15,26,28,08,,,,,,,,,4.7,3.2,3.5*34
$GPRMC,173931.000,A,3748.8013,N,12217.8612,W,0.11,191.45,130911,,,A*79
$GPVTG,191.45,T,,M,0.11,N,0.2,K,A*07
$GPGGA,173932.000,3748.8014,N,12217.8612,W,1,04,3.2,7.9,M,-25.1,M,,0000*6C
$GPGSA,A,3,15,26,28,08,,,,,,,,,4.7,3.2,3.5*34
$GPGSV,3,1,11,28,69,359,37,26,54,276,38,08,54,095,31,15,24,310,36*7A
$GPGSV,3,2,11,17,50,186,33,07,28,114,25,11,20,066,23,24,14,078,*75
$GPGSV,3,3,11,27,08,308,32,01,00,163,,48,44,197,31*4A
$GPVTG,194.68,T,,M,0.17,N,0.3,K,A*0A
$GPGGA,173933.000,3748.8015,N,12217.8612,W,1,04,3.2,7.4,M,-25.1,M,,0000*61
$GPGSA,A,3,15,26,28,08,,,,,,,,,4.7,3.2,3.5*34
$GPRMC,173933.000,A,3748.8015,N,12217.8612,W,0.16,239.32,130911,,,A*7B
$GPVTG,239.32,T,,M,0.16,N,0.3,K,A*00
$GPGGA,173934.000,3748.8009,N,12217.8617,W,1,04,3.2,7.4,M,-25.1,M,,0000*6E
$GPGSA,A,3,15,26,28,08,,,,,,,,,4.7,3.2,3.5*34
$GPRMC,173934.000,A,3748.8009,N,12217.8617,W,0.36,358.31,130911,,,A*73
$GPVTG,358.31,T,,M,0.36,N,0.7,K,A*03
$GPGGA,173935.000,3748.8013,N,12217.8618,W,2,04,3.2,7.8,M,-25.1,M,1.8,0000*43
$GPGSA,A,3,15,26,28,08,,,,,,,,,4.7,3.2,3.5*34
$GPRMC,173935.000,A,3748.8013,N,12217.8618,W,0.62,42.69,130911,,,D*47
$GPVTG,42.69,T,,M,0.62,N,1.2,K,D*36
$GPGGA,173936.000,3748.8009,N,12217.8612,W,2,04,3.1,6.8,M,-25.1,M,2.8,0000*40
$GPGSA,A,3,15,26,28,08,,,,,,,,,4.7,3.1,3.5*37
$GPRMC,173936.000,A,3748.8009,N,12217.8612,W,0.42,39.64,130911,,,D*46
$GPVTG,39.64,T,,M,0.42,N,0.8,K,D*3E
$GPGGA,173937.000,3748.8003,N,12217.8609,W,2,04,3.1,5.6,M,-25.1,M,1.8,0000*4F
$GPGSA,A,3,15,26,28,08,,,,,,,,,4.7,3.1,3.5*37
$GPGSV,3,1,11,28,69,359,27,26,54,276,34,08,54,095,28,15,24,310,31*78
$GPGSV,3,2,11,17,50,186,35,07,28,114,31,11,20,066,24,24,14,078,*71
$GPGSV,3,3,11,27,08,308,32,01,00,163,,48,44,197,33*48
$GPRMC,173937.000,A,3748.8003,N,12217.8609,W,0.29,289.34,130911,,,D*76
$GPVTG,289.34,T,,M,0.29,N,0.5,K,D*02
$GPGGA,173938.000,3748.8002,N,12217.8619,W,2,04,3.1,7.2,M,-25.1,M,2.8,0000*45
$GPGSA,A,3,15,26,28,08,,,,,,,,,4.7,3.1,3.5*37
$GPRMC,173938.000,A,3748.8002,N,12217.8619,W,0.60,184.49,130911,,,D*70
$GPVTG,184.49,T,,M,0.60,N,1.1,K,D*0E
$GPGGA,173939.000,3748.8003,N,12217.8623,W,2,04,3.1,8.1,M,-25.1,M,3.8,0000*41
$GPGSA,A,3,15,26,28,08,,,,,,,,,4.7,3.1,3.5*37
$GPRMC,173939.000,A,3748.8003,N,12217.8623,W,0.85,213.52,130911,,,D*75
$GPVTG,213.52,T,,M,0.85,N,1.6,K,D*05
$GPGGA,173940.000,3748.8003,N,12217.8619,W,2,04,3.1,7.3,M,-25.1,M,4.8,0000*4C
$GPGSA,A,3,15,26,28,08,,,,,,,,,4.7,3.1,3.5*37
$GPRMC,173940.000,A,3748.8003,N,12217.8619,W,1.55,170.93,130911,,,D*75
$GPVTG,170.93,T,,M,1.55,N,2.9,K,D*0E
$GPGGA,173941.000,3748.8006,N,12217.8614,W,2,04,3.1,7.2,M,-25.1,M,5.8,0000*45
$GPGSA,A,3,15,26,28,08,,,,,,,,,4.7,3.1,3.5*37
$GPRMC,173941.000,A,3748.8006,N,12217.8614,W,1.07,142.76,130911,,,D*71
$GPVTG,142.76,T,,M,1.07,N,2.0,K,D*0A
$GPGGA,173942.000,3748.8008,N,12217.8612,W,2,04,3.1,7.6,M,-25.1,M,6.8,0000*49
$GPGSA,A,3,15,26,28,08,,,,,,,,,4.7,3.1,3.5*37
$GPGSV,3,1,11,28,69,359,17,26,54,276,32,08,54,095,24,15,24,310,31*71
$GPGSV,3,2,11,17,50,186,34,07,28,114,33,11,20,066,24,24,14,078,*72
$GPGSV,3,3,11,27,08,308,31,01,00,163,,48,44,197,30*48
$GPRMC,173942.000,A,3748.8008,N,12217.8612,W,0.40,70.11,130911,,,D*49
$GPVTG,70.11,T,,M,0.40,N,0.7,K,D*3C
$GPGGA,173943.000,3748.8021,N,12217.8611,W,2,04,3.1,11.2,M,-25.1,M,7.8,0000*72
$GPGSA,A,3,15,26,28,08,,,,,,,,,4.7,3.1,3.5*37
$GPRMC,173943.000,A,3748.8021,N,12217.8611,W,2.32,5.00,130911,,,D*75
$GPVTG,5.00,T,,M,2.32,N,4.3,K,D*09
$GPGGA,173944.000,3748.8022,N,12217.8606,W,2,04,3.1,12.5,M,-25.1,M,8.8,0000*7B
$GPGSA,A,3,15,26,28,08,,,,,,,,,4.7,3.1,3.5*37
$GPRMC,173944.000,A,3748.8022,N,12217.8606,W,1.20,31.83,130911,,,D*4B
$GPVTG,31.83,T,,M,1.20,N,2.2,K,D*32
$GPGGA,173945.000,3748.8026,N,12217.8605,W,2,04,3.1,13.7,M,-25.1,M,9.8,0000*7F
$GPGSA,A,3,15,26,28,08,,,,,,,,,4.7,3.1,3.5*37
$GPRMC,173945.000,A,3748.8026,N,12217.8605,W,1.57,23.47,130911,,,D*46
$GPVTG,23.47,T,,M,1.57,N,2.9,K,D*32
$GPGGA,173946.000,3748.8035,N,12217.8608,W,2,04,3.1,16.8,M,-25.1,M,10.8,0000*41
$GPGSA,A,3,15,26,28,08,,,,,,,,,4.7,3.1,3.5*37
$GPRMC,173946.000,A,3748.8035,N,12217.8608,W,1.35,3.64,130911,,,D*7D
$GPVTG,3.64,T,,M,1.35,N,2.5,K,D*09
$GPGGA,173947.000,3748.8037,N,12217.8613,W,2,04,3.1,18.3,M,-25.1,M,11.8,0000*4C
$GPGSA,A,3,15,26,28,08,,,,,,,,,4.7,3.1,3.5*37
$GPGSV,3,1,10,28,69,359,25,26,54,276,29,08,54,095,25,15,24,310,31*7A
$GPGSV,3,2,10,17,50,186,34,07,28,114,33,11,20,066,25,24,14,078,*72
$GPGSV,3,3,10,27,08,308,29,01,00,163,*70
$GPRMC,173947.000,A,3748.8037,N,12217.8613,W,0.61,344.93,130911,,,D*7C
$GPGGA,173948.000,3748.8042,N,12217.8617,W,2,04,3.1,20.1,M,-25.1,M,12.8,0000*4F
$GPGSA,A,3,15,26,28,08,,,,,,,,,4.7,3.1,3.5*37
$GPRMC,173948.000,A,3748.8042,N,12217.8617,W,0.50,319.17,130911,,,D*73
$GPVTG,319.17,T,,M,0.50,N,0.9,K,D*09
$GPGGA,173949.000,3748.8048,N,12217.8622,W,2,04,3.1,22.3,M,-25.1,M,13.8,0000*43
$GPGSA,A,3,15,26,28,08,,,,,,,,,4.7,3.1,3.5*37
$GPRMC,173949.000,A,3748.8048,N,12217.8622,W,0.55,314.47,130911,,,D*73
$GPVTG,314.47,T,,M,0.55,N,1.0,K,D*0C
$GPGGA,173950.000,3748.8058,N,12217.8625,W,2,04,3.1,24.3,M,-25.1,M,14.8,0000*4C
$GPGSA,A,3,15,26,28,08,,,,,,,,,4.7,3.1,3.5*37
$GPRMC,173950.000,A,3748.8058,N,12217.8625,W,0.82,342.61,130911,,,D*70
$GPVTG,342.61,T,,M,0.82,N,1.5,K,D*04
$GPGGA,173951.000,3748.8063,N,12217.8627,W,2,04,3.1,25.4,M,-25.1,M,15.8,0000*40
$GPGSA,A,3,15,26,28,08,,,,,,,,,4.7,3.1,3.5*37
$GPRMC,173951.000,A,3748.8063,N,12217.8627,W,0.86,334.30,130911,,,D*7A
$GPVTG,334.30,T,,M,0.86,N,1.6,K,D*06
$GPGGA,173952.000,3748.8068,N,12217.8627,W,2,04,3.1,26.1,M,-25.1,M,16.8,0000*4D
$GPGSA,A,3,15,26,28,08,,,,,,,,,4.7,3.1,3.5*37
$GPGSV,3,1,11,28,69,359,24,26,54,276,28,08,54,095,21,15,24,310,31*7F
$GPGSV,3,2,11,17,50,186,29,07,28,114,36,11,20,066,24,24,14,078,*7B
$GPGSV,3,3,11,27,08,308,29,01,00,163,,48,44,197,29*49
$GPRMC,173952.000,A,3748.8068,N,12217.8627,W,1.20,331.82,130911,,,D*73
$GPVTG,331.82,T,,M,1.20,N,2.2,K,D*00
$GPGGA,173953.000,3748.8071,N,12217.8627,W,2,04,3.1,28.3,M,-25.1,M,17.8,0000*49
$GPGSA,A,3,15,26,28,08,,,,,,,,,4.7,3.1,3.5*37
$GPRMC,173953.000,A,3748.8071,N,12217.8627,W,0.52,328.02,130911,,,D*7E
$GPVTG,328.02,T,,M,0.52,N,1.0,K,D*05
$GPGGA,173954.000,3748.8074,N,12217.8627,W,1,04,3.1,29.6,M,-25.1,M,,0000*5C
$GPGSA,A,3,15,26,28,08,,,,,,,,,4.7,3.1,3.5*37
$GPRMC,173954.000,A,3748.8074,N,12217.8627,W,0.53,303.24,130911,,,A*75
$GPVTG,303.24,T,,M,0.53,N,1.0,K,A*0C
$GPGGA,173955.000,3748.8067,N,12217.8628,W,1,04,3.1,28.3,M,-25.1,M,,0000*54
$GPGSA,A,3,15,26,28,08,,,,,,,,,4.7,3.1,3.5*37
$GPRMC,173955.000,A,3748.8067,N,12217.8628,W,0.34,277.69,130911,,,A*73
$GPVTG,277.69,T,,M,0.34,N,0.6,K,A*01
$GPGGA,173956.000,3748.8065,N,12217.8627,W,1,04,3.1,27.3,M,-25.1,M,,0000*55
$GPGSA,A,3,15,26,28,08,,,,,,,,,4.7,3.1,3.5*37
$GPRMC,173956.000,A,3748.8065,N,12217.8627,W,0.33,43.63,130911,,,A*45
$GPVTG,43.63,T,,M,0.33,N,0.6,K,A*39
$GPGGA,173957.000,3748.8066,N,12217.8622,W,1,04,3.1,27.3,M,-25.1,M,,0000*52
$GPGSA,A,3,15,26,28,08,,,,,,,,,4.7,3.1,3.5*37
$GPGSV,3,1,11,28,69,359,27,26,54,275,32,08,54,095,28,17,50,186,28*79
$GPGSV,3,2,11,07,28,114,25,15,24,310,34,11,20,066,23,24,14,078,*7E
$GPGSV,3,3,11,27,08,308,37,01,00,163,,48,44,197,27*48
$GPRMC,173957.000,A,3748.8066,N,12217.8622,W,0.02,198.64,130911,,,A*70
$GPVTG,198.64,T,,M,0.02,N,0.0,K,A*0D
$GPGGA,173958.000,3748.8056,N,12217.8620,W,1,04,3.1,24.2,M,-25.1,M,,0000*5E
$GPGSA,A,3,15,26,28,08,,,,,,,,,4.7,3.1,3.5*37
$GPRMC,173958.000,A,3748.8056,N,12217.8620,W,0.67,193.50,130911,,,A*71
$GPVTG,193.50,T,,M,0.67,N,1.2,K,A*01
$GPGGA,173959.000,3748.8058,N,12217.8618,W,1,04,3.1,22.7,M,-25.1,M,,0000*59
$GPGSA,A,3,15,26,28,08,,,,,,,,,4.7,3.1,3.5*37
$GPRMC,173959.000,A,3748.8058,N,12217.8618,W,0.25,216.31,130911,,,A*7A
$GPVTG,216.31,T,,M,0.25,N,0.5,K,A*08
$GPGGA,174000.000,3748.8062,N,12217.8608,W,1,04,3.1,20.6,M,-25.1,M,,0000*50
$GPGSA,A,3,15,26,28,08,,,,,,,,,4.7,3.1,3.5*37
$GPRMC,174000.000,A,3748.8062,N,12217.8608,W,0.60,76.73,130911,,,A*43
$GPVTG,76.73,T,,M,0.60,N,1.1,K,A*3E
$GPGGA,174001.000,3748.8059,N,12217.8602,W,1,04,3.1,18.7,M,-25.1,M,,0000*59
$GPGSA,A,3,15,26,28,08,,,,,,,,,4.7,3.1,3.5*37
$GPRMC,174001.000,A,3748.8059,N,12217.8602,W,0.37,92.75,130911,,,A*4E
$GPVTG,92.75,T,,M,0.37,N,0.7,K,A*37
$GPGGA,174002.000,3748.8059,N,12217.8601,W,1,04,3.1,18.2,M,-25.1,M,,0000*5C
$GPGSA,A,3,15,26,28,08,,,,,,,,,4.7,3.1,3.5*37
$GPGSV,3,1,10,28,69,359,28,26,54,275,29,08,54,095,26,17,50,186,23*78
$GPGSV,3,2,10,07,28,114,23,15,24,310,34,11,20,066,29,24,14,078,*73
$GPGSV,3,3,10,27,08,308,26,01,00,163,*7F
$GPRMC,174002.000,A,3748.8059,N,12217.8601,W,0.18,217.79,130911,,,A*70
$GPVTG,217.79,T,,M,0.18,N,0.3,K,A*0D
$GPGGA,174003.000,3748.8050,N,12217.8606,W,1,04,3.1,17.5,M,-25.1,M,,0000*5B
$GPGSA,A,3,15,26,28,08,,,,,,,,,4.7,3.1,3.5*37
$GPRMC,174003.000,A,3748.8050,N,12217.8606,W,0.21,119.49,130911,,,A*7B
$GPVTG,119.49,T,,M,0.21,N,0.4,K,A*0E
$GPGGA,174004.000,3748.8043,N,12217.8608,W,1,04,3.1,16.7,M,-25.1,M,,0000*53
$GPGSA,A,3,15,26,28,08,,,,,,,,,4.7,3.1,3.5*37
$GPRMC,174004.000,A,3748.8043,N,12217.8608,W,0.38,176.93,130911,,,A*76
$GPVTG,176.93,T,,M,0.38,N,0.7,K,A*0B
$GPGGA,174005.000,3748.8038,N,12217.8611,W,1,04,3.1,16.2,M,-25.1,M,,0000*53
$GPGSA,A,3,15,26,28,08,,,,,,,,,4.7,3.1,3.5*37
$GPRMC,174005.000,A,3748.8038,N,12217.8611,W,0.72,195.74,130911,,,A*79
$GPVTG,195.74,T,,M,0.72,N,1.3,K,A*04
$GPGGA,174006.000,3748.8031,N,12217.8619,W,1,04,3.1,15.0,M,-25.1,M,,0000*50
$GPGSA,A,3,15,26,28,08,,,,,,,,,4.7,3.1,3.5*37
$GPRMC,174006.000,A,3748.8031,N,12217.8619,W,0.81,206.45,130911,,,A*7C
$GPVTG,206.45,T,,M,0.81,N,1.5,K,A*05
$GPGGA,174007.000,3748.8050,N,12217.8616,W,1,04,3.1,17.2,M,-25.1,M,,0000*59
$GPGSA,A,3,15,26,28,08,,,,,,,,,4.7,3.1,3.5*37
$GPGSV,3,1,10,28,69,359,24,26,54,275,28,08,54,095,22,17,50,186,12*73
$GPGSV,3,2,10,07,28,114,17,15,24,310,20,11,20,066,25,24,14,078,*7D
$GPGSV,3,3,10,27,08,308,24,01,00,163,*7D
$GPRMC,174007.000,A,3748.8050,N,12217.8616,W,1.06,31.97,130911,,,A*42
$GPVTG,31.97,T,,M,1.06,N,2.0,K,A*34
$GPGGA,174008.000,3748.8056,N,12217.8611,W,1,04,3.1,16.4,M,-25.1,M,,0000*50
$GPGSA,A,3,15,26,28,08,,,,,,,,,4.7,3.1,3.5*37
$GPRMC,174008.000,A,3748.8056,N,12217.8611,W,0.75,36.00,130911,,,A*40
$GPVTG,36.00,T,,M,0.75,N,1.4,K,A*3F
$GPGGA,174009.000,3748.8056,N,12217.8610,W,1,04,3.1,15.2,M,-25.1,M,,0000*55
$GPGSA,A,3,15,26,28,08,,,,,,,,,4.7,3.1,3.5*37
$GPRMC,174009.000,A,3748.8056,N,12217.8610,W,0.28,44.22,130911,,,A*4D
$GPVTG,44.22,T,,M,0.28,N,0.5,K,A*32
$GPGGA,174010.000,3748.8054,N,12217.8608,W,1,04,3.1,14.0,M,-25.1,M,,0000*55
$GPGSA,A,3,15,26,28,08,,,,,,,,,4.7,3.1,3.5*37
$GPRMC,174010.000,A,3748.8054,N,12217.8608,W,0.31,75.49,130911,,,A*49
$GPVTG,75.49,T,,M,0.31,N,0.6,K,A*36
$GPGGA,174011.000,3748.8053,N,12217.8607,W,1,04,3.1,12.8,M,-25.1,M,,0000*52
$GPGSA,A,3,15,26,28,08,,,,,,,,,4.7,3.1,3.5*37
$GPRMC,174011.000,A,3748.8053,N,12217.8607,W,0.19,146.61,130911,,,A*71
$GPVTG,146.61,T,,M,0.19,N,0.4,K,A*05
$GPGGA,174012.000,3748.8058,N,12217.8601,W,1,04,3.1,11.6,M,-25.1,M,,0000*51
$GPGSA,A,3,15,26,28,08,,,,,,,,,4.7,3.1,3.5*37
$GPGSV,3,1,10,28,69,359,31,26,54,275,25,08,54,095,36,17,50,186,29*77
$GPGSV,3,2,10,07,28,114,26,15,24,310,28,11,20,066,39,24,14,078,32*7B
$GPGSV,3,3,10,27,08,308,22,01,00,163,*7B
$GPRMC,174012.000,A,3748.8058,N,12217.8601,W,0.56,55.27,130911,,,A*45
$GPVTG,55.27,T,,M,0.56,N,1.0,K,A*3A
$GPGGA,174013.000,3748.8059,N,12217.8597,W,1,04,3.1,10.3,M,-25.1,M,,0000*59
$GPGSA,A,3,15,26,28,08,,,,,,,,,4.7,3.1,3.5*37
$GPRMC,174013.000,A,3748.8059,N,12217.8597,W,0.29,80.38,130911,,,A*47
$GPVTG,80.38,T,,M,0.29,N,0.5,K,A*30
$GPGGA,174014.000,3748.8059,N,12217.8593,W,1,04,3.1,10.3,M,-25.1,M,,0000*5A
$GPGSA,A,3,15,26,28,08,,,,,,,,,4.7,3.1,3.5*37
$GPRMC,174014.000,A,3748.8059,N,12217.8593,W,0.20,63.67,130911,,,A*4A
$GPVTG,63.67,T,,M,0.20,N,0.4,K,A*3F
$GPGGA,174015.000,3748.8061,N,12217.8589,W,1,04,3.1,10.0,M,-25.1,M,,0000*58
$GPGSA,A,3,15,26,28,08,,,,,,,,,4.7,3.1,3.5*37
$GPRMC,174015.000,A,3748.8061,N,12217.8589,W,0.18,132.59,130911,,,A*78
$GPVTG,132.59,T,,M,0.18,N,0.3,K,A*0B
$GPGGA,174016.000,3748.8060,N,12217.8588,W,1,03,13.1,10.1,M,-25.1,M,,0000*6C
$GPGSA,A,2,15,28,08,,,,,,,,,,13.1,13.1,1.0*34
$GPRMC,174016.000,A,3748.8060,N,12217.8588,W,0.22,106.78,130911,,,A*76
$GPVTG,106.78,T,,M,0.22,N,0.4,K,N*0E
$GPGGA,174017.000,3748.8059,N,12217.8587,W,1,03,13.1,10.2,M,-25.1,M,,0000*6B
$GPGSA,A,2,15,28,08,,,,,,,,,,13.1,13.1,1.0*34
$GPGSV,3,1,11,28,69,000,30,26,54,275,,08,54,095,36,17,50,186,30*77
$GPGSV,3,2,11,07,28,114,26,15,24,310,27,11,20,066,39,24,14,078,35*72
$GPGSV,3,3,11,27,08,308,24,01,01,163,,48,44,197,33*4E
$GPRMC,174017.000,A,3748.8059,N,12217.8587,W,0.26,84.54,130911,,,A*43
$GPVTG,84.54,T,,M,0.26,N,0.5,K,N*3E
$GPGGA,174018.000,3748.8059,N,12217.8586,W,1,03,13.0,10.3,M,-25.1,M,,0000*65
$GPGSA,A,2,15,28,08,,,,,,,,,,13.1,13.0,1.0*35
$GPRMC,174018.000,A,3748.8059,N,12217.8586,W,0.30,64.30,130911,,,A*46
$GPVTG,64.30,T,,M,0.30,N,0.5,K,N*35
$GPGGA,174019.000,3748.8058,N,12217.8584,W,1,03,13.0,10.3,M,-25.1,M,,0000*67
$GPGSA,A,2,15,28,08,,,,,,,,,,13.1,13.0,1.0*35
$GPRMC,174019.000,A,3748.8058,N,12217.8584,W,0.29,67.00,130911,,,A*4C
$GPVTG,67.00,T,,M,0.29,N,0.5,K,N*3D
$GPGGA,174020.000,3748.8036,N,12217.8599,W,1,04,3.1,11.0,M,-25.1,M,,0000*5C
$GPGSA,A,3,15,26,28,08,,,,,,,,,4.6,3.1,3.5*36
$GPRMC,174020.000,A,3748.8036,N,12217.8599,W,1.30,201.37,130911,,,A*7D
$GPVTG,201.37,T,,M,1.30,N,2.4,K,A*0E
$GPGGA,174021.000,3748.8053,N,12217.8584,W,1,04,3.1,10.2,M,-25.1,M,,0000*51
$GPGSA,A,3,15,26,28,08,,,,,,,,,4.6,3.1,3.5*36
$GPRMC,174021.000,A,3748.8053,N,12217.8584,W,0.26,165.57,130911,,,A*72
$GPVTG,165.57,T,,M,0.26,N,0.5,K,A*0C
$GPGGA,174022.000,3748.8036,N,12217.8595,W,1,04,3.1,10.9,M,-25.1,M,,0000*5A
$GPGSA,A,3,15,26,28,08,,,,,,,,,4.6,3.1,3.5*36
$GPGSV,3,1,11,28,69,000,29,26,54,275,19,08,54,095,36,17,50,186,37*70
$GPGSV,3,2,11,07,28,114,26,15,24,310,27,11,20,066,40,24,14,078,36*7F
$GPGSV,3,3,11,27,08,308,24,01,01,163,,48,44,197,33*4E
$GPRMC,174022.000,A,3748.8036,N,12217.8595,W,1.40,206.75,130911,,,A*75
$GPVTG,206.75,T,,M,1.40,N,2.6,K,A*0A
$GPGGA,174023.000,3748.8040,N,12217.8590,W,2,04,3.1,10.8,M,-25.1,M,1.8,0000*7A
$GPGSA,A,3,15,26,28,08,,,,,,,,,4.6,3.1,3.5*36
$GPRMC,174023.000,A,3748.8040,N,12217.8590,W,0.39,174.54,130911,,,D*7F
$GPVTG,174.54,T,,M,0.39,N,0.7,K,D*06
$GPGGA,174024.000,3748.8052,N,12217.8578,W,2,04,3.1,10.3,M,-25.1,M,1.8,0000*73
$GPGSA,A,3,15,26,28,08,,,,,,,,,4.6,3.1,3.5*36
$GPRMC,174024.000,A,3748.8052,N,12217.8578,W,0.35,193.90,130911,,,D*70
$GPVTG,193.90,T,,M,0.35,N,0.7,K,D*0B
$GPGGA,174025.000,3748.8056,N,12217.8571,W,2,04,3.1,9.5,M,-25.1,M,1.8,0000*41
$GPGSA,A,3,15,26,28,08,,,,,,,,,4.6,3.1,3.5*36
$GPRMC,174025.000,A,3748.8056,N,12217.8571,W,0.46,25.99,130911,,,D*4D
$GPVTG,25.99,T,,M,0.46,N,0.9,K,D*34
$GPGGA,174026.000,3748.8047,N,12217.8575,W,2,04,3.1,10.2,M,-25.1,M,2.8,0000*7A
$GPGSA,A,3,15,26,28,08,,,,,,,,,4.6,3.1,3.5*36
$GPRMC,174026.000,A,3748.8047,N,12217.8575,W,0.67,127.78,130911,,,D*75
$GPVTG,127.78,T,,M,0.67,N,1.2,K,D*01
$GPGGA,174027.000,3748.8056,N,12217.8565,W,2,04,3.1,10.7,M,-25.1,M,3.8,0000*7E
$GPGSA,A,3,15,26,28,08,,,,,,,,,4.6,3.1,3.5*36
$GPGSV,3,1,11,28,69,000,29,26,54,275,23,08,54,095,35,17,50,186,26*7A
$GPGSV,3,2,11,07,28,114,27,15,24,310,27,11,20,066,39,24,14,078,36*70
$GPRMC,174027.000,A,3748.8056,N,12217.8565,W,0.66,68.00,130911,,,D*41
$GPVTG,68.00,T,,M,0.66,N,1.2,K,D*35
$GPGGA,174028.000,3748.8046,N,12217.8568,W,2,04,3.1,12.7,M,-25.1,M,4.8,0000*78
$GPGSA,A,3,15,26,28,08,,,,,,,,,4.6,3.1,3.5*36
$GPRMC,174028.000,A,3748.8046,N,12217.8568,W,0.43,173.10,130911,,,D*7F
$GPVTG,173.10,T,,M,0.43,N,0.8,K,D*03
$GPGGA,174029.000,3748.8031,N,12217.8576,W,2,04,3.1,14.8,M,-25.1,M,1.8,0000*7A
$GPGSA,A,3,15,26,28,08,,,,,,,,,4.6,3.1,3.5*36
$GPRMC,174029.000,A,3748.8031,N,12217.8576,W,1.16,200.27,130911,,,D*73
$GPVTG,200.27,T,,M,1.16,N,2.1,K,D*0A
$GPGGA,174030.000,3748.8023,N,12217.8580,W,2,04,3.1,15.7,M,-25.1,M,1.8,0000*76
$GPGSA,A,3,15,26,28,08,,,,,,,,,4.6,3.1,3.5*36
$GPRMC,174030.000,A,3748.8023,N,12217.8580,W,2.10,209.46,130911,,,D*7A
$GPVTG,209.46,T,,M,2.10,N,3.9,K,D*08
$GPGGA,174031.000,3748.8011,N,12217.8587,W,2,04,3.1,17.5,M,-25.1,M,1.8,0000*71
$GPGSA,A,3,15,26,28,08,,,,,,,,,4.6,3.1,3.5*36
$GPRMC,174031.000,A,3748.8011,N,12217.8587,W,2.93,207.69,130911,,,D*75
$GPVTG,207.69,T,,M,2.93,N,5.4,K,D*0B
$GPGGA,174032.000,3748.7992,N,12217.8600,W,2,04,3.1,19.5,M,-25.1,M,2.8,0000*7E
$GPGSA,A,3,15,26,28,08,,,,,,,,,4.6,3.1,3.5*36
$GPGSV,3,1,11,28,69,000,29,26,54,275,23,08,54,095,36,17,50,186,33*7D
$GPGSV,3,2,11,07,28,114,25,15,24,310,27,11,20,066,40,24,14,078,36*7C
$GPGSV,3,3,11,27,08,308,22,01,01,163,,48,44,197,24*4E
$GPRMC,174032.000,A,3748.7992,N,12217.8600,W,3.11,207.68,130911,,,D*7D
$GPVTG,207.68,T,,M,3.11,N,5.8,K,D*0D
$GPGGA,174033.000,3748.7991,N,12217.8601,W,2,04,3.1,19.6,M,-25.1,M,3.8,0000*7F
$GPGSA,A,3,15,26,28,08,,,,,,,,,4.6,3.1,3.5*36
$GPRMC,174033.000,A,3748.7991,N,12217.8601,W,1.71,206.77,130911,,,D*75
$GPVTG,206.77,T,,M,1.71,N,3.2,K,D*0A
$GPGGA,174034.000,3748.7991,N,12217.8600,W,2,06,2.7,18.4,M,-25.1,M,4.8,0000*78
$GPGSA,A,3,15,26,28,08,24,11,,,,,,,3.5,2.7,2.2*35
$GPRMC,174034.000,A,3748.7991,N,12217.8600,W,0.63,192.58,130911,,,D*72
$GPVTG,192.58,T,,M,0.63,N,1.2,K,D*09
$GPGGA,174035.000,3748.8008,N,12217.8586,W,2,06,2.7,17.5,M,-25.1,M,1.8,0000*79
$GPGSA,A,3,15,26,28,08,24,11,,,,,,,3.5,2.7,2.2*35
$GPRMC,174035.000,A,3748.8008,N,12217.8586,W,0.15,100.48,130911,,,D*73
$GPVTG,100.48,T,,M,0.15,N,0.3,K,D*02
$GPGGA,174036.000,3748.8018,N,12217.8576,W,2,06,2.7,15.8,M,-25.1,M,1.8,0000*7B
$GPGSA,A,3,15,26,28,08,24,11,,,,,,,3.5,2.7,2.2*35
$GPRMC,174036.000,A,3748.8018,N,12217.8576,W,0.29,209.82,130911,,,D*7D
$GPVTG,209.82,T,,M,0.29,N,0.5,K,D*07
$GPGGA,174037.000,3748.8019,N,12217.8572,W,2,06,2.7,14.3,M,-25.1,M,1.8,0000*75
$GPGSA,A,3,15,26,28,08,24,11,,,,,,,3.5,2.7,2.2*35
$GPGSV,3,1,11,28,69,000,25,26,54,275,29,08,53,096,30,17,51,186,33*78
$GPGSV,3,2,11,07,28,114,31,15,25,310,27,11,20,066,22,24,15,078,26*7C
$GPGSV,3,3,11,27,08,308,20,01,01,163,,48,44,197,39*40
$GPRMC,174037.000,A,3748.8019,N,12217.8572,W,0.32,74.45,130911,,,D*40
$GPVTG,74.45,T,,M,0.32,N,0.6,K,D*3D
$GPGGA,174038.000,3748.7994,N,12217.8581,W,2,06,2.7,11.5,M,-25.1,M,2.8,0000*75
$GPGSA,A,3,15,26,28,08,24,11,,,,,,,3.4,2.7,2.2*34
$GPRMC,174038.000,A,3748.7994,N,12217.8581,W,0.72,185.92,130911,,,D*71
$GPVTG,185.92,T,,M,0.72,N,1.3,K,D*08
$GPGGA,174039.000,3748.7981,N,12217.8586,W,2,06,2.7,8.3,M,-25.1,M,3.8,0000*48
$GPGSA,A,3,15,26,28,08,24,11,,,,,,,3.4,2.7,2.2*34
$GPRMC,174039.000,A,3748.7981,N,12217.8586,W,0.80,171.50,130911,,,D*7B
$GPVTG,171.50,T,,M,0.80,N,1.5,K,D*06
$GPGGA,174040.000,3748.7969,N,12217.8593,W,2,06,2.7,5.4,M,-25.1,M,4.8,0000*49
$GPGSA,A,3,15,26,28,08,24,11,,,,,,,3.4,2.7,2.2*34
$GPRMC,174040.000,A,3748.7969,N,12217.8593,W,0.93,196.28,130911,,,D*73
$GPVTG,196.28,T,,M,0.93,N,1.7,K,D*00
$GPGGA,174041.000,3748.7961,N,12217.8603,W,2,06,2.7,4.8,M,-25.1,M,1.8,0000*42
$GPGSA,A,3,15,26,28,08,24,11,,,,,,,3.4,2.7,2.2*34
$GPRMC,174041.000,A,3748.7961,N,12217.8603,W,0.63,177.74,130911,,,D*79
$GPVTG,177.74,T,,M,0.63,N,1.2,K,D*0C
$GPGGA,174042.000,3748.7955,N,12217.8614,W,2,06,2.7,5.1,M,-25.1,M,1.8,0000*48
$GPGSA,A,3,15,26,28,08,24,11,,,,,,,3.4,2.7,2.2*34
$GPGSV,3,1,11,28,68,000,18,26,54,275,30,08,53,096,25,17,51,186,34*7C
$GPGSV,3,2,11,07,28,114,23,15,25,310,25,11,20,066,23,24,15,078,16*7F
$GPGSV,3,3,11,27,08,308,21,01,01,163,,48,44,197,32*4A
$GPRMC,174042.000,A,3748.7955,N,12217.8614,W,0.73,172.40,130911,,,D*78
$GPVTG,172.40,T,,M,0.73,N,1.4,K,D*09
$GPGGA,174043.000,3748.7961,N,12217.8621,W,2,06,2.7,6.3,M,-25.1,M,1.8,0000*49
$GPGSA,A,3,15,26,28,08,24,11,,,,,,,3.4,2.7,2.2*34
$GPRMC,174043.000,A,3748.7961,N,12217.8621,W,0.08,16.01,130911,,,D*42
$GPVTG,16.01,T,,M,0.08,N,0.1,K,D*37
$GPGGA,174044.000,3748.7961,N,12217.8619,W,2,05,4.9,6.4,M,-25.1,M,2.8,0000*4A
$GPGSA,A,3,15,26,08,24,11,,,,,,,,6.9,4.9,4.8*32
$GPRMC,174044.000,A,3748.7961,N,12217.8619,W,0.52,187.85,130911,,,D*74
$GPVTG,187.85,T,,M,0.52,N,1.0,K,D*0D
$GPGGA,174045.000,3748.7969,N,12217.8621,W,2,06,2.7,5.9,M,-25.1,M,3.8,0000*4C
$GPGSA,A,3,15,26,28,08,24,11,,,,,,,3.4,2.7,2.2*34
$GPRMC,174045.000,A,3748.7969,N,12217.8621,W,0.86,280.99,130911,,,D*76
$GPVTG,280.99,T,,M,0.86,N,1.6,K,D*0B
$GPGGA,174046.000,3748.7963,N,12217.8625,W,2,06,2.7,6.0,M,-25.1,M,4.8,0000*4C
$GPGSA,A,3,15,26,28,08,24,11,,,,,,,3.4,2.7,2.2*34
$GPRMC,174046.000,A,3748.7963,N,12217.8625,W,1.20,206.08,130911,,,D*70
$GPVTG,206.08,T,,M,1.20,N,2.2,K,D*07
$GPGGA,174047.000,3748.7963,N,12217.8630,W,2,05,3.1,5.7,M,-25.1,M,1.8,0000*4C
$GPGSA,A,3,26,28,08,24,11,,,,,,,,4.0,3.1,2.6*30
$GPGSV,3,1,11,28,68,000,29,26,54,275,23,08,53,096,28,17,51,186,29*7D
$GPGSV,3,2,11,07,28,114,24,15,25,310,18,11,20,066,27,24,15,078,16*72
$GPGSV,3,3,11,27,08,308,13,01,01,163,,48,44,197,27*4F
$GPRMC,174047.000,A,3748.7963,N,12217.8630,W,0.67,198.77,130911,,,D*7B
$GPGGA,174048.000,3748.7967,N,12217.8634,W,2,05,3.1,4.8,M,-25.1,M,1.8,0000*4D
$GPGSA,A,3,26,28,08,24,11,,,,,,,,4.0,3.1,2.6*30
$GPRMC,174048.000,A,3748.7967,N,12217.8634,W,0.36,291.98,130911,,,D*7B
$GPVTG,291.98,T,,M,0.36,N,0.7,K,D*01
$GPGGA,174049.000,3748.7965,N,12217.8633,W,2,05,3.1,4.2,M,-25.1,M,2.8,0000*40
$GPGSA,A,3,26,28,08,24,11,,,,,,,,4.0,3.1,2.6*30
$GPRMC,174049.000,A,3748.7965,N,12217.8633,W,0.23,250.22,130911,,,D*77
$GPVTG,250.22,T,,M,0.23,N,0.4,K,D*0A
$GPGGA,174050.000,3748.7976,N,12217.8627,W,2,05,3.1,6.2,M,-25.1,M,3.8,0000*4C
$GPGSA,A,3,26,28,08,24,11,,,,,,,,4.0,3.1,2.6*30
$GPRMC,174050.000,A,3748.7976,N,12217.8627,W,0.25,99.20,130911,,,D*4B
$GPVTG,99.20,T,,M,0.25,N,0.5,K,D*38
$GPGGA,174051.000,3748.7990,N,12217.8614,W,2,05,3.1,8.4,M,-25.1,M,4.8,0000*4A
$GPGSA,A,3,26,28,08,24,11,,,,,,,,4.0,3.1,2.6*30
$GPRMC,174051.000,A,3748.7990,N,12217.8614,W,0.58,139.18,130911,,,D*78
$GPVTG,139.18,T,,M,0.58,N,1.1,K,D*07
$GPGGA,174052.000,3748.7992,N,12217.8606,W,2,05,3.1,10.5,M,-25.1,M,5.8,0000*71
$GPGSA,A,3,26,28,08,24,11,,,,,,,,4.0,3.1,2.6*30
$GPGSV,3,1,10,28,68,000,25,26,54,275,27,08,53,096,21,17,51,186,24*70
$GPGSV,3,2,10,07,28,114,29,15,25,310,,11,20,066,26,24,15,078,17*77
$GPGSV,3,3,10,27,08,308,13,01,01,163,*78
$GPRMC,174052.000,A,3748.7992,N,12217.8606,W,0.52,155.13,130911,,,D*71
$GPVTG,155.13,T,,M,0.52,N,1.0,K,D*0D
$GPGGA,174053.000,3748.7989,N,12217.8610,W,2,05,3.1,10.1,M,-25.1,M,6.8,0000*7A
$GPGSA,A,3,26,28,08,24,11,,,,,,,,4.0,3.1,2.6*30
$GPRMC,174053.000,A,3748.7989,N,12217.8610,W,0.35,241.18,130911,,,D*71
$GPVTG,241.18,T,,M,0.35,N,0.7,K,D*07
$GPGGA,174054.000,3748.7986,N,12217.8611,W,2,05,3.1,10.4,M,-25.1,M,7.8,0000*77
$GPGSA,A,3,26,28,08,24,11,,,,,,,,4.0,3.1,2.6*30
$GPRMC,174054.000,A,3748.7986,N,12217.8611,W,1.03,192.51,130911,,,D*7C
$GPVTG,192.51,T,,M,1.03,N,1.9,K,D*0C
$GPGGA,174055.000,3748.7993,N,12217.8619,W,2,05,3.1,8.9,M,-25.1,M,8.8,0000*41
$GPGSA,A,3,26,28,08,24,11,,,,,,,,4.0,3.1,2.6*30
$GPRMC,174055.000,A,3748.7993,N,12217.8619,W,0.27,323.86,130911,,,D*74
$GPVTG,323.86,T,,M,0.27,N,0.5,K,D*04
$GPGGA,174056.000,3748.8011,N,12217.8621,W,2,05,3.1,8.8,M,-25.1,M,9.8,0000*45
$GPGSA,A,3,26,28,08,24,11,,,,,,,,4.0,3.1,2.6*30
$GPRMC,174056.000,A,3748.8011,N,12217.8621,W,1.24,0.58,130911,,,D*73
$GPVTG,0.58,T,,M,1.24,N,2.3,K,D*03
$GPGGA,174057.000,3748.8016,N,12217.8623,W,2,05,3.1,9.0,M,-25.1,M,10.8,0000*70
$GPGSA,A,3,26,28,08,24,11,,,,,,,,4.0,3.1,2.6*30
$GPGSV,3,1,10,28,68,000,26,26,54,275,24,08,53,096,23,17,51,186,30*77
$GPGSV,3,2,10,07,28,114,22,15,25,310,,11,20,066,17,24,15,078,15*7C
$GPGSV,3,3,10,27,08,308,14,01,01,163,*7F
$GPRMC,174057.000,A,3748.8016,N,12217.8623,W,1.00,359.53,130911,,,D*75
$GPVTG,359.53,T,,M,1.00,N,1.8,K,D*09
$GPGGA,174058.000,3748.8001,N,12217.8619,W,2,05,3.1,7.8,M,-25.1,M,11.8,0000*77
$GPGSA,A,3,26,28,08,24,11,,,,,,,,4.0,3.1,2.6*30
$GPRMC,174058.000,A,3748.8001,N,12217.8619,W,0.19,156.64,130911,,,D*75
$GPVTG,156.64,T,,M,0.19,N,0.3,K,D*03
$GPGGA,174059.000,3748.7980,N,12217.8616,W,2,04,3.4,6.3,M,-25.1,M,12.8,0000*7B
$GPGSA,A,3,28,08,24,11,,,,,,,,,3.5,3.4,1.0*36
$GPRMC,174059.000,A,3748.7980,N,12217.8616,W,2.23,177.25,130911,,,D*79
$GPVTG,177.25,T,,M,2.23,N,4.1,K,D*08
$GPGGA,174100.000,3748.7966,N,12217.8616,W,2,04,3.4,5.4,M,-25.1,M,13.8,0000*7B
$GPGSA,A,3,28,08,24,11,,,,,,,,,3.5,3.4,1.0*36
$GPRMC,174100.000,A,3748.7966,N,12217.8616,W,1.95,193.55,130911,,,D*7F
$GPVTG,193.55,T,,M,1.95,N,3.6,K,D*0B
$GPGGA,174101.000,3748.7941,N,12217.8613,W,2,05,3.1,7.1,M,-25.1,M,14.8,0000*7E
$GPGSA,A,3,26,28,08,24,11,,,,,,,,4.0,3.1,2.6*30
$GPRMC,174101.000,A,3748.7941,N,12217.8613,W,2.62,182.08,130911,,,D*7D
$GPVTG,182.08,T,,M,2.62,N,4.9,K,D*00
$GPGGA,174102.000,3748.7972,N,12217.8605,W,2,05,3.1,10.7,M,-25.1,M,15.8,0000*4B
$GPGSA,A,3,26,28,08,24,11,,,,,,,,4.0,3.1,2.6*30
$GPGSV,3,1,11,28,68,000,23,26,54,275,17,08,53,096,26,17,51,186,33*75
$GPGSV,3,2,11,07,28,114,18,15,25,310,,11,20,066,24,24,15,078,24*76
$GPGSV,3,3,11,27,08,308,21,01,01,163,,48,44,197,31*49
$GPRMC,174102.000,A,3748.7972,N,12217.8605,W,0.30,133.41,130911,,,D*7B
$GPVTG,133.41,T,,M,0.30,N,0.6,K,D*09
$GPGGA,174103.000,3748.7985,N,12217.8606,W,2,05,3.1,10.3,M,-25.1,M,16.8,0000*46
$GPGSA,A,3,26,28,08,24,11,,,,,,,,4.0,3.1,2.6*30
$GPRMC,174103.000,A,3748.7985,N,12217.8606,W,0.29,252.59,130911,,,D*74
$GPVTG,252.59,T,,M,0.29,N,0.5,K,D*0F
$GPGGA,174104.000,3748.7993,N,12217.8610,W,2,04,3.4,10.9,M,-25.1,M,17.8,0000*4E
$GPGSA,A,3,28,08,24,11,,,,,,,,,3.5,3.4,1.0*36
$GPRMC,174104.000,A,3748.7993,N,12217.8610,W,0.62,293.02,130911,,,D*7F
$GPVTG,293.02,T,,M,0.62,N,1.1,K,D*06
$GPGGA,174105.000,3748.7978,N,12217.8608,W,1,04,3.4,11.4,M,-25.1,M,,0000*5C
$GPGSA,A,3,28,08,24,11,,,,,,,,,3.5,3.4,1.0*36
$GPRMC,174105.000,A,3748.7978,N,12217.8608,W,0.30,241.80,130911,,,A*75
$GPVTG,241.80,T,,M,0.30,N,0.6,K,A*07
$GPGGA,174106.000,3748.7979,N,12217.8606,W,1,04,6.0,11.4,M,-25.1,M,,0000*51
$GPGSA,A,3,26,08,24,11,,,,,,,,,7.8,6.0,4.9*3C
$GPRMC,174106.000,A,3748.7979,N,12217.8606,W,0.24,13.46,130911,,,A*43
$GPVTG,13.46,T,,M,0.24,N,0.4,K,A*3F
$GPGGA,174107.000,3748.7969,N,12217.8610,W,1,05,3.0,10.0,M,-25.1,M,,0000*57
$GPGSA,A,3,26,28,08,24,11,,,,,,,,4.0,3.0,2.6*31
$GPGSV,3,1,11,28,68,000,19,26,54,275,29,08,53,096,26,17,51,186,33*71
$GPGSV,3,2,11,07,28,114,18,15,25,310,,11,20,066,19,24,15,078,19*76
$GPGSV,3,3,11,27,08,308,19,01,01,163,,48,44,197,28*4A
$GPRMC,174107.000,A,3748.7969,N,12217.8610,W,0.30,34.46,130911,,,A*44
$GPVTG,34.46,T,,M,0.30,N,0.5,K,A*3E
$GPGGA,174108.000,3748.7958,N,12217.8608,W,1,05,3.0,8.6,M,-25.1,M,,0000*6C
$GPGSA,A,3,26,28,08,24,11,,,,,,,,4.0,3.0,2.6*31
$GPRMC,174108.000,A,3748.7958,N,12217.8608,W,0.69,168.60,130911,,,A*70
$GPVTG,168.60,T,,M,0.69,N,1.3,K,A*09
$GPGGA,174109.000,3748.7968,N,12217.8606,W,1,05,3.0,10.5,M,-25.1,M,,0000*5A
$GPGSA,A,3,26,28,08,24,11,,,,,,,,4.0,3.0,2.6*31
$GPRMC,174109.000,A,3748.7968,N,12217.8606,W,0.12,54.35,130911,,,A*4E
$GPVTG,54.35,T,,M,0.12,N,0.2,K,A*3B
$GPGGA,174110.000,3748.7962,N,12217.8605,W,1,04,6.0,10.9,M,-25.1,M,,0000*53
$GPGSA,A,3,26,08,24,11,,,,,,,,,7.8,6.0,4.9*3C
$GPRMC,174110.000,A,3748.7962,N,12217.8605,W,0.67,153.73,130911,,,A*79
$GPVTG,153.73,T,,M,0.67,N,1.2,K,A*0C
$GPGGA,174111.000,3748.7965,N,12217.8605,W,1,05,3.0,11.1,M,-25.1,M,,0000*58
$GPGSA,A,3,26,28,08,24,11,,,,,,,,4.0,3.0,2.6*31
$GPRMC,174111.000,A,3748.7965,N,12217.8605,W,0.68,161.22,130911,,,A*75
$GPVTG,161.22,T,,M,0.68,N,1.3,K,A*07
$GPGGA,174112.000,3748.7966,N,12217.8608,W,1,05,3.0,8.1,M,-25.1,M,,0000*6D
$GPGSA,A,3,26,28,08,24,11,,,,,,,,4.0,3.0,2.6*31
$GPGSV,3,1,11,28,68,000,18,26,54,275,29,08,53,096,26,17,51,186,33*70
$GPGSV,3,2,11,07,28,114,18,15,25,310,,11,20,066,23,24,15,078,18*7E
$GPGSV,3,3,11,27,08,308,18,01,01,163,,48,44,197,27*44
$GPRMC,174112.000,A,3748.7966,N,12217.8608,W,0.99,174.75,130911,,,A*70
$GPVTG,174.75,T,,M,0.99,N,1.8,K,A*04
$GPGGA,174113.000,3748.7960,N,12217.8612,W,1,05,3.0,5.7,M,-25.1,M,,0000*6A
$GPGSA,A,3,26,28,08,24,11,,,,,,,,4.0,3.0,2.6*31
$GPRMC,174113.000,A,3748.7960,N,12217.8612,W,0.51,174.21,130911,,,A*79
$GPVTG,174.21,T,,M,0.51,N,0.9,K,A*01
$GPGGA,174114.000,3748.7965,N,12217.8616,W,1,05,3.0,4.2,M,-25.1,M,,0000*68
$GPGSA,A,3,26,28,08,24,11,,,,,,,,4.0,3.0,2.6*31
$GPRMC,174114.000,A,3748.7965,N,12217.8616,W,0.16,288.59,130911,,,A*73
$GPVTG,288.59,T,,M,0.16,N,0.3,K,A*07
$GPGGA,174115.000,3748.7967,N,12217.8619,W,1,05,3.0,2.1,M,-25.1,M,,0000*61
$GPGSA,A,3,26,28,08,24,11,,,,,,,,4.0,3.0,2.6*31
$GPRMC,174115.000,A,3748.7967,N,12217.8619,W,0.49,246.07,130911,,,A*7C
$GPVTG,246.07,T,,M,0.49,N,0.9,K,A*0E
$GPGGA,174116.000,3748.7975,N,12217.8623,W,1,05,3.0,0.4,M,-25.1,M,,0000*6F
$GPGSA,A,3,26,28,08,24,11,,,,,,,,4.0,3.0,2.6*31
$GPRMC,174116.000,A,3748.7975,N,12217.8623,W,0.63,314.94,130911,,,A*71
$GPVTG,314.94,T,,M,0.63,N,1.2,K,A*00
$GPGGA,174117.000,3748.7963,N,12217.8632,W,1,06,2.7,-4.8,M,-25.1,M,,0000*49
$GPGSA,A,3,26,28,08,24,11,15,,,,,,,3.4,2.7,2.2*34
$GPGSV,3,1,11,28,68,001,24,26,54,274,28,08,53,096,27,17,51,186,32*7E
$GPGSV,3,2,11,07,28,114,,15,25,310,22,11,20,065,22,24,15,077,18*7A
$GPGSV,3,3,11,27,08,308,17,01,01,162,,48,44,197,27*4A
$GPRMC,174117.000,A,3748.7963,N,12217.8632,W,0.92,261.80,130911,,,A*7F
$GPGGA,174118.000,3748.7941,N,12217.8642,W,1,06,2.6,-6.1,M,-25.1,M,,0000*4B
$GPGSA,A,3,26,28,08,24,11,15,,,,,,,3.4,2.6,2.2*35
$GPRMC,174118.000,A,3748.7941,N,12217.8642,W,2.35,210.81,130911,,,A*7F
$GPVTG,210.81,T,,M,2.35,N,4.3,K,A*04
$GPGGA,174119.000,3748.7938,N,12217.8639,W,1,06,2.6,-5.8,M,-25.1,M,,0000*42
$GPGSA,A,3,26,28,08,24,11,15,,,,,,,3.4,2.6,2.2*35
$GPRMC,174119.000,A,3748.7938,N,12217.8639,W,2.45,174.28,130911,,,A*79
$GPVTG,174.28,T,,M,2.45,N,4.5,K,A*07
$GPGGA,174120.000,3748.7940,N,12217.8627,W,1,06,2.6,-4.4,M,-25.1,M,,0000*45
$GPGSA,A,3,26,28,08,24,11,15,,,,,,,3.4,2.6,2.2*35
$GPRMC,174120.000,A,3748.7940,N,12217.8627,W,1.26,154.89,130911,,,A*7C
$GPVTG,154.89,T,,M,1.26,N,2.3,K,A*08
$GPGGA,174121.000,3748.7949,N,12217.8619,W,1,06,2.6,-3.2,M,-25.1,M,,0000*41
$GPGSA,A,3,26,28,08,24,11,15,,,,,,,3.4,2.6,2.2*35
$GPRMC,174121.000,A,3748.7949,N,12217.8619,W,0.16,191.41,130911,,,A*76
$GPVTG,191.41,T,,M,0.16,N,0.3,K,A*05
$GPGGA,174122.000,3748.7966,N,12217.8609,W,1,07,1.4,-2.7,M,-25.1,M,,0000*4A
$GPGSA,A,3,26,28,08,17,24,11,15,,,,,,2.4,1.4,1.9*3B
$GPGSV,3,1,11,28,68,001,24,26,54,274,23,08,53,096,36,17,51,186,29*7F
$GPGSV,3,2,11,07,28,114,35,15,25,310,21,11,20,065,36,24,15,077,29*78
$GPGSV,3,3,11,27,08,308,18,01,01,162,,48,44,197,24*46
$GPRMC,174122.000,A,3748.7966,N,12217.8609,W,0.33,4.55,130911,,,A*76
$GPVTG,4.55,T,,M,0.33,N,0.6,K,A*0F
$GPGGA,174123.000,3748.7989,N,12217.8604,W,1,07,1.4,-0.5,M,-25.1,M,,0000*47
$GPGSA,A,3,26,28,08,17,24,11,15,,,,,,2.4,1.4,1.9*3B
$GPRMC,174123.000,A,3748.7989,N,12217.8604,W,0.24,25.34,130911,,,A*49
$GPVTG,25.34,T,,M,0.24,N,0.4,K,A*3F
$GPGGA,174124.000,3748.7990,N,12217.8601,W,1,07,1.4,1.4,M,-25.1,M,,0000*60
$GPGSA,A,3,26,28,08,17,24,11,15,,,,,,2.4,1.4,1.9*3B
$GPRMC,174124.000,A,3748.7990,N,12217.8601,W,0.71,352.73,130911,,,A*73
$GPVTG,352.73,T,,M,0.71,N,1.3,K,A*09
$GPGGA,174125.000,3748.7993,N,12217.8601,W,1,06,2.6,1.9,M,-25.1,M,,0000*6F
$GPGSA,A,3,26,28,08,24,11,15,,,,,,,3.4,2.6,2.2*35
$GPRMC,174125.000,A,3748.7993,N,12217.8601,W,0.21,335.90,130911,,,A*78
$GPVTG,335.90,T,,M,0.21,N,0.4,K,A*06
$GPGGA,174126.000,3748.7991,N,12217.8605,W,1,06,2.6,2.9,M,-25.1,M,,0000*69
$GPGSA,A,3,26,28,08,24,11,15,,,,,,,3.4,2.6,2.2*35
$GPRMC,174126.000,A,3748.7991,N,12217.8605,W,0.52,115.16,130911,,,A*77
$GPVTG,115.16,T,,M,0.52,N,1.0,K,A*09
$GPGGA,174127.000,3748.7987,N,12217.8611,W,1,06,2.6,3.2,M,-25.1,M,,0000*60
$GPGSA,A,3,26,28,08,24,11,15,,,,,,,3.4,2.6,2.2*35
$GPGSV,3,1,10,28,68,001,27,26,54,274,23,08,53,096,27,17,51,186,11*76
$GPGSV,3,2,10,07,28,114,25,15,25,310,26,11,20,065,28,24,15,077,23*7A
$GPGSV,3,3,10,27,08,308,17,01,01,162,*7D
$GPRMC,174127.000,A,3748.7987,N,12217.8611,W,0.41,151.09,130911,,,A*78
$GPVTG,151.09,T,,M,0.41,N,0.8,K,A*0C
$GPGGA,174128.000,3748.7988,N,12217.8613,W,1,06,2.6,3.8,M,-25.1,M,,0000*68
$GPGSA,A,3,26,28,08,24,11,15,,,,,,,3.4,2.6,2.2*35
$GPRMC,174128.000,A,3748.7988,N,12217.8613,W,0.34,199.92,130911,,,A*7E
$GPVTG,199.92,T,,M,0.34,N,0.6,K,A*06
$GPGGA,174129.000,3748.7990,N,12217.8614,W,1,06,2.6,4.4,M,-25.1,M,,0000*6C
$GPGSA,A,3,26,28,08,24,11,15,,,,,,,3.4,2.6,2.2*35
$GPRMC,174129.000,A,3748.7990,N,12217.8614,W,0.11,143.37,130911,,,A*7E
$GPVTG,143.37,T,,M,0.11,N,0.2,K,A*0D
$GPGGA,174130.000,3748.8008,N,12217.8606,W,1,07,1.4,5.6,M,-25.1,M,,0000*63
$GPGSA,A,3,17,26,28,08,24,11,15,,,,,,2.4,1.4,1.9*3B
$GPRMC,174130.000,A,3748.8008,N,12217.8606,W,1.23,24.09,130911,,,A*4F
$GPVTG,24.09,T,,M,1.23,N,2.3,K,A*33
$GPGGA,174131.000,3748.8007,N,12217.8600,W,1,07,1.4,5.8,M,-25.1,M,,0000*65
$GPGSA,A,3,17,26,28,08,24,11,15,,,,,,2.4,1.4,1.9*3B
$GPRMC,174131.000,A,3748.8007,N,12217.8600,W,0.72,55.80,130911,,,A*45
$GPVTG,55.80,T,,M,0.72,N,1.3,K,A*32
$GPGGA,174132.000,3748.8003,N,12217.8598,W,1,07,1.4,6.9,M,-25.1,M,,0000*62
$GPGSA,A,3,17,26,28,08,24,11,15,,,,,,2.4,1.4,1.9*3B
$GPGSV,3,1,11,28,68,001,18,26,54,274,23,08,53,096,33,17,51,186,32*7F
$GPGSV,3,2,11,07,28,114,26,15,25,310,18,11,20,065,25,24,15,077,24*7F
$GPGSV,3,3,11,27,08,308,20,01,01,162,,48,44,197,31*49
$GPRMC,174132.000,A,3748.8003,N,12217.8598,W,1.15,104.36,130911,,,A*78
$GPGGA,174133.000,3748.7995,N,12217.8594,W,1,07,1.4,8.4,M,-25.1,M,,0000*65
$GPGSA,A,3,17,26,28,08,24,11,15,,,,,,2.4,1.4,1.9*3B
$GPRMC,174133.000,A,3748.7995,N,12217.8594,W,1.04,100.84,130911,,,A*71
$GPVTG,100.84,T,,M,1.04,N,1.9,K,A*0D
$GPGGA,174134.000,3748.7992,N,12217.8590,W,1,07,1.4,9.7,M,-25.1,M,,0000*63
$GPGSA,A,3,17,26,28,08,24,11,15,,,,,,2.4,1.4,1.9*3B
$GPRMC,174134.000,A,3748.7992,N,12217.8590,W,1.06,104.54,130911,,,A*7E
$GPVTG,104.54,T,,M,1.06,N,2.0,K,A*0C
$GPGGA,174135.000,3748.7985,N,12217.8583,W,1,07,1.4,9.5,M,-25.1,M,,0000*64
$GPGSA,A,3,17,26,28,08,24,11,15,,,,,,2.4,1.4,1.9*3B
$GPRMC,174135.000,A,3748.7985,N,12217.8583,W,1.69,104.85,130911,,,A*7E
$GPVTG,104.85,T,,M,1.69,N,3.1,K,A*09
$GPGGA,174136.000,3748.7982,N,12217.8578,W,1,06,1.4,9.6,M,-25.1,M,,0000*66
$GPGSA,A,3,17,26,28,08,11,15,,,,,,,2.6,1.4,2.2*37
$GPRMC,174136.000,A,3748.7982,N,12217.8578,W,1.95,137.00,130911,,,A*70
$GPVTG,137.00,T,,M,1.95,N,3.6,K,A*00
$GPGGA,174137.000,3748.7978,N,12217.8571,W,1,06,1.4,9.5,M,-25.1,M,,0000*68
$GPGSA,A,3,17,26,28,08,11,15,,,,,,,2.6,1.4,2.2*37
$GPGSV,3,1,11,28,68,001,18,26,54,274,28,08,53,096,29,17,51,186,28*74
$GPGSV,3,2,11,07,28,114,17,15,25,310,20,11,20,065,24,24,15,077,11*71
$GPGSV,3,3,11,27,08,308,21,01,01,162,,48,44,197,29*41
$GPRMC,174137.000,A,3748.7978,N,12217.8571,W,2.57,128.43,130911,,,A*79
$GPVTG,128.43,T,,M,2.57,N,4.8,K,A*0D
$GPGGA,174138.000,3748.7970,N,12217.8559,W,1,06,1.4,9.4,M,-25.1,M,,0000*64
$GPGSA,A,3,17,26,28,08,11,15,,,,,,,2.6,1.4,2.2*37
$GPRMC,174138.000,A,3748.7970,N,12217.8559,W,2.93,119.26,130911,,,A*7D
$GPVTG,119.26,T,,M,2.93,N,5.4,K,A*09
$GPGGA,174139.000,3748.7967,N,12217.8555,W,1,06,1.4,9.8,M,-25.1,M,,0000*63
$GPGSA,A,3,17,26,28,08,11,15,,,,,,,2.6,1.4,2.2*37
$GPRMC,174139.000,A,3748.7967,N,12217.8555,W,2.60,97.91,130911,,,A*41
$GPVTG,97.91,T,,M,2.60,N,4.8,K,A*33
$GPGGA,174140.000,3748.7968,N,12217.8547,W,1,07,1.4,10.5,M,-25.1,M,,0000*55
$GPGSA,A,3,17,26,28,08,24,11,15,,,,,,2.4,1.4,1.9*3B
$GPRMC,174140.000,A,3748.7968,N,12217.8547,W,2.05,95.85,130911,,,A*47
$GPVTG,95.85,T,,M,2.05,N,3.8,K,A*30
$GPGGA,174141.000,3748.7966,N,12217.8543,W,1,07,1.4,11.5,M,-25.1,M,,0000*5F
$GPGSA,A,3,17,26,28,08,24,11,15,,,,,,2.4,1.4,1.9*3B
$GPRMC,174141.000,A,3748.7966,N,12217.8543,W,1.81,108.77,130911,,,A*7B
$GPVTG,108.77,T,,M,1.81,N,3.3,K,A*0C
$GPGGA,174142.000,3748.7961,N,12217.8540,W,1,07,1.4,12.9,M,-25.1,M,,0000*57
$GPGSA,A,3,17,26,28,08,24,11,15,,,,,,2.4,1.4,1.9*3B
$GPGSV,3,1,11,28,68,001,18,26,54,274,26,08,53,096,27,17,51,186,31*7C
$GPGSV,3,2,11,07,28,114,28,15,25,310,20,11,20,065,22,24,15,077,14*7E
$GPGSV,3,3,11,27,08,308,21,01,01,162,,48,44,197,31*48
$GPRMC,174142.000,A,3748.7961,N,12217.8540,W,1.24,122.52,130911,,,A*7C
$GPVTG,122.52,T,,M,1.24,N,2.3,K,A*0D
$GPGGA,174143.000,3748.7955,N,12217.8533,W,1,07,1.4,13.0,M,-25.1,M,,0000*5D
$GPGSA,A,3,17,26,28,08,24,11,15,,,,,,2.4,1.4,1.9*3B
$GPRMC,174143.000,A,3748.7955,N,12217.8533,W,1.79,106.29,130911,,,A*7C
$GPVTG,106.29,T,,M,1.79,N,3.3,K,A*0E
$GPGGA,174144.000,3748.7952,N,12217.8531,W,1,07,1.4,13.9,M,-25.1,M,,0000*56
$GPGSA,A,3,17,26,28,08,24,11,15,,,,,,2.4,1.4,1.9*3B
$GPRMC,174144.000,A,3748.7952,N,12217.8531,W,1.61,112.90,130911,,,A*70
$GPVTG,112.90,T,,M,1.61,N,3.0,K,A*03
$GPGGA,174145.000,3748.7947,N,12217.8529,W,1,07,1.4,15.5,M,-25.1,M,,0000*50
$GPGSA,A,3,17,26,28,08,24,11,15,,,,,,2.4,1.4,1.9*3B
$GPRMC,174145.000,A,3748.7947,N,12217.8529,W,1.52,139.66,130911,,,A*7C
$GPVTG,139.66,T,,M,1.52,N,2.8,K,A*0A
$GPGGA,174146.000,3748.7943,N,12217.8524,W,1,07,1.4,15.1,M,-25.1,M,,0000*5E
$GPGSA,A,3,17,26,28,08,24,11,15,,,,,,2.4,1.4,1.9*3B
$GPRMC,174146.000,A,3748.7943,N,12217.8524,W,2.28,127.77,130911,,,A*77
$GPVTG,127.77,T,,M,2.28,N,4.2,K,A*07
$GPGGA,174147.000,3748.7939,N,12217.8518,W,1,07,1.4,14.9,M,-25.1,M,,0000*54
$GPGSA,A,3,17,26,28,08,24,11,15,,,,,,2.4,1.4,1.9*3B
$GPGSV,3,1,11,28,68,001,18,26,54,274,30,08,53,096,27,17,51,186,32*78
$GPGSV,3,2,11,07,28,114,23,15,25,310,24,11,20,065,22,24,15,077,16*73
$GPGSV,3,3,11,27,08,308,21,01,01,162,,48,44,197,36*4F
$GPRMC,174147.000,A,3748.7939,N,12217.8518,W,1.95,118.36,130911,,,A*78
$GPGGA,174148.000,3748.7934,N,12217.8515,W,1,07,1.4,14.3,M,-25.1,M,,0000*51
$GPGSA,A,3,17,26,28,08,24,11,15,,,,,,2.4,1.4,1.9*3B
$GPRMC,174148.000,A,3748.7934,N,12217.8515,W,1.77,116.91,130911,,,A*78
$GPVTG,116.91,T,,M,1.77,N,3.3,K,A*02
$GPGGA,174149.000,3748.7930,N,12217.8513,W,1,07,1.4,13.6,M,-25.1,M,,0000*50
$GPGSA,A,3,17,26,28,08,24,11,15,,,,,,2.4,1.4,1.9*3B
$GPRMC,174149.000,A,3748.7930,N,12217.8513,W,1.40,129.84,130911,,,A*77
$GPVTG,129.84,T,,M,1.40,N,2.6,K,A*0A
$GPGGA,174150.000,3748.7925,N,12217.8505,W,1,07,1.4,14.1,M,-25.1,M,,0000*5B
$GPGSA,A,3,17,26,28,08,24,11,15,,,,,,2.4,1.4,1.9*3B
$GPRMC,174150.000,A,3748.7925,N,12217.8505,W,1.49,138.10,130911,,,A*78
$GPVTG,138.10,T,,M,1.49,N,2.8,K,A*00
$GPGGA,174151.000,3748.7920,N,12217.8500,W,1,07,1.4,14.6,M,-25.1,M,,0000*5D
$GPGSA,A,3,17,26,28,08,24,11,15,,,,,,2.4,1.4,1.9*3B
$GPRMC,174151.000,A,3748.7920,N,12217.8500,W,2.13,142.19,130911,,,A*71
$GPVTG,142.19,T,,M,2.13,N,3.9,K,A*08
$GPGGA,174152.000,3748.7920,N,12217.8492,W,1,07,1.4,15.3,M,-25.1,M,,0000*50
$GPGSA,A,3,17,26,28,08,24,11,15,,,,,,2.4,1.4,1.9*3B
$GPGSV,3,1,11,28,68,001,23,26,54,274,31,08,53,096,27,17,51,186,35*76
$GPGSV,3,2,11,07,28,114,23,15,25,310,24,11,20,065,22,24,15,077,22*74
$GPGSV,3,3,11,27,08,308,22,01,01,162,,51,43,156,37*4F
$GPRMC,174152.000,A,3748.7920,N,12217.8492,W,1.65,116.10,130911,,,A*72
$GPVTG,116.10,T,,M,1.65,N,3.1,K,A*0A
$GPGGA,174153.000,3748.7918,N,12217.8483,W,1,07,1.4,16.0,M,-25.1,M,,0000*5A
$GPGSA,A,3,17,26,28,08,24,11,15,,,,,,2.4,1.4,1.9*3B
$GPRMC,174153.000,A,3748.7918,N,12217.8483,W,1.71,111.27,130911,,,A*7E
$GPVTG,111.27,T,,M,1.71,N,3.2,K,A*0F
$GPGGA,174154.000,3748.7915,N,12217.8479,W,1,07,1.4,15.6,M,-25.1,M,,0000*50
$GPGSA,A,3,17,26,28,08,24,11,15,,,,,,2.4,1.4,1.9*3B
$GPRMC,174154.000,A,3748.7915,N,12217.8479,W,2.00,120.34,130911,,,A*74
$GPVTG,120.34,T,,M,2.00,N,3.7,K,A*0F
$GPGGA,174155.000,3748.7915,N,12217.8477,W,1,07,1.4,15.5,M,-25.1,M,,0000*5C
$GPGSA,A,3,17,26,28,08,24,11,15,,,,,,2.4,1.4,1.9*3B
$GPRMC,174155.000,A,3748.7915,N,12217.8477,W,1.80,145.86,130911,,,A*7A
$GPVTG,145.86,T,,M,1.80,N,3.3,K,A*0A
$GPGGA,174156.000,3748.7910,N,12217.8475,W,1,07,1.4,15.3,M,-25.1,M,,0000*5E
$GPGSA,A,3,17,26,28,08,24,11,15,,,,,,2.4,1.4,1.9*3B
$GPRMC,174156.000,A,3748.7910,N,12217.8475,W,1.13,101.50,130911,,,A*7F
$GPVTG,101.50,T,,M,1.13,N,2.1,K,A*08
$GPGGA,174157.000,3748.7908,N,12217.8462,W,1,07,1.4,16.8,M,-25.1,M,,0000*58
$GPGSA,A,3,17,26,28,08,24,11,15,,,,,,2.4,1.4,1.9*3B
$GPGSV,3,1,11,28,68,001,22,26,54,274,25,08,53,096,25,17,51,186,30*75
$GPGSV,3,2,11,07,28,114,24,15,25,310,24,11,20,065,22,24,15,077,23*72
$GPGSV,3,3,11,27,08,308,21,01,01,162,,51,43,156,27*4D
$GPRMC,174157.000,A,3748.7908,N,12217.8462,W,1.40,89.73,130911,,,A*47
$GPVTG,89.73,T,,M,1.40,N,2.6,K,A*39
$GPGGA,174158.000,3748.7905,N,12217.8453,W,1,07,1.4,17.5,M,-25.1,M,,0000*54
$GPGSA,A,3,17,26,28,08,24,11,15,,,,,,2.4,1.4,1.9*3B
$GPRMC,174158.000,A,3748.7905,N,12217.8453,W,1.49,114.53,130911,,,A*79
$GPVTG,114.53,T,,M,1.49,N,2.8,K,A*09
$GPGGA,174159.000,3748.7903,N,12217.8443,W,1,07,1.4,16.6,M,-25.1,M,,0000*50
$GPGSA,A,3,17,26,28,08,24,11,15,,,,,,2.4,1.4,1.9*3B
$GPRMC,174159.000,A,3748.7903,N,12217.8443,W,1.97,103.87,130911,,,A*73
$GPVTG,103.87,T,,M,1.97,N,3.6,K,A*0A
$GPGGA,174200.000,3748.7903,N,12217.8438,W,1,07,1.4,16.3,M,-25.1,M,,0000*56
$GPGSA,A,3,17,26,28,08,24,11,15,,,,,,2.4,1.4,1.9*3B
$GPRMC,174200.000,A,3748.7903,N,12217.8438,W,1.86,113.02,130911,,,A*7C
$GPVTG,113.02,T,,M,1.86,N,3.4,K,A*04
$GPGGA,174201.000,3748.7902,N,12217.8434,W,1,07,1.4,16.3,M,-25.1,M,,0000*5A
$GPGSA,A,3,17,26,28,08,24,11,15,,,,,,2.4,1.4,1.9*3B
$GPRMC,174201.000,A,3748.7902,N,12217.8434,W,1.96,126.90,130911,,,A*7C
$GPVTG,126.90,T,,M,1.96,N,3.6,K,A*0A
$GPGGA,174202.000,3748.7899,N,12217.8429,W,1,07,1.4,16.6,M,-25.1,M,,0000*53
$GPGSA,A,3,17,26,28,08,24,11,15,,,,,,2.4,1.4,1.9*3B
$GPGSV,3,1,11,28,68,001,22,26,54,274,30,08,53,096,30,17,51,186,36*73
$GPGSV,3,2,11,07,28,114,24,15,25,310,24,11,20,065,23,24,15,077,23*73
$GPGSV,3,3,11,27,08,308,21,01,01,162,,51,43,156,29*43
$GPVTG,131.62,T,,M,1.50,N,2.8,K,A*04
$GPGGA,174203.000,3748.7896,N,12217.8426,W,1,07,1.4,15.9,M,-25.1,M,,0000*5E
$GPGSA,A,3,17,26,28,08,24,11,15,,,,,,2.4,1.4,1.9*3B
$GPRMC,174203.000,A,3748.7896,N,12217.8426,W,1.25,143.91,130911,,,A*7B
$GPVTG,143.91,T,,M,1.25,N,2.3,K,A*04
$GPGGA,174204.000,3748.7892,N,12217.8419,W,1,07,1.4,15.6,M,-25.1,M,,0000*5E
$GPGSA,A,3,17,26,28,08,24,11,15,,,,,,2.4,1.4,1.9*3B
$GPRMC,174204.000,A,3748.7892,N,12217.8419,W,1.85,124.94,130911,,,A*7A
$GPVTG,124.94,T,,M,1.85,N,3.4,K,A*0C
$GPGGA,174205.000,3748.7888,N,12217.8411,W,1,07,1.4,15.6,M,-25.1,M,,0000*5C
$GPGSA,A,3,17,26,28,08,24,11,15,,,,,,2.4,1.4,1.9*3B
$GPRMC,174205.000,A,3748.7888,N,12217.8411,W,1.65,141.07,130911,,,A*7F
$GPVTG,141.07,T,,M,1.65,N,3.1,K,A*0E
$GPGGA,174206.000,3748.7885,N,12217.8404,W,1,07,1.4,15.3,M,-25.1,M,,0000*53
$GPGSA,A,3,17,26,28,08,24,11,15,,,,,,2.4,1.4,1.9*3B
$GPRMC,174206.000,A,3748.7885,N,12217.8404,W,1.68,118.48,130911,,,A*7F
$GPVTG,118.48,T,,M,1.68,N,3.1,K,A*04
$GPGGA,174207.000,3748.7881,N,12217.8395,W,1,07,1.4,14.7,M,-25.1,M,,0000*5C
$GPGSA,A,3,17,26,28,08,24,11,15,,,,,,2.4,1.4,1.9*3B
$GPGSV,3,1,11,28,68,001,22,26,54,274,29,08,53,096,27,17,51,186,30*7B
$GPGSV,3,2,11,07,28,114,25,15,25,310,24,11,20,065,26,24,15,077,19*7E
$GPGSV,3,3,11,27,08,308,21,01,01,162,,51,43,156,33*48
$GPRMC,174207.000,A,3748.7881,N,12217.8395,W,2.19,118.77,130911,,,A*7C
$GPVTG,118.77,T,,M,2.19,N,4.1,K,A*0A
$GPGGA,174208.000,3748.7876,N,12217.8386,W,1,07,1.4,13.9,M,-25.1,M,,0000*50
$GPGSA,A,3,17,26,28,08,24,11,15,,,,,,2.4,1.4,1.9*3B
$GPRMC,174208.000,A,3748.7876,N,12217.8386,W,2.14,118.77,130911,,,A*74
$GPVTG,118.77,T,,M,2.14,N,4.0,K,A*06
$GPGGA,174209.000,3748.7874,N,12217.8378,W,1,07,1.4,14.1,M,-25.1,M,,0000*5D
$GPGSA,A,3,17,26,28,08,24,11,15,,,,,,2.4,1.4,1.9*3B
$GPRMC,174209.000,A,3748.7874,N,12217.8378,W,1.60,110.95,130911,,,A*72
$GPVTG,110.95,T,,M,1.60,N,3.0,K,A*05
$GPGGA,174210.000,3748.7870,N,12217.8369,W,1,07,1.4,13.8,M,-25.1,M,,0000*5F
$GPGSA,A,3,17,26,28,08,24,11,15,,,,,,2.4,1.4,1.9*3B
$GPRMC,174210.000,A,3748.7870,N,12217.8369,W,2.11,115.17,130911,,,A*74
$GPVTG,115.17,T,,M,2.11,N,3.9,K,A*06
$GPGGA,174211.000,3748.7867,N,12217.8361,W,2,07,1.4,13.7,M,-25.1,M,1.8,0000*7B
$GPGSA,A,3,17,26,28,08,24,11,15,,,,,,2.4,1.4,1.9*3B
$GPRMC,174211.000,A,3748.7867,N,12217.8361,W,2.10,121.58,130911,,,D*73
$GPVTG,121.58,T,,M,2.10,N,3.9,K,D*0E
$GPGGA,174212.000,3748.7863,N,12217.8354,W,2,07,1.4,14.4,M,-25.1,M,1.8,0000*7E
$GPGSA,A,3,17,26,28,08,24,11,15,,,,,,2.4,1.4,1.9*3B
$GPGSV,3,1,11,28,68,001,22,26,54,274,29,08,53,096,28,17,51,186,33*77
$GPGSV,3,2,11,07,28,114,25,15,25,310,24,11,20,065,19,24,15,077,19*72
$GPGSV,3,3,11,27,08,308,21,01,01,162,,51,43,156,33*48
$GPRMC,174212.000,A,3748.7863,N,12217.8354,W,1.58,126.29,130911,,,D*7C
$GPVTG,126.29,T,,M,1.58,N,2.9,K,D*01
$GPGGA,174213.000,3748.7860,N,12217.8347,W,2,07,1.4,14.5,M,-25.1,M,1.8,0000*7F
$GPGSA,A,3,17,26,28,08,24,11,15,,,,,,2.4,1.4,1.9*3B
$GPRMC,174213.000,A,3748.7860,N,12217.8347,W,1.62,114.46,130911,,,D*7D
$GPVTG,114.46,T,,M,1.62,N,3.0,K,D*08
$GPGGA,174214.000,3748.7857,N,12217.8338,W,2,07,1.4,15.1,M,-25.1,M,2.8,0000*72
$GPGSA,A,3,17,26,28,08,24,11,15,,,,,,2.4,1.4,1.9*3B
$GPRMC,174214.000,A,3748.7857,N,12217.8338,W,1.93,109.74,130911,,,D*75
$GPVTG,109.74,T,,M,1.93,N,3.6,K,D*0D
$GPGGA,174215.000,3748.7854,N,12217.8332,W,2,07,1.4,14.9,M,-25.1,M,3.8,0000*72
$GPGSA,A,3,17,26,28,08,24,11,15,,,,,,2.4,1.4,1.9*3B
$GPRMC,174215.000,A,3748.7854,N,12217.8332,W,2.27,114.51,130911,,,D*7A
$GPVTG,114.51,T,,M,2.27,N,4.2,K,D*09
$GPGGA,174216.000,3748.7852,N,12217.8325,W,2,07,1.4,14.6,M,-25.1,M,4.8,0000*79
$GPGSA,A,3,17,26,28,08,24,11,15,,,,,,2.4,1.4,1.9*3B
$GPRMC,174216.000,A,3748.7852,N,12217.8325,W,1.21,93.03,130911,,,D*45
$GPVTG,93.03,T,,M,1.21,N,2.2,K,D*33
$GPGGA,174217.000,3748.7846,N,12217.8323,W,2,07,1.4,15.3,M,-25.1,M,5.8,0000*7E
