$ADVER,3080,2.3
$GPRMC,173852.356,A,3748.7987,N,12217.8527,W,0.11,76.77,130911,,,A*4A
$GPRMC,173853.356,A,3748.7986,N,12217.8527,W,0.11,58.57,130911,,,A*44
$GPRMC,173854.356,A,3748.7986,N,12217.8527,W,0.10,89.71,130911,,,A*4A
$GPRMC,173855.356,A,3748.7986,N,12217.8528,W,0.05,37.73,130911,,,A*47
$GPRMC,173856.356,A,3748.7985,N,12217.8527,W,0.12,78.58,130911,,,A*4C
$GPRMC,173857.356,A,3748.7985,N,12217.8528,W,0.08,307.82,130911,,,A*75
$GPRMC,173858.356,A,3748.7986,N,12217.8527,W,0.08,69.14,130911,,,A*42
$GPRMC,173859.356,A,3748.7986,N,12217.8527,W,0.19,75.80,130911,,,A*43
$GPRMC,173900.356,A,3748.7985,N,12217.8528,W,0.01,206.30,130911,,,A*76
$GPRMC,173901.356,A,3748.7977,N,12217.8537,W,0.11,87.96,130911,,,A*42
$GPRMC,173902.356,A,3748.7972,N,12217.8543,W,0.12,73.02,130911,,,A*42
$GPRMC,173903.356,A,3748.7973,N,12217.8544,W,0.12,57.41,130911,,,A*44
$GPRMC,173904.356,A,3748.8011,N,12217.8634,W,0.13,85.84,130911,,,A*42
$GPRMC,173905.356,A,3748.8008,N,12217.8642,W,0.10,66.96,130911,,,A*47
$GPRMC,173906.356,A,3748.8010,N,12217.8642,W,0.14,107.31,130911,,,A*72
$GPRMC,173907.000,A,3748.8007,N,12217.8637,W,0.09,37.03,130911,,,A*48
$GPRMC,173908.000,A,3748.8005,N,12217.8633,W,0.10,68.68,130911,,,A*4E
$GPRMC,173909.000,A,3748.8006,N,12217.8632,W,0.10,59.86,130911,,,A*4F
$GPRMC,173910.000,A,3748.8005,N,12217.8629,W,0.11,68.01,130911,,,A*42
$GPRMC,173911.000,A,3748.8005,N,12217.8628,W,0.09,67.55,130911,,,A*45
$GPRMC,173912.000,A,3748.8006,N,12217.8626,W,0.09,53.72,130911,,,A*49
$GPRMC,173913.000,A,3748.8006,N,12217.8625,W,0.13,65.04,130911,,,A*44
$GPRMC,173914.000,A,3748.8005,N,12217.8625,W,0.03,96.88,130911,,,A*49
$GPRMC,173915.000,A,3748.8005,N,12217.8625,W,0.11,72.30,130911,,,A*42
$GPRMC,173916.000,A,3748.8005,N,12217.8624,W,0.10,56.71,130911,,,A*42
$GPRMC,173917.000,A,3748.8004,N,12217.8624,W,0.07,104.32,130911,,,A*75
$GPRMC,173918.000,A,3748.8003,N,12217.8624,W,0.08,88.85,130911,,,A*4B
$GPRMC,173919.000,A,3748.8003,N,12217.8623,W,0.08,79.90,130911,,,A*47
$GPRMC,173920.000,A,3748.8003,N,12217.8623,W,0.11,87.86,130911,,,A*43
$GPRMC,173921.000,A,3748.8002,N,12217.8623,W,0.09,91.83,130911,,,A*48
$GPRMC,173922.000,A,3748.8002,N,12217.8622,W,0.12,84.47,130911,,,A*4C
$GPRMC,173923.000,A,3748.8002,N,12217.8622,W,0.10,75.24,130911,,,A*44
$GPRMC,173924.000,A,3748.8002,N,12217.8622,W,0.09,90.29,130911,,,A*4D
$GPRMC,173925.000,A,3748.8002,N,12217.8621,W,0.12,102.00,130911,,,A*74
$GPRMC,173926.000,A,3748.8001,N,12217.8621,W,0.10,93.71,130911,,,A*49
$GPRMC,173927.000,A,3748.8001,N,12217.8621,W,0.07,111.29,130911,,,A*78
$GPRMC,173928.000,A,3748.7998,N,12217.8617,W,0.10,96.17,130911,,,A*41
$GPRMC,173929.000,A,3748.7997,N,12217.8615,W,0.09,118.17,130911,,,A*72
$GPRMC,173930.000,A,3748.7997,N,12217.8613,W,0.08,137.09,130911,,,A*7F
$GPRMC,173931.000,A,3748.7997,N,12217.8612,W,0.06,81.61,130911,,,A*43
$GPRMC,173932.000,A,3748.7997,N,12217.8611,W,0.08,114.20,130911,,,A*75
$GPRMC,173933.000,A,3748.7996,N,12217.8611,W,0.08,124.71,130911,,,A*72
$GPRMC,173934.000,A,3748.7996,N,12217.8608,W,0.07,77.73,130911,,,A*47
$GPRMC,173935.000,A,3748.7995,N,12217.8609,W,0.10,132.32,130911,,,D*72
$GPRMC,173936.000,A,3748.7993,N,12217.8608,W,0.13,225.13,130911,,,D*73
$GPRMC,173937.000,A,3748.7992,N,12217.8609,W,0.11,172.94,130911,,,D*7E
$GPRMC,173938.000,A,3748.7991,N,12217.8610,W,0.09,202.90,130911,,,D*73
$GPRMC,173939.000,A,3748.7991,N,12217.8612,W,0.06,120.93,130911,,,D*7F
$GPRMC,173940.000,A,3748.7991,N,12217.8613,W,0.03,196.97,130911,,,D*7C
$GPRMC,173941.000,A,3748.7991,N,12217.8614,W,0.01,283.71,130911,,,D*77
$GPRMC,173942.000,A,3748.7991,N,12217.8615,W,0.06,71.27,130911,,,D*4E
$GPRMC,173943.000,A,3748.7991,N,12217.8615,W,0.05,27.36,130911,,,D*4F
$GPRMC,173944.000,A,3748.7990,N,12217.8616,W,0.03,81.01,130911,,,D*44
$GPRMC,173945.000,A,3748.7990,N,12217.8616,W,0.03,110.85,130911,,,D*70
$GPRMC,173946.000,A,3748.7990,N,12217.8616,W,0.04,9.65,130911,,,D*73
$GPRMC,173947.000,A,3748.7989,N,12217.8617,W,0.04,3.05,130911,,,D*77
$GPRMC,173948.000,A,3748.7990,N,12217.8617,W,0.04,44.83,130911,,,D*4D
$GPRMC,173949.000,A,3748.7990,N,12217.8617,W,0.03,7.64,130911,,,D*75
$GPRMC,173950.000,A,3748.7990,N,12217.8616,W,0.05,40.69,130911,,,D*44
$GPRMC,173951.000,A,3748.7990,N,12217.8616,W,0.04,80.32,130911,,,D*46
$GPRMC,173952.000,A,3748.7990,N,12217.8616,W,0.04,22.47,130911,,,D*4F
$GPRMC,173953.000,A,3748.7991,N,12217.8616,W,0.09,43.17,130911,,,D*40
$GPRMC,173954.000,A,3748.7991,N,12217.8615,W,0.08,42.09,130911,,,D*4B
$GPRMC,173955.000,A,3748.7991,N,12217.8615,W,0.07,48.61,130911,,,D*41
$GPRMC,173956.000,A,3748.7991,N,12217.8615,W,0.19,321.24,130911,,,D*70
$GPRMC,173957.000,A,3748.7989,N,12217.8616,W,0.07,303.49,130911,,,D*7F
$GPRMC,173958.000,A,3748.7988,N,12217.8616,W,0.08,316.40,130911,,,D*73
$GPRMC,173959.000,A,3748.7988,N,12217.8615,W,0.05,188.63,130911,,,D*78
$GPRMC,174000.000,A,3748.7987,N,12217.8616,W,0.09,147.22,130911,,,D*7C
$GPRMC,174001.000,A,3748.7987,N,12217.8615,W,0.18,144.88,130911,,,D*7D
$GPRMC,174002.000,A,3748.7986,N,12217.8615,W,0.17,143.69,130911,,,D*78
$GPRMC,174003.000,A,3748.7985,N,12217.8614,W,0.14,136.87,130911,,,D*7A
$GPRMC,174004.000,A,3748.7985,N,12217.8614,W,0.14,145.86,130911,,,D*78
$GPRMC,174005.000,A,3748.7985,N,12217.8613,W,0.09,120.78,130911,,,D*70
$GPRMC,174006.000,A,3748.7985,N,12217.8613,W,0.08,167.16,130911,,,D*79
$GPRMC,174007.000,A,3748.7985,N,12217.8614,W,0.04,68.37,130911,,,D*4E
$GPRMC,174008.000,A,3748.7985,N,12217.8614,W,0.02,184.41,130911,,,D*75
$GPRMC,174009.000,A,3748.7985,N,12217.8614,W,0.29,28.69,130911,,,D*40
$GPRMC,174010.000,A,3748.7990,N,12217.8614,W,1.71,346.65,130911,,,D*77
$GPRMC,174011.000,A,3748.7995,N,12217.8615,W,1.94,348.08,130911,,,D*7C
$GPRMC,174012.000,A,3748.8000,N,12217.8613,W,1.41,31.19,130911,,,D*46
$GPRMC,174013.000,A,3748.7999,N,12217.8613,W,0.76,63.36,130911,,,D*4E
$GPRMC,174014.000,A,3748.7998,N,12217.8612,W,0.31,33.42,130911,,,D*4C
$GPRMC,174015.000,A,3748.7999,N,12217.8614,W,0.42,335.84,130911,,,D*71
$GPRMC,174016.000,A,3748.7998,N,12217.8612,W,0.68,189.65,130911,,,D*77
$GPRMC,174017.000,A,3748.7997,N,12217.8610,W,1.13,97.88,130911,,,D*4B
$GPRMC,174018.000,A,3748.7996,N,12217.8603,W,1.08,93.01,130911,,,D*48
$GPRMC,174019.000,A,3748.7995,N,12217.8601,W,1.06,95.04,130911,,,D*45
$GPRMC,174020.000,A,3748.7993,N,12217.8606,W,0.44,260.02,130911,,,D*77
$GPRMC,174021.000,A,3748.7988,N,12217.8611,W,0.15,350.86,130911,,,D*70
$GPRMC,174022.000,A,3748.7996,N,12217.8614,W,1.40,320.37,130911,,,D*75
$GPRMC,174023.000,A,3748.7994,N,12217.8614,W,0.53,73.19,130911,,,A*49
$GPRMC,174024.000,A,3748.7993,N,12217.8621,W,1.31,240.61,130911,,,A*77
$GPRMC,174025.000,A,3748.7990,N,12217.8632,W,1.66,222.22,130911,,,A*76
$GPRMC,174026.000,A,3748.7977,N,12217.8639,W,3.15,200.70,130911,,,A*76
$GPRMC,174027.000,A,3748.7972,N,12217.8642,W,0.85,198.06,130911,,,A*77
$GPRMC,174028.000,A,3748.7970,N,12217.8642,W,0.25,198.09,130911,,,A*7F
$GPRMC,174029.000,A,3748.7971,N,12217.8643,W,0.08,155.85,130911,,,A*74
$GPRMC,174030.000,A,3748.7971,N,12217.8642,W,0.32,53.06,130911,,,A*48
$GPRMC,174031.000,A,3748.7976,N,12217.8637,W,0.48,22.42,130911,,,A*47
$GPRMC,174032.000,A,3748.7983,N,12217.8634,W,1.00,305.73,130911,,,A*74
$GPRMC,174033.000,A,3748.7987,N,12217.8626,W,1.31,54.45,130911,,,A*42
$GPRMC,174034.000,A,3748.7988,N,12217.8624,W,0.69,46.82,130911,,,A*4C
$GPRMC,174035.000,A,3748.7994,N,12217.8624,W,0.93,22.04,130911,,,A*49
$GPRMC,174036.000,A,3748.7995,N,12217.8620,W,0.24,339.81,130911,,,A*77
$GPRMC,174037.000,A,3748.8006,N,12217.8622,W,1.03,329.78,130911,,,A*7B
$GPRMC,174038.000,A,3748.8012,N,12217.8621,W,1.35,21.54,130911,,,A*42
$GPRMC,174039.000,A,3748.8017,N,12217.8618,W,1.59,35.40,130911,,,A*46
$GPRMC,174040.000,A,3748.8023,N,12217.8612,W,2.11,48.28,130911,,,A*4E
$GPRMC,174041.000,A,3748.8029,N,12217.8614,W,2.47,36.69,130911,,,A*4C
$GPRMC,174042.000,A,3748.8034,N,12217.8615,W,2.48,49.40,130911,,,A*4E
$GPRMC,174043.000,A,3748.8038,N,12217.8619,W,1.90,30.67,130911,,,A*42
$GPRMC,174044.000,A,3748.8045,N,12217.8612,W,0.93,34.70,130911,,,A*44
$GPRMC,174045.000,A,3748.8049,N,12217.8611,W,0.25,38.63,130911,,,A*49
$GPRMC,174046.000,A,3748.8050,N,12217.8612,W,0.40,188.49,130911,,,A*70
$GPRMC,174047.000,A,3748.8068,N,12217.8612,W,0.53,209.01,130911,,,A*7E
$GPRMC,174048.000,A,3748.8054,N,12217.8612,W,0.50,191.04,130911,,,A*7A
$GPRMC,174049.000,A,3748.8037,N,12217.8615,W,0.27,186.21,130911,,,A*78
$GPRMC,174050.000,A,3748.8023,N,12217.8618,W,0.33,200.43,130911,,,A*74
$GPRMC,174051.000,A,3748.8012,N,12217.8619,W,0.20,204.41,130911,,,A*72
$GPRMC,174052.000,A,3748.8010,N,12217.8620,W,0.07,8.84,130911,,,A*7B
$GPRMC,174053.000,A,3748.8002,N,12217.8620,W,0.24,26.91,130911,,,A*40
$GPRMC,174054.000,A,3748.8002,N,12217.8620,W,0.50,19.60,130911,,,A*46
$GPRMC,174055.000,A,3748.7994,N,12217.8620,W,0.10,51.41,130911,,,A*45
$GPRMC,174056.000,A,3748.7989,N,12217.8621,W,0.14,47.61,130911,,,A*4A
$GPRMC,174057.000,A,3748.7983,N,12217.8621,W,0.21,169.38,130911,,,A*76
$GPRMC,174058.000,A,3748.7980,N,12217.8621,W,0.24,168.62,130911,,,A*71
$GPRMC,174059.000,A,3748.7977,N,12217.8621,W,0.26,167.55,130911,,,A*71
$GPRMC,174100.000,A,3748.7976,N,12217.8620,W,0.22,160.26,130911,,,A*7B
$GPRMC,174101.000,A,3748.7975,N,12217.8620,W,0.21,157.18,130911,,,A*73
$GPRMC,174102.000,A,3748.7975,N,12217.8619,W,0.16,152.55,130911,,,A*72
$GPRMC,174103.000,A,3748.7976,N,12217.8618,W,0.17,151.84,130911,,,A*7F
$GPRMC,174104.000,A,3748.7976,N,12217.8618,W,0.15,147.45,130911,,,A*70
$GPRMC,174105.000,A,3748.7976,N,12217.8617,W,0.13,146.69,130911,,,A*77
$GPRMC,174106.000,A,3748.7977,N,12217.8616,W,0.13,145.32,130911,,,A*79
$GPRMC,174107.000,A,3748.7978,N,12217.8616,W,0.11,144.79,130911,,,A*7B
$GPRMC,174108.000,A,3748.7978,N,12217.8615,W,0.09,140.11,130911,,,A*74
$GPRMC,174109.000,A,3748.7979,N,12217.8615,W,0.11,145.31,130911,,,A*7A
$GPRMC,174110.000,A,3748.7980,N,12217.8614,W,0.05,104.78,130911,,,A*78
$GPRMC,174111.000,A,3748.7980,N,12217.8614,W,0.05,93.60,130911,,,A*4F
$GPRMC,174112.000,A,3748.7981,N,12217.8613,W,0.06,135.33,130911,,,A*72
$GPRMC,174113.000,A,3748.7982,N,12217.8613,W,0.06,92.15,130911,,,A*48
$GPRMC,174114.000,A,3748.7982,N,12217.8612,W,0.04,120.23,130911,,,A*71
$GPRMC,174115.000,A,3748.7983,N,12217.8612,W,0.04,48.19,130911,,,A*47
$GPRMC,174116.000,A,3748.7983,N,12217.8612,W,0.05,182.37,130911,,,A*7E
$GPRMC,174117.000,A,3748.7983,N,12217.8612,W,0.02,150.44,130911,,,D*76
$GPRMC,174118.000,A,3748.7983,N,12217.8612,W,0.02,333.94,130911,,,D*73
$GPRMC,174119.000,A,3748.7980,N,12217.8612,W,0.15,190.22,130911,,,D*71
$GPRMC,174120.000,A,3748.7978,N,12217.8613,W,0.60,197.92,130911,,,D*73
$GPRMC,174121.000,A,3748.7976,N,12217.8614,W,0.47,196.63,130911,,,D*71
$GPRMC,174122.000,A,3748.7974,N,12217.8614,W,0.11,185.00,130911,,,D*74
$GPRMC,174123.000,A,3748.7973,N,12217.8614,W,0.03,195.67,130911,,,D*71
$GPRMC,174124.000,A,3748.7973,N,12217.8614,W,0.03,131.74,130911,,,D*7A
$GPRMC,174125.000,A,3748.7972,N,12217.8614,W,0.04,42.96,130911,,,D*44
$GPRMC,174126.000,A,3748.7972,N,12217.8614,W,0.03,358.85,130911,,,D*7A
$GPRMC,174127.000,A,3748.7972,N,12217.8614,W,0.05,46.09,130911,,,D*45
$GPRMC,174128.000,A,3748.7972,N,12217.8614,W,0.04,29.94,130911,,,D*46
$GPRMC,174129.000,A,3748.7973,N,12217.8614,W,0.06,17.66,130911,,,D*44
$GPRMC,174130.000,A,3748.7976,N,12217.8615,W,1.01,351.55,130911,,,D*7F
$GPRMC,174131.000,A,3748.7975,N,12217.8616,W,0.23,207.96,130911,,,D*72
$GPRMC,174132.000,A,3748.7985,N,12217.8612,W,0.52,63.62,130911,,,D*47
$GPRMC,174133.000,A,3748.7983,N,12217.8610,W,0.19,236.02,130911,,,D*79
$GPRMC,174134.000,A,3748.7983,N,12217.8606,W,0.56,37.09,130911,,,D*4A
$GPRMC,174135.000,A,3748.7980,N,12217.8604,W,0.09,101.49,130911,,,D*70
$GPRMC,174136.000,A,3748.7979,N,12217.8600,W,0.21,316.98,130911,,,A*76
$GPRMC,174137.000,A,3748.7979,N,12217.8604,W,0.45,22.75,130911,,,A*46
$GPRMC,174138.000,A,3748.7974,N,12217.8605,W,0.55,188.34,130911,,,A*70
$GPRMC,174139.000,A,3748.7976,N,12217.8603,W,0.28,180.75,130911,,,A*72
$GPRMC,174140.000,A,3748.7978,N,12217.8603,W,0.14,226.40,130911,,,A*74
$GPRMC,174141.000,A,3748.7980,N,12217.8604,W,0.07,292.46,130911,,,A*7E
$GPRMC,174142.000,A,3748.7984,N,12217.8606,W,0.34,15.27,130911,,,A*41
$GPRMC,174143.000,A,3748.7987,N,12217.8608,W,0.11,340.41,130911,,,A*79
$GPRMC,174144.000,A,3748.7987,N,12217.8604,W,0.46,195.22,130911,,,A*7F
$GPRMC,174145.000,A,3748.7990,N,12217.8604,W,0.67,39.41,130911,,,A*49
$GPRMC,174146.000,A,3748.7987,N,12217.8597,W,0.67,110.68,130911,,,A*74
$GPRMC,174147.000,A,3748.7995,N,12217.8598,W,0.61,121.57,130911,,,A*71
$GPRMC,174148.000,A,3748.8004,N,12217.8595,W,0.89,65.37,130911,,,A*4C
$GPRMC,174149.000,A,3748.8002,N,12217.8600,W,0.44,337.20,130911,,,A*77
$GPRMC,174150.000,A,3748.7998,N,12217.8609,W,0.82,16.14,130911,,,A*4E
$GPRMC,174151.000,A,3748.8001,N,12217.8611,W,0.90,8.76,130911,,,A*78
$GPRMC,174152.000,A,3748.8005,N,12217.8608,W,0.79,26.56,130911,,,A*4E
$GPRMC,174153.000,A,3748.8006,N,12217.8597,W,0.65,22.26,130911,,,A*47
$GPRMC,174154.000,A,3748.8019,N,12217.8591,W,1.32,9.17,130911,,,A*70
$GPRMC,174155.000,A,3748.8030,N,12217.8590,W,1.11,354.35,130911,,,A*71
$GPRMC,174156.000,A,3748.8043,N,12217.8591,W,0.18,280.93,130911,,,A*7B
$GPRMC,174157.000,A,3748.8048,N,12217.8590,W,0.73,28.68,130911,,,A*49
$GPRMC,174158.000,A,3748.8045,N,12217.8596,W,0.27,341.38,130911,,,A*75
$GPRMC,174159.000,A,3748.8047,N,12217.8604,W,0.51,329.16,130911,,,A*7D
$GPRMC,174200.000,A,3748.8054,N,12217.8608,W,1.57,8.62,130911,,,A*78
$GPRMC,174201.000,A,3748.8058,N,12217.8605,W,1.41,20.61,130911,,,A*46
$GPRMC,174202.000,A,3748.8066,N,12217.8602,W,1.49,10.23,130911,,,A*42
$GPRMC,174203.000,A,3748.8074,N,12217.8605,W,1.35,357.69,130911,,,A*72
$GPRMC,174204.000,A,3748.8071,N,12217.8604,W,0.32,331.99,130911,,,A*78
$GPRMC,174205.000,A,3748.8069,N,12217.8607,W,1.07,277.75,130911,,,A*75
$GPRMC,174206.000,A,3748.8070,N,12217.8609,W,1.02,235.36,130911,,,A*74
$GPRMC,174207.000,A,3748.8055,N,12217.8615,W,0.37,244.34,130911,,,A*7C
$GPRMC,174208.000,A,3748.8047,N,12217.8615,W,1.21,321.57,130911,,,A*71
$GPRMC,174209.000,A,3748.8039,N,12217.8615,W,0.09,17.30,130911,,,A*45
$GPRMC,174210.000,A,3748.8027,N,12217.8619,W,0.20,176.23,130911,,,A*71
$GPRMC,174211.000,A,3748.8022,N,12217.8621,W,0.53,242.89,130911,,,A*7E
$GPRMC,174212.000,A,3748.8019,N,12217.8622,W,0.09,153.07,130911,,,A*7C
$GPRMC,174213.000,A,3748.8016,N,12217.8623,W,0.23,142.62,130911,,,A*78
$GPRMC,174214.000,A,3748.8018,N,12217.8621,W,0.25,62.61,130911,,,A*45
$GPRMC,174215.000,A,3748.8016,N,12217.8621,W,0.11,134.31,130911,,,A*7A
$GPRMC,174216.000,A,3748.8016,N,12217.8620,W,0.59,17.96,130911,,,A*49
$GPRMC,174217.000,A,3748.8016,N,12217.8622,W,0.44,17.02,130911,,,A*4B
$GPRMC,174218.000,A,3748.8014,N,12217.8623,W,0.35,60.62,130911,,,A*47
$GPRMC,174219.000,A,3748.8012,N,12217.8624,W,0.28,66.53,130911,,,A*4F
$GPRMC,174220.000,A,3748.8007,N,12217.8620,W,0.35,164.03,130911,,,A*7F
$GPRMC,174221.000,A,3748.8009,N,12217.8616,W,0.09,302.68,130911,,,A*75
$GPRMC,174222.000,A,3748.8015,N,12217.8616,W,0.60,7.37,130911,,,A*78
$GPRMC,174223.000,A,3748.8018,N,12217.8616,W,0.15,75.72,130911,,,A*42
$GPRMC,174224.000,A,3748.8015,N,12217.8612,W,0.47,156.47,130911,,,A*7D
$GPRMC,174225.000,A,3748.8010,N,12217.8607,W,0.66,157.46,130911,,,A*7E
$GPRMC,174226.000,A,3748.8011,N,12217.8604,W,0.14,93.35,130911,,,A*47
$GPRMC,174227.000,A,3748.8009,N,12217.8602,W,0.07,79.97,130911,,,A*47
$GPRMC,174228.000,A,3748.8009,N,12217.8602,W,0.15,8.87,130911,,,A*7C
$GPRMC,174229.000,A,3748.8008,N,12217.8602,W,0.05,108.69,130911,,,A*7C
$GPRMC,174230.000,A,3748.8007,N,12217.8601,W,0.27,112.83,130911,,,A*77
$GPRMC,174231.000,A,3748.8004,N,12217.8600,W,0.48,145.90,130911,,,A*7D
$GPRMC,174232.000,A,3748.8002,N,12217.8599,W,0.78,137.05,130911,,,A*71
$GPRMC,174233.000,A,3748.8001,N,12217.8597,W,0.43,142.53,130911,,,A*74
$GPRMC,174234.000,A,3748.7999,N,12217.8597,W,0.36,187.51,130911,,,A*7D
$GPRMC,174235.000,A,3748.7999,N,12217.8595,W,0.56,173.77,130911,,,A*77
$GPRMC,174236.000,A,3748.8001,N,12217.8593,W,1.17,201.58,130911,,,A*7A
$GPRMC,174237.000,A,3748.7997,N,12217.8604,W,2.56,215.44,130911,,,A*71
$GPRMC,174238.000,A,3748.7990,N,12217.8615,W,2.41,216.28,130911,,,A*76
$GPRMC,174239.000,A,3748.7984,N,12217.8628,W,2.37,218.04,130911,,,A*7D
$GPRMC,174240.000,A,3748.7978,N,12217.8634,W,2.33,211.53,130911,,,A*72
$GPRMC,174241.000,A,3748.7970,N,12217.8645,W,2.70,215.02,130911,,,A*7A
$GPRMC,174242.000,A,3748.7961,N,12217.8659,W,2.74,210.38,130911,,,A*7C
$GPRMC,174243.000,A,3748.7953,N,12217.8663,W,2.62,203.03,130911,,,A*78
$GPRMC,174244.000,A,3748.7944,N,12217.8668,W,2.44,208.15,130911,,,A*7A
$GPRMC,174245.000,A,3748.7936,N,12217.8670,W,2.78,208.02,130911,,,A*7E
$GPRMC,174246.000,A,3748.7929,N,12217.8675,W,2.80,207.48,130911,,,A*70
$GPRMC,174247.000,A,3748.7922,N,12217.8678,W,2.94,207.99,130911,,,A*7E
$GPRMC,174248.000,A,3748.7917,N,12217.8683,W,2.25,200.63,130911,,,A*7B
$GPRMC,174249.000,A,3748.7912,N,12217.8687,W,1.67,198.70,130911,,,A*7E
$GPRMC,174250.000,A,3748.7911,N,12217.8686,W,1.62,199.48,130911,,,A*7B
$GPRMC,174251.000,A,3748.7902,N,12217.8690,W,2.12,198.75,130911,,,A*74
$GPRMC,174252.000,A,3748.7889,N,12217.8698,W,2.37,205.23,130911,,,A*7E
$GPRMC,174253.000,A,3748.7882,N,12217.8706,W,2.63,196.93,130911,,,A*71
$GPRMC,174254.000,A,3748.7872,N,12217.8717,W,2.65,191.44,130911,,,A*72
$GPRMC,174255.000,A,3748.7862,N,12217.8723,W,2.92,191.42,130911,,,A*7B
$GPRMC,174256.000,A,3748.7849,N,12217.8731,W,3.30,209.09,130911,,,A*76
$GPRMC,174257.000,A,3748.7848,N,12217.8736,W,2.69,202.88,130911,,,A*7E
$GPRMC,174258.000,A,3748.7844,N,12217.8753,W,2.13,215.93,130911,,,A*7F
$GPRMC,174259.000,A,3748.7841,N,12217.8762,W,1.98,199.32,130911,,,A*75
$GPRMC,174300.000,A,3748.7835,N,12217.8768,W,1.98,182.88,130911,,,A*7A
$GPRMC,174301.000,A,3748.7831,N,12217.8773,W,1.81,170.76,130911,,,A*71
$GPRMC,174302.000,A,3748.7826,N,12217.8774,W,1.60,190.54,130911,,,A*72
$GPRMC,174303.000,A,3748.7814,N,12217.8781,W,2.06,192.06,130911,,,A*7E
$GPRMC,174304.000,A,3748.7800,N,12217.8792,W,2.30,205.13,130911,,,A*72
$GPRMC,174305.000,A,3748.7785,N,12217.8800,W,3.10,200.47,130911,,,A*72
$GPRMC,174306.000,A,3748.7775,N,12217.8808,W,3.65,193.42,130911,,,A*78
$GPRMC,174307.000,A,3748.7771,N,12217.8812,W,3.01,191.80,130911,,,A*78
$GPRMC,174308.000,A,3748.7765,N,12217.8821,W,2.95,211.97,130911,,,A*73
$GPRMC,174309.000,A,3748.7756,N,12217.8828,W,3.17,201.32,130911,,,A*7E
$GPRMC,174310.000,A,3748.7742,N,12217.8832,W,3.19,194.32,130911,,,A*79
$GPRMC,174311.000,A,3748.7728,N,12217.8840,W,2.92,200.70,130911,,,A*7B
$GPRMC,174312.000,A,3748.7710,N,12217.8845,W,2.90,191.84,130911,,,A*74
$GPRMC,174313.000,A,3748.7699,N,12217.8847,W,2.93,186.53,130911,,,A*78
$GPRMC,174314.000,A,3748.7692,N,12217.8848,W,2.61,183.98,130911,,,A*74
$GPRMC,174315.000,A,3748.7680,N,12217.8851,W,3.37,189.70,130911,,,A*70
$GPRMC,174316.000,A,3748.7673,N,12217.8853,W,2.31,188.16,130911,,,A*7B
$GPRMC,174317.000,A,3748.7673,N,12217.8862,W,2.35,190.43,130911,,,A*75
$GPRMC,174318.000,A,3748.7673,N,12217.8865,W,2.50,199.90,130911,,,A*79
$GPRMC,174319.000,A,3748.7670,N,12217.8869,W,2.78,200.25,130911,,,A*70
$GPRMC,174320.000,A,3748.7669,N,12217.8874,W,2.67,192.69,130911,,,A*70
$GPRMC,174321.000,A,3748.7658,N,12217.8884,W,2.64,193.48,130911,,,A*7D
$GPRMC,174322.000,A,3748.7648,N,12217.8889,W,2.82,188.43,130911,,,A*7B
$GPRMC,174323.000,A,3748.7640,N,12217.8891,W,2.32,178.75,130911,,,A*7A
$GPRMC,174324.000,A,3748.7632,N,12217.8892,W,2.15,172.17,130911,,,A*70
$GPRMC,174325.000,A,3748.7627,N,12217.8894,W,1.98,187.01,130911,,,A*78
$GPRMC,174326.000,A,3748.7621,N,12217.8897,W,1.66,192.01,130911,,,A*7B
$GPRMC,174327.000,A,3748.7617,N,12217.8900,W,1.76,200.13,130911,,,A*7A
$GPRMC,174328.000,A,3748.7611,N,12217.8904,W,1.99,187.89,130911,,,A*79
$GPRMC,174329.000,A,3748.7607,N,12217.8908,W,1.58,183.89,130911,,,A*7A
$GPRMC,174330.000,A,3748.7603,N,12217.8911,W,1.43,174.35,130911,,,A*7B
$GPRMC,174331.000,A,3748.7599,N,12217.8912,W,1.61,189.96,130911,,,A*72
$GPRMC,174332.000,A,3748.7594,N,12217.8915,W,1.87,181.72,130911,,,A*71
$GPRMC,174333.000,A,3748.7590,N,12217.8918,W,1.63,180.43,130911,,,A*70
$GPRMC,174334.000,A,3748.7586,N,12217.8920,W,1.59,190.74,130911,,,A*77
$GPRMC,174335.000,A,3748.7583,N,12217.8924,W,1.12,214.18,130911,,,A*7D
$GPRMC,174336.000,A,3748.7580,N,12217.8930,W,1.45,195.63,130911,,,A*7C
$GPRMC,174337.000,A,3748.7576,N,12217.8931,W,1.66,191.81,130911,,,A*7C
$GPRMC,174338.000,A,3748.7573,N,12217.8933,W,2.01,202.57,130911,,,A*74
$GPRMC,174339.000,A,3748.7570,N,12217.8937,W,1.42,204.96,130911,,,A*7D
$GPRMC,174340.000,A,3748.7564,N,12217.8939,W,1.80,182.46,130911,,,A*76
$GPRMC,174341.000,A,3748.7560,N,12217.8940,W,1.59,177.22,130911,,,A*71
$GPRMC,174342.000,A,3748.7551,N,12217.8948,W,1.77,186.75,130911,,,A*78
$GPRMC,174343.000,A,3748.7546,N,12217.8951,W,1.78,202.48,130911,,,A*79
$GPRMC,174344.000,A,3748.7541,N,12217.8959,W,1.68,203.39,130911,,,A*77
$GPRMC,174345.000,A,3748.7536,N,12217.8964,W,1.71,200.80,130911,,,A*71
$GPRMC,174346.000,A,3748.7531,N,12217.8967,W,1.90,202.74,130911,,,A*70
$GPRMC,174347.000,A,3748.7524,N,12217.8971,W,1.97,218.78,130911,,,A*72
$GPRMC,174348.000,A,3748.7518,N,12217.8974,W,2.23,219.25,130911,,,A*72
$GPRMC,174349.000,A,3748.7515,N,12217.8979,W,2.06,210.68,130911,,,A*74
$GPRMC,174350.000,A,3748.7511,N,12217.8986,W,2.03,202.26,130911,,,A*74
$GPRMC,174351.000,A,3748.7506,N,12217.8989,W,2.41,209.47,130911,,,A*76
$GPRMC,174352.000,A,3748.7501,N,12217.8994,W,2.30,203.13,130911,,,A*73
$GPRMC,174353.000,A,3748.7494,N,12217.9002,W,2.21,196.80,130911,,,A*7D
$GPRMC,174354.000,A,3748.7487,N,12217.9010,W,2.09,201.01,130911,,,A*75
$GPRMC,174355.000,A,3748.7483,N,12217.9009,W,1.83,179.87,130911,,,A*7B
$GPRMC,174356.000,A,3748.7479,N,12217.9009,W,2.04,207.10,130911,,,A*75
$GPRMC,174357.000,A,3748.7476,N,12217.9012,W,2.29,215.90,130911,,,A*75
$GPRMC,174358.000,A,3748.7471,N,12217.9018,W,1.99,210.02,130911,,,A*71
$GPRMC,174359.000,A,3748.7465,N,12217.9024,W,2.16,217.20,130911,,,A*79
$GPRMC,174400.000,A,3748.7460,N,12217.9030,W,2.03,223.06,130911,,,A*75
$GPRMC,174401.000,A,3748.7452,N,12217.9032,W,2.79,200.11,130911,,,A*7D
$GPRMC,174402.000,A,3748.7444,N,12217.9035,W,2.80,196.42,130911,,,A*72
$GPRMC,174403.000,A,3748.7441,N,12217.9041,W,2.17,216.06,130911,,,A*70
$GPRMC,174404.000,A,3748.7435,N,12217.9047,W,2.61,214.13,130911,,,A*75
$GPRMC,174405.000,A,3748.7430,N,12217.9057,W,1.98,224.88,130911,,,A*74
$GPRMC,174406.000,A,3748.7426,N,12217.9063,W,1.72,226.63,130911,,,A*74
$GPRMC,174407.000,A,3748.7418,N,12217.9072,W,2.38,212.30,130911,,,A*74
$GPRMC,174408.000,A,3748.7409,N,12217.9082,W,2.66,214.36,130911,,,A*7F
$GPRMC,174409.000,A,3748.7400,N,12217.9093,W,2.57,215.19,130911,,,A*79
$GPRMC,174410.000,A,3748.7393,N,12217.9100,W,2.34,214.20,130911,,,A*79
$GPRMC,174411.000,A,3748.7387,N,12217.9107,W,2.18,207.54,130911,,,A*75
$GPRMC,174412.000,A,3748.7382,N,12217.9111,W,2.11,208.52,130911,,,A*74
$GPRMC,174413.000,A,3748.7377,N,12217.9120,W,2.36,211.24,130911,,,A*71
$GPRMC,174414.000,A,3748.7370,N,12217.9127,W,2.53,208.93,130911,,,A*71
$GPRMC,174415.000,A,3748.7364,N,12217.9132,W,2.38,213.70,130911,,,A*7B
$GPRMC,174416.000,A,3748.7358,N,12217.9137,W,2.25,215.46,130911,,,A*7D
$GPRMC,174417.000,A,3748.7353,N,12217.9142,W,2.31,215.50,130911,,,A*77
$GPRMC,174418.000,A,3748.7346,N,12217.9146,W,2.35,216.50,130911,,,A*7F
$GPRMC,174419.000,A,3748.7341,N,12217.9151,W,2.41,219.34,130911,,,A*71
$GPRMC,174420.000,A,3748.7334,N,12217.9158,W,2.43,220.85,130911,,,A*72
$GPRMC,174421.000,A,3748.7329,N,12217.9162,W,2.16,212.26,130911,,,A*7E
$GPRMC,174422.000,A,3748.7328,N,12217.9169,W,2.03,217.88,130911,,,A*72
$GPRMC,174423.000,A,3748.7325,N,12217.9174,W,1.85,222.30,130911,,,A*7A
$GPRMC,174424.000,A,3748.7316,N,12217.9185,W,1.73,203.08,130911,,,A*72
$GPRMC,174425.000,A,3748.7309,N,12217.9192,W,1.97,189.76,130911,,,A*79
$GPRMC,174426.000,A,3748.7304,N,12217.9196,W,2.08,190.86,130911,,,A*71
$GPRMC,174427.000,A,3748.7298,N,12217.9200,W,2.00,201.22,130911,,,A*75
$GPRMC,174428.000,A,3748.7292,N,12217.9206,W,2.11,204.72,130911,,,A*76
$GPRMC,174429.000,A,3748.7286,N,12217.9211,W,2.24,203.54,130911,,,A*71
$GPRMC,174430.000,A,3748.7281,N,12217.9217,W,2.00,212.59,130911,,,A*73
$GPRMC,174431.000,A,3748.7276,N,12217.9221,W,2.12,217.11,130911,,,A*75
$GPRMC,174432.000,A,3748.7267,N,12217.9226,W,2.14,212.41,130911,,,A*77
$GPRMC,174433.000,A,3748.7259,N,12217.9232,W,2.00,213.22,130911,,,A*7F
$GPRMC,174434.000,A,3748.7251,N,12217.9235,W,2.34,208.66,130911,,,A*7A
$GPRMC,174435.000,A,3748.7248,N,12217.9245,W,2.70,220.66,130911,,,A*7E
$GPRMC,174436.000,A,3748.7244,N,12217.9252,W,2.28,220.00,130911,,,A*7A
$GPRMC,174437.000,A,3748.7241,N,12217.9255,W,1.98,216.59,130911,,,A*78
$GPRMC,174438.000,A,3748.7238,N,12217.9259,W,1.45,197.60,130911,,,A*75
$GPRMC,174439.000,A,3748.7232,N,12217.9262,W,1.97,199.04,130911,,,A*75
$GPRMC,174440.000,A,3748.7227,N,12217.9264,W,1.92,190.60,130911,,,A*77
$GPRMC,174441.000,A,3748.7223,N,12217.9265,W,1.55,187.94,130911,,,A*75
$GPRMC,174442.000,A,3748.7219,N,12217.9269,W,1.87,195.20,130911,,,A*70
$GPRMC,174443.000,A,3748.7213,N,12217.9278,W,2.32,214.16,130911,,,A*79
$GPRMC,174444.000,A,3748.7210,N,12217.9281,W,1.93,213.04,130911,,,A*77
$GPRMC,174445.000,A,3748.7198,N,12217.9286,W,2.46,214.89,130911,,,A*7B
$GPRMC,174446.000,A,3748.7189,N,12217.9291,W,2.35,210.92,130911,,,A*74
$GPRMC,174447.000,A,3748.7182,N,12217.9296,W,2.27,217.89,130911,,,A*77
$GPRMC,174448.000,A,3748.7171,N,12217.9302,W,2.55,211.25,130911,,,A*7D
$GPRMC,174449.000,A,3748.7163,N,12217.9309,W,2.47,204.87,130911,,,A*7B
$GPRMC,174450.000,A,3748.7154,N,12217.9315,W,2.70,207.76,130911,,,A*73
$GPRMC,174451.000,A,3748.7146,N,12217.9321,W,3.14,214.93,130911,,,A*7C
$GPRMC,174452.000,A,3748.7137,N,12217.9327,W,3.00,207.84,130911,,,A*7E
$GPRMC,174453.000,A,3748.7124,N,12217.9336,W,3.55,213.05,130911,,,A*71
$GPRMC,174454.000,A,3748.7118,N,12217.9340,W,2.80,204.31,130911,,,A*70
$GPRMC,174455.000,A,3748.7113,N,12217.9339,W,2.58,198.08,130911,,,A*7D
$GPRMC,174456.000,A,3748.7109,N,12217.9342,W,3.01,211.05,130911,,,A*7B
$GPRMC,174457.000,A,3748.7105,N,12217.9354,W,3.09,225.45,130911,,,A*7A
$GPRMC,174458.000,A,3748.7097,N,12217.9360,W,2.78,208.09,130911,,,A*78
$GPRMC,174459.000,A,3748.7088,N,12217.9368,W,2.53,205.21,130911,,,A*71
$GPRMC,174500.000,A,3748.7084,N,12217.9375,W,2.31,197.91,130911,,,A*7B
$GPRMC,174501.000,A,3748.7083,N,12217.9372,W,1.88,197.21,130911,,,A*70
$GPRMC,174502.000,A,3748.7079,N,12217.9376,W,2.36,212.83,130911,,,A*72
$GPRMC,174503.000,A,3748.7074,N,12217.9381,W,2.61,215.32,130911,,,A*79
$GPRMC,174504.000,A,3748.7066,N,12217.9386,W,2.66,213.02,130911,,,A*78
$GPRMC,174505.000,A,3748.7057,N,12217.9392,W,2.45,216.98,130911,,,D*7C
$GPRMC,174506.000,A,3748.7050,N,12217.9399,W,2.41,211.01,130911,,,D*70
$GPRMC,174507.000,A,3748.7045,N,12217.9405,W,2.23,208.40,130911,,,D*7E
$GPRMC,174508.000,A,3748.7037,N,12217.9414,W,2.61,216.74,130911,,,D*7A
$GPRMC,174509.000,A,3748.7028,N,12217.9428,W,2.69,220.92,130911,,,D*7F
$GPRMC,174510.000,A,3748.7019,N,12217.9439,W,2.52,218.91,130911,,,D*75
$GPRMC,174511.000,A,3748.7016,N,12217.9441,W,1.94,198.89,130911,,,D*7F
$GPRMC,174512.000,A,3748.7015,N,12217.9440,W,2.08,205.43,130911,,,D*79
$GPRMC,174513.000,A,3748.7009,N,12217.9444,W,2.27,217.11,130911,,,D*78
$GPRMC,174514.000,A,3748.7002,N,12217.9446,W,2.05,199.72,130911,,,D*76
$GPRMC,174515.000,A,3748.6995,N,12217.9448,W,2.10,195.62,130911,,,D*76
$GPRMC,174516.000,A,3748.6989,N,12217.9453,W,1.97,196.50,130911,,,D*7C
$GPRMC,174517.000,A,3748.6984,N,12217.9457,W,2.31,205.90,130911,,,D*7E
$GPRMC,174518.000,A,3748.6977,N,12217.9462,W,2.39,207.21,130911,,,D*7B
$GPRMC,174519.000,A,3748.6970,N,12217.9468,W,2.36,207.26,130911,,,D*7F
$GPRMC,174520.000,A,3748.6966,N,12217.9472,W,2.02,198.92,130911,,,D*74
$GPRMC,174521.000,A,3748.6960,N,12217.9476,W,2.20,201.70,130911,,,D*78
$GPRMC,174522.000,A,3748.6960,N,12217.9485,W,2.31,187.01,130911,,,A*79
$GPRMC,174523.000,A,3748.6957,N,12217.9486,W,2.47,194.15,130911,,,A*79
$GPRMC,174524.000,A,3748.6954,N,12217.9487,W,2.37,213.40,130911,,,A*77
$GPRMC,174525.000,A,3748.6950,N,12217.9490,W,2.79,218.17,130911,,,A*77
$GPRMC,174526.000,A,3748.6945,N,12217.9498,W,2.53,216.46,130911,,,A*7A
$GPRMC,174527.000,A,3748.6942,N,12217.9498,W,2.17,214.92,130911,,,A*77
$GPRMC,174528.000,A,3748.6938,N,12217.9504,W,2.39,209.61,130911,,,A*7D
$GPRMC,174529.000,A,3748.6936,N,12217.9503,W,2.46,200.41,130911,,,A*76
$GPRMC,174530.000,A,3748.6931,N,12217.9508,W,2.56,203.06,130911,,,A*73
$GPRMC,174531.000,A,3748.6925,N,12217.9516,W,2.65,205.62,130911,,,A*7C
$GPRMC,174532.000,A,3748.6919,N,12217.9522,W,2.76,208.94,130911,,,A*71
$GPRMC,174533.000,A,3748.6910,N,12217.9528,W,2.83,205.33,130911,,,A*79
$GPRMC,174534.000,A,3748.6902,N,12217.9534,W,2.98,200.89,130911,,,A*7E
$GPRMC,174535.000,A,3748.6896,N,12217.9535,W,2.66,199.36,130911,,,A*74
$GPRMC,174536.000,A,3748.6893,N,12217.9535,W,2.47,205.33,130911,,,A*72
$GPRMC,174537.000,A,3748.6886,N,12217.9540,W,2.65,205.39,130911,,,A*7F
$GPRMC,174538.000,A,3748.6879,N,12217.9544,W,2.73,206.54,130911,,,A*7B
$GPRMC,174539.000,A,3748.6872,N,12217.9547,W,2.41,196.48,130911,,,A*74
$GPRMC,174540.000,A,3748.6864,N,12217.9553,W,2.85,210.74,130911,,,A*72
$GPRMC,174541.000,A,3748.6858,N,12217.9558,W,2.66,208.71,130911,,,A*76
$GPRMC,174542.000,A,3748.6853,N,12217.9560,W,2.55,205.88,130911,,,A*7E
$GPRMC,174543.000,A,3748.6847,N,12217.9565,W,2.50,205.65,130911,,,A*79
$GPRMC,174544.000,A,3748.6841,N,12217.9568,W,2.52,203.43,130911,,,A*75
$GPRMC,174545.000,A,3748.6834,N,12217.9575,W,2.51,203.86,130911,,,A*70
$GPRMC,174546.000,A,3748.6831,N,12217.9574,W,2.37,201.35,130911,,,A*7D
$GPRMC,174547.000,A,3748.6826,N,12217.9579,W,2.50,197.33,130911,,,A*7C
$GPRMC,174548.000,A,3748.6821,N,12217.9582,W,2.49,196.70,130911,,,A*7E
$GPRMC,174549.000,A,3748.6812,N,12217.9589,W,2.59,202.85,130911,,,A*71
$GPRMC,174550.000,A,3748.6803,N,12217.9597,W,2.89,207.71,130911,,,A*75
$GPRMC,174551.000,A,3748.6793,N,12217.9606,W,2.78,204.43,130911,,,A*75
$GPRMC,174552.000,A,3748.6785,N,12217.9612,W,2.58,195.54,130911,,,A*7B
$GPRMC,174553.000,A,3748.6779,N,12217.9616,W,2.24,192.57,130911,,,A*72
$GPRMC,174554.000,A,3748.6774,N,12217.9623,W,2.56,207.13,130911,,,A*74
$GPRMC,174555.000,A,3748.6766,N,12217.9633,W,2.94,208.33,130911,,,A*74
$GPRMC,174556.000,A,3748.6760,N,12217.9637,W,2.46,198.37,130911,,,A*74
$GPRMC,174557.000,A,3748.6753,N,12217.9642,W,2.69,205.46,130911,,,A*7B
$GPRMC,174558.000,A,3748.6745,N,12217.9646,W,2.74,200.12,130911,,,A*7F
$GPRMC,174559.000,A,3748.6735,N,12217.9653,W,2.71,193.39,130911,,,A*78
$GPRMC,174600.000,A,3748.6729,N,12217.9659,W,2.75,207.98,130911,,,A*71
$GPRMC,174601.000,A,3748.6723,N,12217.9662,W,2.31,194.99,130911,,,A*7A
$GPRMC,174602.000,A,3748.6718,N,12217.9665,W,2.34,193.99,130911,,,A*74
$GPRMC,174603.000,A,3748.6711,N,12217.9669,W,2.69,206.43,130911,,,A*70
$GPRMC,174604.000,A,3748.6705,N,12217.9673,W,2.55,202.37,130911,,,A*71
$GPRMC,174605.000,A,3748.6698,N,12217.9678,W,2.38,200.18,130911,,,A*7A
$GPRMC,174606.000,A,3748.6694,N,12217.9682,W,2.17,202.48,130911,,,A*7A
$GPRMC,174607.000,A,3748.6692,N,12217.9685,W,1.93,204.76,130911,,,A*7E
$GPRMC,174608.000,A,3748.6687,N,12217.9695,W,1.85,210.99,130911,,,A*77
$GPRMC,174609.000,A,3748.6683,N,12217.9707,W,2.35,211.52,130911,,,A*76
$GPRMC,174609.000,A,3748.6679,N,12217.9715,W,2.21,204.76,130911,,,A*77
$GPRMC,174610.000,A,3748.6678,N,12217.9719,W,2.02,203.94,130911,,,A*78
$GPRMC,174611.000,A,3748.6674,N,12217.9722,W,2.50,205.73,130911,,,A*75
$GPRMC,174612.000,A,3748.6669,N,12217.9729,W,2.14,209.13,130911,,,A*7B
$GPRMC,174613.000,A,3748.6658,N,12217.9734,W,3.03,208.81,130911,,,A*79
$GPRMC,174614.000,A,3748.6648,N,12217.9734,W,2.84,191.06,130911,,,A*7D
$GPRMC,174615.000,A,3748.6644,N,12217.9731,W,2.13,179.06,130911,,,A*7D
$GPRMC,174616.000,A,3748.6644,N,12217.9727,W,2.26,183.22,130911,,,A*7C
$GPRMC,174617.000,A,3748.6635,N,12217.9734,W,2.18,188.19,130911,,,A*77
$GPRMC,174618.000,A,3748.6640,N,12217.9733,W,1.93,192.37,130911,,,A*7A
$GPRMC,174619.000,A,3748.6641,N,12217.9736,W,1.80,189.52,130911,,,A*74
$GPRMC,174620.000,A,3748.6631,N,12217.9744,W,1.35,187.95,130911,,,A*77
$GPRMC,174621.000,A,3748.6624,N,12217.9750,W,1.64,180.19,130911,,,A*70
$GPRMC,174622.000,A,3748.6613,N,12217.9758,W,2.58,208.40,130911,,,A*7C
$GPRMC,174623.000,A,3748.6600,N,12217.9765,W,2.16,210.32,130911,,,A*77
$GPRMC,174624.000,A,3748.6590,N,12217.9772,W,2.73,208.32,130911,,,A*76
$GPRMC,174625.000,A,3748.6578,N,12217.9775,W,2.14,198.49,130911,,,A*71
$GPRMC,174626.000,A,3748.6562,N,12217.9787,W,2.21,202.19,130911,,,A*77
$GPRMC,174627.000,A,3748.6550,N,12217.9794,W,1.87,182.19,130911,,,A*71
$GPRMC,174628.000,A,3748.6547,N,12217.9794,W,0.57,118.34,130911,,,A*78
$GPRMC,174629.000,A,3748.6543,N,12217.9800,W,0.41,216.11,130911,,,A*72
$GPRMC,174630.000,A,3748.6545,N,12217.9796,W,0.36,94.82,130911,,,A*4E
$GPRMC,174631.000,A,3748.6547,N,12217.9791,W,0.94,91.57,130911,,,A*4F
$GPRMC,174632.000,A,3748.6550,N,12217.9787,W,1.07,117.70,130911,,,A*7C
$GPRMC,174633.000,A,3748.6545,N,12217.9793,W,1.28,188.14,130911,,,A*75
$GPRMC,174634.000,A,3748.6538,N,12217.9800,W,1.88,195.50,130911,,,A*7B
$GPRMC,174635.000,A,3748.6529,N,12217.9810,W,2.25,197.74,130911,,,A*7B
$GPRMC,174636.000,A,3748.6522,N,12217.9816,W,2.84,207.35,130911,,,A*71
$GPRMC,174637.000,A,3748.6516,N,12217.9824,W,2.46,207.44,130911,,,A*7E
$GPRMC,174638.000,A,3748.6512,N,12217.9827,W,2.14,190.89,130911,,,A*7D
$GPRMC,174639.000,A,3748.6504,N,12217.9830,W,2.10,184.93,130911,,,A*77
$GPRMC,174640.000,A,3748.6501,N,12217.9829,W,2.05,190.67,130911,,,A*7E
$GPRMC,174641.000,A,3748.6497,N,12217.9835,W,2.43,205.50,130911,,,A*75
$GPRMC,174642.000,A,3748.6490,N,12217.9840,W,2.04,196.75,130911,,,A*7E
$GPRMC,174643.000,A,3748.6482,N,12217.9850,W,2.17,207.19,130911,,,A*7E
$GPRMC,174644.000,A,3748.6477,N,12217.9856,W,2.58,207.61,130911,,,A*71
$GPRMC,174645.000,A,3748.6470,N,12217.9861,W,2.47,199.83,130911,,,A*75
$GPRMC,174646.000,A,3748.6462,N,12217.9867,W,2.44,206.04,130911,,,A*7A
$GPRMC,174647.000,A,3748.6456,N,12217.9871,W,2.06,197.25,130911,,,A*75
$GPRMC,174648.000,A,3748.6450,N,12217.9878,W,2.11,193.42,130911,,,A*76
$GPRMC,174649.000,A,3748.6443,N,12217.9886,W,2.28,192.12,130911,,,A*7A
$GPRMC,174650.000,A,3748.6437,N,12217.9889,W,2.31,200.01,130911,,,A*7C
$GPRMC,174651.000,A,3748.6433,N,12217.9891,W,2.21,207.20,130911,,,A*75
$GPRMC,174652.000,A,3748.6428,N,12217.9896,W,2.08,215.09,130911,,,A*78
$GPRMC,174653.000,A,3748.6424,N,12217.9898,W,1.67,204.16,130911,,,A*7F
$GPRMC,174654.000,A,3748.6418,N,12217.9901,W,1.78,201.86,130911,,,A*74
$GPRMC,174655.000,A,3748.6410,N,12217.9911,W,2.43,212.51,130911,,,A*7F
$GPRMC,174656.000,A,3748.6404,N,12217.9916,W,2.39,205.43,130911,,,A*76
$GPRMC,174657.000,A,3748.6397,N,12217.9923,W,2.45,204.80,130911,,,A*79
$GPRMC,174658.000,A,3748.6390,N,12217.9928,W,2.21,201.29,130911,,,A*7E
$GPRMC,174659.000,A,3748.6383,N,12217.9929,W,2.12,187.90,130911,,,A*73
$GPRMC,174700.000,A,3748.6376,N,12217.9931,W,2.10,194.63,130911,,,A*71
$GPRMC,174701.000,A,3748.6367,N,12217.9942,W,2.25,202.05,130911,,,A*7E
$GPRMC,174702.000,A,3748.6362,N,12217.9950,W,2.16,202.16,130911,,,A*79
$GPRMC,174703.000,A,3748.6358,N,12217.9953,W,1.97,199.44,130911,,,A*7E
$GPRMC,174704.000,A,3748.6348,N,12217.9963,W,2.13,199.88,130911,,,A*74
$GPRMC,174705.000,A,3748.6338,N,12217.9972,W,3.06,216.36,130911,,,A*76
$GPRMC,174706.000,A,3748.6329,N,12217.9983,W,3.04,214.16,130911,,,A*79
$GPRMC,174707.000,A,3748.6320,N,12217.9992,W,2.83,207.20,130911,,,A*78
$GPRMC,174708.000,A,3748.6313,N,12217.9996,W,2.88,207.39,130911,,,A*70
$GPRMC,174709.000,A,3748.6308,N,12218.0000,W,2.73,209.63,130911,,,A*7E
$GPRMC,174710.000,A,3748.6303,N,12218.0003,W,2.19,207.49,130911,,,A*74
$GPRMC,174711.000,A,3748.6295,N,12218.0009,W,2.16,220.26,130911,,,A*72
$GPRMC,174712.000,A,3748.6291,N,12218.0007,W,1.88,208.28,130911,,,A*7B
$GPRMC,174713.000,A,3748.6287,N,12218.0008,W,2.31,199.95,130911,,,A*7E
$GPRMC,174714.000,A,3748.6276,N,12218.0010,W,2.48,197.29,130911,,,A*79
$GPRMC,174715.000,A,3748.6267,N,12218.0013,W,2.24,207.30,130911,,,A*73
$GPRMC,174716.000,A,3748.6262,N,12218.0022,W,1.80,222.10,130911,,,A*7F
$GPRMC,174717.000,A,3748.6259,N,12218.0027,W,2.45,229.75,130911,,,A*71
$GPRMC,174718.000,A,3748.6252,N,12218.0035,W,2.63,215.76,130911,,,A*7E
$GPRMC,174719.000,A,3748.6249,N,12218.0040,W,2.67,211.21,130911,,,A*75
$GPRMC,174720.000,A,3748.6242,N,12218.0044,W,2.04,182.69,130911,,,A*70
$GPRMC,174721.000,A,3748.6234,N,12218.0048,W,2.78,184.93,130911,,,A*74
$GPRMC,174722.000,A,3748.6227,N,12218.0049,W,2.76,164.59,130911,,,A*72
$GPRMC,174723.000,A,3748.6219,N,12218.0041,W,2.86,143.58,130911,,,A*7D
$GPRMC,174724.000,A,3748.6218,N,12218.0025,W,2.56,119.53,130911,,,A*70
$GPRMC,174725.000,A,3748.6213,N,12218.0013,W,2.68,106.99,130911,,,A*7A
$GPRMC,174726.000,A,3748.6207,N,12218.0001,W,2.70,105.21,130911,,,A*76
$GPRMC,174727.000,A,3748.6202,N,12217.9993,W,2.12,114.78,130911,,,A*7E
$GPRMC,174728.000,A,3748.6198,N,12217.9984,W,2.40,109.52,130911,,,A*74
$GPRMC,174729.000,A,3748.6190,N,12217.9972,W,2.75,111.14,130911,,,A*79
$GPRMC,174730.000,A,3748.6186,N,12217.9962,W,2.48,104.48,130911,,,A*74
$GPRMC,174731.000,A,3748.6182,N,12217.9954,W,2.16,97.30,130911,,,A*4B
$GPRMC,174732.000,A,3748.6175,N,12217.9944,W,2.70,117.31,130911,,,A*79
$GPRMC,174733.000,A,3748.6175,N,12217.9935,W,2.57,115.76,130911,,,A*7A
$GPRMC,174734.000,A,3748.6174,N,12217.9926,W,2.74,114.61,130911,,,A*78
$GPRMC,174735.000,A,3748.6169,N,12217.9919,W,2.54,113.11,130911,,,A*7B
$GPRMC,174736.000,A,3748.6166,N,12217.9912,W,2.45,119.57,130911,,,A*74
$GPRMC,174737.000,A,3748.6163,N,12217.9904,W,2.47,116.48,130911,,,A*74
$GPRMC,174738.000,A,3748.6159,N,12217.9897,W,2.36,114.76,130911,,,A*70
$GPRMC,174739.000,A,3748.6160,N,12217.9889,W,2.25,113.11,130911,,,A*70
$GPRMC,174740.000,A,3748.6154,N,12217.9883,W,2.19,114.44,130911,,,A*7B
$GPRMC,174741.000,A,3748.6151,N,12217.9876,W,2.33,109.62,130911,,,A*75
$GPRMC,174742.000,A,3748.6148,N,12217.9868,W,2.44,112.02,130911,,,A*7D
$GPRMC,174743.000,A,3748.6146,N,12217.9860,W,2.30,113.67,130911,,,A*7B
$GPRMC,174744.000,A,3748.6144,N,12217.9852,W,2.31,113.79,130911,,,A*71
$GPRMC,174745.000,A,3748.6140,N,12217.9843,W,2.47,116.34,130911,,,A*79
$GPRMC,174746.000,A,3748.6137,N,12217.9835,W,2.31,115.10,130911,,,A*7F
$GPRMC,174747.000,A,3748.6130,N,12217.9829,W,2.25,121.65,130911,,,A*74
$GPRMC,174748.000,A,3748.6126,N,12217.9821,W,2.21,116.27,130911,,,A*72
$GPRMC,174749.000,A,3748.6122,N,12217.9813,W,2.22,114.11,130911,,,A*72
$GPRMC,174750.000,A,3748.6119,N,12217.9805,W,2.28,117.60,130911,,,A*7A
$GPRMC,174751.000,A,3748.6115,N,12217.9796,W,2.41,117.96,130911,,,A*74
$GPRMC,174752.000,A,3748.6112,N,12217.9788,W,2.27,107.31,130911,,,A*73
$GPRMC,174753.000,A,3748.6110,N,12217.9779,W,2.28,111.33,130911,,,A*74
$GPRMC,174754.000,A,3748.6102,N,12217.9767,W,2.50,111.29,130911,,,A*7B
$GPRMC,174755.000,A,3748.6095,N,12217.9756,W,2.15,123.91,130911,,,A*74
$GPRMC,174756.000,A,3748.6091,N,12217.9748,W,2.68,119.89,130911,,,A*76
$GPRMC,174757.000,A,3748.6088,N,12217.9739,W,2.58,116.27,130911,,,A*71
$GPRMC,174758.000,A,3748.6082,N,12217.9732,W,2.43,116.05,130911,,,A*75
$GPRMC,174759.000,A,3748.6079,N,12217.9724,W,2.45,117.48,130911,,,A*79
$GPRMC,174800.000,A,3748.6075,N,12217.9716,W,2.43,116.12,130911,,,A*7F
$GPRMC,174801.000,A,3748.6068,N,12217.9710,W,2.33,116.69,130911,,,A*7F
$GPRMC,174802.000,A,3748.6062,N,12217.9703,W,2.34,114.84,130911,,,A*72
$GPRMC,174803.000,A,3748.6058,N,12217.9695,W,2.30,106.43,130911,,,A*78
$GPRMC,174804.000,A,3748.6054,N,12217.9688,W,2.11,109.79,130911,,,A*7A
$GPRMC,174805.000,A,3748.6050,N,12217.9682,W,1.86,107.72,130911,,,A*7D
$GPRMC,174806.000,A,3748.6048,N,12217.9675,W,2.22,112.73,130911,,,A*77
$GPRMC,174807.000,A,3748.6045,N,12217.9667,W,1.69,111.11,130911,,,A*73
$GPRMC,174808.000,A,3748.6041,N,12217.9661,W,2.11,116.90,130911,,,A*7C
$GPRMC,174809.000,A,3748.6041,N,12217.9654,W,1.81,114.51,130911,,,A*7E
$GPRMC,174810.000,A,3748.6037,N,12217.9648,W,2.30,126.70,130911,,,A*71
$GPRMC,174811.000,A,3748.6034,N,12217.9638,W,2.11,112.06,130911,,,A*71
$GPRMC,174812.000,A,3748.6030,N,12217.9631,W,1.71,112.00,130911,,,A*7C
$GPRMC,174813.000,A,3748.6027,N,12217.9622,W,1.42,115.56,130911,,,A*7D
$GPRMC,174814.000,A,3748.6026,N,12217.9615,W,2.06,116.09,130911,,,A*75
$GPRMC,174815.000,A,3748.6023,N,12217.9610,W,1.95,126.01,130911,,,A*76
$GPRMC,174816.000,A,3748.6019,N,12217.9603,W,1.84,116.20,130911,,,A*7E
$GPRMC,174817.000,A,3748.6017,N,12217.9598,W,1.82,125.43,130911,,,A*73
$GPRMC,174818.000,A,3748.6013,N,12217.9591,W,2.27,126.08,130911,,,A*71
$GPRMC,174819.000,A,3748.6011,N,12217.9583,W,2.09,111.70,130911,,,A*76
$GPRMC,174820.000,A,3748.6007,N,12217.9575,W,2.07,103.14,130911,,,A*7D
$GPRMC,174821.000,A,3748.6003,N,12217.9567,W,2.18,101.55,130911,,,A*72
$GPRMC,174822.000,A,3748.5998,N,12217.9559,W,2.47,113.05,130911,,,A*78
$GPRMC,174823.000,A,3748.5997,N,12217.9549,W,2.20,108.68,130911,,,A*77
$GPRMC,174824.000,A,3748.5994,N,12217.9541,W,2.22,109.60,130911,,,A*70
$GPRMC,174825.000,A,3748.5990,N,12217.9534,W,2.08,108.04,130911,,,A*7C
$GPRMC,174826.000,A,3748.5987,N,12217.9525,W,2.26,117.77,130911,,,A*7F
$GPRMC,174827.000,A,3748.5983,N,12217.9517,W,2.37,119.24,130911,,,A*73
$GPRMC,174828.000,A,3748.5975,N,12217.9510,W,2.26,121.19,130911,,,A*77
$GPRMC,174829.000,A,3748.5970,N,12217.9503,W,2.14,115.20,130911,,,A*7D
$GPRMC,174830.000,A,3748.5965,N,12217.9495,W,2.47,123.21,130911,,,A*7D
$GPRMC,174831.000,A,3748.5957,N,12217.9488,W,2.51,126.30,130911,,,A*73
$GPRMC,174832.000,A,3748.5955,N,12217.9478,W,2.54,116.59,130911,,,A*74
$GPRMC,174833.000,A,3748.5952,N,12217.9470,W,2.26,116.10,130911,,,A*72
$GPRMC,174834.000,A,3748.5948,N,12217.9462,W,2.43,116.25,130911,,,A*78
$GPRMC,174835.000,A,3748.5942,N,12217.9455,W,2.16,115.12,130911,,,A*70
$GPRMC,174836.000,A,3748.5937,N,12217.9448,W,2.34,120.41,130911,,,A*7D
$GPRMC,174837.000,A,3748.5929,N,12217.9441,W,2.40,129.96,130911,,,A*7A
$GPRMC,174838.000,A,3748.5918,N,12217.9427,W,2.41,121.31,130911,,,A*73
$GPRMC,174839.000,A,3748.5915,N,12217.9420,W,2.24,122.22,130911,,,A*7A
$GPRMC,174840.000,A,3748.5903,N,12217.9410,W,2.68,107.34,130911,,,A*78
$GPRMC,174841.000,A,3748.5894,N,12217.9404,W,2.39,136.41,130911,,,A*77
$GPRMC,174842.000,A,3748.5879,N,12217.9404,W,2.82,172.48,130911,,,A*7E
$GPRMC,174843.000,A,3748.5866,N,12217.9401,W,2.64,166.06,130911,,,A*73
$GPRMC,174844.000,A,3748.5847,N,12217.9405,W,3.15,181.32,130911,,,A*7A
$GPRMC,174845.000,A,3748.5836,N,12217.9401,W,2.16,167.74,130911,,,A*71
$GPRMC,174846.000,A,3748.5841,N,12217.9395,W,0.29,146.91,130911,,,A*7E
$GPRMC,174847.000,A,3748.5835,N,12217.9397,W,1.05,183.27,130911,,,A*75
$GPRMC,174848.000,A,3748.5822,N,12217.9401,W,1.99,200.38,130911,,,A*77
$GPRMC,174849.000,A,3748.5811,N,12217.9411,W,2.65,202.08,130911,,,A*76
$GPRMC,174850.000,A,3748.5798,N,12217.9427,W,2.81,202.97,130911,,,A*79
$GPRMC,174851.000,A,3748.5797,N,12217.9426,W,2.76,202.42,130911,,,A*76
$GPRMC,174852.000,A,3748.5800,N,12217.9424,W,2.33,208.57,130911,,,A*79
$GPRMC,174853.000,A,3748.5807,N,12217.9421,W,2.28,212.43,130911,,,A*7E
$GPRMC,174854.000,A,3748.5807,N,12217.9421,W,2.41,214.80,130911,,,A*7F
$GPRMC,174855.000,A,3748.5809,N,12217.9422,W,2.59,220.21,130911,,,A*76
$GPRMC,174856.000,A,3748.5814,N,12217.9422,W,2.24,209.36,130911,,,A*7E
$GPRMC,174857.000,A,3748.5810,N,12217.9426,W,2.05,203.32,130911,,,A*72
$GPRMC,174858.000,A,3748.5803,N,12217.9432,W,1.95,200.68,130911,,,A*7C
$GPRMC,174859.000,A,3748.5797,N,12217.9440,W,2.10,217.20,130911,,,A*7E
$GPRMC,174900.000,A,3748.5794,N,12217.9445,W,1.83,214.89,130911,,,A*7C
$GPRMC,174901.000,A,3748.5789,N,12217.9450,W,2.15,214.24,130911,,,A*7E
$GPRMC,174902.000,A,3748.5785,N,12217.9457,W,1.68,221.54,130911,,,A*7E
$GPRMC,174903.000,A,3748.5786,N,12217.9455,W,1.39,209.37,130911,,,A*75
$GPRMC,174904.000,A,3748.5784,N,12217.9457,W,1.90,201.54,130911,,,A*7C
$GPRMC,174905.000,A,3748.5773,N,12217.9457,W,1.98,194.98,130911,,,A*72
$GPRMC,174906.000,A,3748.5767,N,12217.9455,W,1.83,200.36,130911,,,A*76
$GPRMC,174907.000,A,3748.5760,N,12217.9460,W,2.03,201.76,130911,,,A*78
$GPRMC,174908.000,A,3748.5757,N,12217.9461,W,1.67,203.62,130911,,,A*74
$GPRMC,174909.000,A,3748.5752,N,12217.9466,W,2.10,222.15,130911,,,A*77
$GPRMC,174910.000,A,3748.5743,N,12217.9466,W,2.05,207.55,130911,,,A*78
$GPRMC,174911.000,A,3748.5737,N,12217.9469,W,1.90,204.28,130911,,,A*73
$GPRMC,174912.000,A,3748.5731,N,12217.9473,W,1.75,216.07,130911,,,A*78
$GPRMC,174913.000,A,3748.5726,N,12217.9478,W,1.86,218.60,130911,,,A*77
$GPRMC,174914.000,A,3748.5721,N,12217.9483,W,2.34,215.10,130911,,,A*73
$GPRMC,174915.000,A,3748.5716,N,12217.9486,W,2.25,202.88,130911,,,A*74
$GPRMC,174916.000,A,3748.5711,N,12217.9491,W,2.44,204.00,130911,,,A*77
$GPRMC,174917.000,A,3748.5704,N,12217.9496,W,2.38,205.58,130911,,,A*72
$GPRMC,174918.000,A,3748.5700,N,12217.9502,W,2.39,202.42,130911,,,A*78
$GPRMC,174919.000,A,3748.5692,N,12217.9509,W,2.02,204.53,130911,,,A*76
$GPRMC,174920.000,A,3748.5686,N,12217.9516,W,1.97,209.53,130911,,,A*75
$GPRMC,174921.000,A,3748.5679,N,12217.9524,W,2.30,213.08,130911,,,A*7E
$GPRMC,174922.000,A,3748.5674,N,12217.9527,W,1.75,199.69,130911,,,A*77
$GPRMC,174923.000,A,3748.5668,N,12217.9529,W,2.34,207.97,130911,,,A*76
$GPRMC,174924.000,A,3748.5659,N,12217.9533,W,2.57,203.01,130911,,,A*76
$GPRMC,174925.000,A,3748.5648,N,12217.9536,W,2.58,188.19,130911,,,A*74
$GPRMC,174926.000,A,3748.5639,N,12217.9537,W,2.81,199.46,130911,,,A*7E
$GPRMC,174927.000,A,3748.5633,N,12217.9541,W,2.70,205.04,130911,,,A*7A
$GPRMC,174928.000,A,3748.5629,N,12217.9543,W,1.60,210.82,130911,,,A*74
$GPRMC,174929.000,A,3748.5623,N,12217.9550,W,2.09,206.87,130911,,,A*73
$GPRMC,174930.000,A,3748.5616,N,12217.9561,W,2.54,218.88,130911,,,A*77
$GPRMC,174931.000,A,3748.5605,N,12217.9575,W,2.53,223.54,130911,,,A*7F
$GPRMC,174932.000,A,3748.5594,N,12217.9586,W,2.42,225.10,130911,,,A*7D
$GPRMC,174933.000,A,3748.5590,N,12217.9592,W,1.43,220.20,130911,,,A*79
$GPRMC,174934.000,A,3748.5580,N,12217.9599,W,1.59,214.38,130911,,,A*71
$GPRMC,174935.000,A,3748.5576,N,12217.9605,W,1.58,234.71,130911,,,A*71
$GPRMC,174936.000,A,3748.5571,N,12217.9612,W,1.53,228.53,130911,,,A*75
$GPRMC,174937.000,A,3748.5565,N,12217.9616,W,1.63,225.79,130911,,,A*73
$GPRMC,174938.000,A,3748.5560,N,12217.9616,W,2.42,213.64,130911,,,A*70
$GPRMC,174939.000,A,3748.5554,N,12217.9619,W,2.22,200.50,130911,,,A*7A
$GPRMC,174940.000,A,3748.5548,N,12217.9620,W,2.00,220.12,130911,,,A*77
$GPRMC,174941.000,A,3748.5542,N,12217.9625,W,1.90,213.10,130911,,,A*71
$GPRMC,174942.000,A,3748.5536,N,12217.9629,W,2.46,207.32,130911,,,A*70
$GPRMC,174943.000,A,3748.5528,N,12217.9634,W,2.77,215.55,130911,,,A*72
$GPRMC,174944.000,A,3748.5519,N,12217.9637,W,2.54,206.65,130911,,,A*74
$GPRMC,174945.000,A,3748.5514,N,12217.9638,W,2.13,203.03,130911,,,A*71
$GPRMC,174946.000,A,3748.5506,N,12217.9650,W,2.19,211.54,130911,,,A*74
$GPRMC,174947.000,A,3748.5502,N,12217.9651,W,1.85,203.53,130911,,,A*72
$GPRMC,174948.000,A,3748.5493,N,12217.9658,W,2.09,201.67,130911,,,A*7F
$GPRMC,174949.000,A,3748.5487,N,12217.9660,W,1.99,199.45,130911,,,A*78
$GPRMC,174950.000,A,3748.5481,N,12217.9666,W,2.59,210.39,130911,,,A*76
$GPRMC,174951.000,A,3748.5477,N,12217.9670,W,2.37,216.78,130911,,,A*72
$GPRMC,174952.000,A,3748.5476,N,12217.9673,W,1.63,201.81,130911,,,A*71
$GPRMC,174953.000,A,3748.5470,N,12217.9676,W,1.60,209.39,130911,,,A*7B
$GPRMC,174954.000,A,3748.5467,N,12217.9680,W,1.62,206.91,130911,,,A*7C
$GPRMC,174955.000,A,3748.5461,N,12217.9683,W,2.17,198.10,130911,,,A*74
$GPRMC,174956.000,A,3748.5453,N,12217.9690,W,2.27,200.94,130911,,,A*79
$GPRMC,174957.000,A,3748.5443,N,12217.9698,W,2.64,211.50,130911,,,A*7E
$GPRMC,174958.000,A,3748.5435,N,12217.9708,W,2.47,215.07,130911,,,A*7F
$GPRMC,174959.000,A,3748.5429,N,12217.9718,W,2.48,216.83,130911,,,A*72
$GPRMC,175000.000,A,3748.5425,N,12217.9725,W,2.39,220.16,130911,,,A*7B
$GPRMC,175001.000,A,3748.5422,N,12217.9736,W,2.96,241.72,130911,,,A*7F
$GPRMC,175002.000,A,3748.5419,N,12217.9747,W,2.56,238.93,130911,,,A*7F
$GPRMC,175003.000,A,3748.5418,N,12217.9754,W,2.29,229.12,130911,,,A*7C
$GPRMC,175004.000,A,3748.5417,N,12217.9758,W,2.30,219.08,130911,,,A*78
$GPRMC,175005.000,A,3748.5409,N,12217.9764,W,2.86,211.22,130911,,,A*74
$GPRMC,175006.000,A,3748.5402,N,12217.9766,W,2.03,184.83,130911,,,A*77
$GPRMC,175007.000,A,3748.5396,N,12217.9765,W,1.82,197.20,130911,,,A*7E
$GPRMC,175008.000,A,3748.5391,N,12217.9769,W,2.44,214.00,130911,,,A*79
$GPRMC,175009.000,A,3748.5388,N,12217.9776,W,1.94,190.79,130911,,,A*71
$GPRMC,175010.000,A,3748.5377,N,12217.9781,W,2.34,186.38,130911,,,A*7A
$GPRMC,175011.000,A,3748.5367,N,12217.9783,W,2.15,177.54,130911,,,A*7F
$GPRMC,175012.000,A,3748.5358,N,12217.9786,W,1.86,199.44,130911,,,A*7D
$GPRMC,175013.000,A,3748.5350,N,12217.9789,W,2.02,215.23,130911,,,A*72
$GPRMC,175014.000,A,3748.5342,N,12217.9795,W,1.71,236.02,130911,,,A*7E
$GPRMC,175015.000,A,3748.5336,N,12217.9803,W,1.61,242.79,130911,,,A*72
$GPRMC,175016.000,A,3748.5335,N,12217.9811,W,0.84,236.75,130911,,,A*74
$GPRMC,175017.000,A,3748.5333,N,12217.9817,W,1.62,218.35,130911,,,A*74
$GPRMC,175018.000,A,3748.5327,N,12217.9819,W,2.14,209.29,130911,,,A*7F
$GPRMC,175019.000,A,3748.5321,N,12217.9818,W,1.95,206.10,130911,,,A*76
$GPRMC,175020.000,A,3748.5316,N,12217.9823,W,2.49,223.27,130911,,,A*71
$GPRMC,175021.000,A,3748.5307,N,12217.9830,W,1.79,214.15,130911,,,A*77
$GPRMC,175022.000,A,3748.5297,N,12217.9837,W,2.15,216.79,130911,,,A*7A
$GPRMC,175023.000,A,3748.5293,N,12217.9840,W,1.89,216.15,130911,,,A*73
$GPRMC,175024.000,A,3748.5286,N,12217.9846,W,1.74,220.48,130911,,,A*79
$GPRMC,175025.000,A,3748.5281,N,12217.9851,W,1.38,202.88,130911,,,A*7D
$GPRMC,175026.000,A,3748.5275,N,12217.9856,W,1.89,218.66,130911,,,A*73
$GPRMC,175027.000,A,3748.5263,N,12217.9863,W,2.56,209.37,130911,,,A*76
$GPRMC,175028.000,A,3748.5255,N,12217.9870,W,2.01,214.80,130911,,,A*7C
$GPRMC,175029.000,A,3748.5251,N,12217.9874,W,2.12,211.95,130911,,,A*7E
$GPRMC,175030.000,A,3748.5243,N,12217.9880,W,2.41,208.17,130911,,,A*7A
$GPRMC,175031.000,A,3748.5237,N,12217.9887,W,2.60,198.43,130911,,,A*77
$GPRMC,175032.000,A,3748.5231,N,12217.9889,W,2.48,199.08,130911,,,A*78
$GPRMC,175033.000,A,3748.5225,N,12217.9894,W,2.47,204.45,130911,,,A*71
$GPRMC,175034.000,A,3748.5218,N,12217.9895,W,1.90,191.87,130911,,,A*71
$GPRMC,175035.000,A,3748.5210,N,12217.9903,W,1.90,197.92,130911,,,A*74
$GPRMC,175036.000,A,3748.5201,N,12217.9913,W,2.43,203.87,130911,,,A*71
$GPRMC,175037.000,A,3748.5194,N,12217.9915,W,2.52,199.73,130911,,,A*72
$GPRMC,175038.000,A,3748.5195,N,12217.9913,W,1.73,199.13,130911,,,A*7C
$GPRMC,175039.000,A,3748.5190,N,12217.9915,W,1.71,191.90,130911,,,A*7F
$GPRMC,175040.000,A,3748.5180,N,12217.9923,W,2.53,210.98,130911,,,A*74
$GPRMC,175041.000,A,3748.5172,N,12217.9931,W,1.94,212.77,130911,,,A*70
$GPRMC,175042.000,A,3748.5166,N,12217.9937,W,1.88,215.51,130911,,,A*7E
$GPRMC,175043.000,A,3748.5160,N,12217.9941,W,2.48,205.80,130911,,,A*7A
$GPRMC,175044.000,A,3748.5152,N,12217.9949,W,2.25,201.60,130911,,,A*75
$GPRMC,175045.000,A,3748.5150,N,12217.9952,W,2.24,210.12,130911,,,A*78
$GPRMC,175046.000,A,3748.5145,N,12217.9956,W,1.97,202.90,130911,,,A*79
$GPRMC,175047.000,A,3748.5136,N,12217.9959,W,1.93,182.06,130911,,,A*73
$GPRMC,175048.000,A,3748.5128,N,12217.9960,W,1.74,195.08,130911,,,A*78
$GPRMC,175049.000,A,3748.5122,N,12217.9962,W,1.83,213.61,130911,,,A*7B
$GPRMC,175050.000,A,3748.5115,N,12217.9967,W,2.11,216.80,130911,,,A*70
$GPRMC,175051.000,A,3748.5112,N,12217.9971,W,1.16,221.17,130911,,,A*7F
$GPRMC,175052.000,A,3748.5105,N,12217.9977,W,1.49,199.71,130911,,,A*76
$GPRMC,175053.000,A,3748.5096,N,12217.9985,W,2.36,200.42,130911,,,A*79
$GPRMC,175054.000,A,3748.5089,N,12217.9990,W,2.02,210.15,130911,,,A*70
$GPRMC,175055.000,A,3748.5080,N,12217.9996,W,1.68,209.11,130911,,,A*7D
$GPRMC,175056.000,A,3748.5068,N,12218.0006,W,1.64,211.00,130911,,,A*7B
$GPRMC,175057.000,A,3748.5061,N,12218.0012,W,2.08,215.66,130911,,,A*7B
$GPRMC,175058.000,A,3748.5060,N,12218.0016,W,1.84,223.10,130911,,,A*72
$GPRMC,175059.000,A,3748.5055,N,12218.0023,W,1.91,209.45,130911,,,A*7F
$GPRMC,175100.000,A,3748.5053,N,12218.0026,W,1.58,201.17,130911,,,A*7B
$GPRMC,175101.000,A,3748.5042,N,12218.0034,W,1.60,201.49,130911,,,A*79
$GPRMC,175102.000,A,3748.5033,N,12218.0040,W,2.68,205.42,130911,,,A*7B
$GPRMC,175103.000,A,3748.5028,N,12218.0045,W,2.42,216.94,130911,,,A*74
$GPRMC,175104.000,A,3748.5023,N,12218.0049,W,2.50,207.01,130911,,,A*7B
$GPRMC,175105.000,A,3748.5016,N,12218.0051,W,2.50,200.78,130911,,,A*7C
$GPRMC,175106.000,A,3748.5010,N,12218.0053,W,2.37,201.25,130911,,,A*73
$GPRMC,175107.000,A,3748.5005,N,12218.0056,W,1.85,212.75,130911,,,A*7E
$GPRMC,175108.000,A,3748.5002,N,12218.0061,W,1.91,214.05,130911,,,A*76
$GPRMC,175109.000,A,3748.4997,N,12218.0064,W,2.41,213.38,130911,,,A*71
$GPRMC,175110.000,A,3748.4992,N,12218.0068,W,2.42,215.90,130911,,,A*77
$GPRMC,175111.000,A,3748.4986,N,12218.0071,W,2.47,211.62,130911,,,A*77
$GPRMC,175112.000,A,3748.4981,N,12218.0076,W,2.70,209.72,130911,,,A*78
$GPRMC,175113.000,A,3748.4972,N,12218.0086,W,3.16,210.34,130911,,,A*71
$GPRMC,175114.000,A,3748.4964,N,12218.0092,W,3.02,211.91,130911,,,A*7F
$GPRMC,175115.000,A,3748.4956,N,12218.0098,W,2.70,211.34,130911,,,A*7E
$GPRMC,175116.000,A,3748.4949,N,12218.0103,W,2.55,205.10,130911,,,A*74
$GPRMC,175117.000,A,3748.4943,N,12218.0108,W,2.75,207.71,130911,,,A*73
$GPRMC,175118.000,A,3748.4936,N,12218.0114,W,2.26,199.32,130911,,,A*76
$GPRMC,175119.000,A,3748.4930,N,12218.0119,W,2.40,194.92,130911,,,A*7B
$GPRMC,175120.000,A,3748.4921,N,12218.0125,W,2.84,196.19,130911,,,A*77
$GPRMC,175121.000,A,3748.4913,N,12218.0131,W,2.68,196.62,130911,,,A*7C
$GPRMC,175122.000,A,3748.4902,N,12218.0140,W,2.27,203.27,130911,,,A*7C
$GPRMC,175123.000,A,3748.4893,N,12218.0148,W,2.55,200.40,130911,,,A*7B
$GPRMC,175124.000,A,3748.4886,N,12218.0154,W,2.56,213.08,130911,,,A*78
$GPRMC,175125.000,A,3748.4882,N,12218.0157,W,2.74,224.25,130911,,,A*75
$GPRMC,175126.000,A,3748.4875,N,12218.0164,W,2.86,219.31,130911,,,A*78
$GPRMC,175127.000,A,3748.4870,N,12218.0171,W,2.39,214.12,130911,,,A*70
$GPRMC,175128.000,A,3748.4865,N,12218.0179,W,2.73,225.72,130911,,,A*79
$GPRMC,175129.000,A,3748.4859,N,12218.0179,W,2.62,203.56,130911,,,A*75
$GPRMC,175130.000,A,3748.4850,N,12218.0186,W,2.86,205.79,130911,,,A*75
$GPRMC,175131.000,A,3748.4840,N,12218.0193,W,3.03,212.46,130911,,,A*77
$GPRMC,175132.000,A,3748.4833,N,12218.0203,W,2.91,215.78,130911,,,A*7A
$GPRMC,175133.000,A,3748.4825,N,12218.0212,W,3.33,213.08,130911,,,A*74
$GPRMC,175134.000,A,3748.4816,N,12218.0224,W,2.96,210.35,130911,,,A*75
$GPRMC,175135.000,A,3748.4809,N,12218.0230,W,2.96,210.18,130911,,,A*70
$GPRMC,175136.000,A,3748.4802,N,12218.0238,W,3.08,210.06,130911,,,A*79
$GPRMC,175137.000,A,3748.4798,N,12218.0249,W,2.75,205.25,130911,,,A*7C
$GPRMC,175138.000,A,3748.4793,N,12218.0258,W,2.71,210.21,130911,,,A*7C
$GPRMC,175139.000,A,3748.4787,N,12218.0264,W,2.56,210.17,130911,,,A*77
$GPRMC,175140.000,A,3748.4781,N,12218.0268,W,2.74,208.20,130911,,,A*7E
$GPRMC,175141.000,A,3748.4774,N,12218.0272,W,2.72,206.00,130911,,,A*74
$GPRMC,175142.000,A,3748.4769,N,12218.0276,W,2.48,207.42,130911,,,A*71
$GPRMC,175143.000,A,3748.4760,N,12218.0282,W,2.66,205.22,130911,,,A*7A
$GPRMC,175144.000,A,3748.4752,N,12218.0286,W,2.65,208.59,130911,,,A*7A
$GPRMC,175145.000,A,3748.4745,N,12218.0289,W,2.67,202.89,130911,,,A*77
$GPRMC,175146.000,A,3748.4736,N,12218.0292,W,2.74,209.06,130911,,,A*74
$GPRMC,175147.000,A,3748.4729,N,12218.0296,W,2.47,200.20,130911,,,A*72
$GPRMC,175148.000,A,3748.4721,N,12218.0305,W,2.90,212.91,130911,,,A*7D
$GPRMC,175149.000,A,3748.4711,N,12218.0311,W,3.02,210.65,130911,,,A*79
$GPRMC,175150.000,A,3748.4701,N,12218.0317,W,2.67,200.88,130911,,,A*76
$GPRMC,175151.000,A,3748.4697,N,12218.0321,W,2.42,206.28,130911,,,A*77
$GPRMC,175152.000,A,3748.4690,N,12218.0325,W,2.66,206.22,130911,,,A*7B
$GPRMC,175153.000,A,3748.4684,N,12218.0328,W,2.62,208.34,130911,,,A*7F
$GPRMC,175154.000,A,3748.4679,N,12218.0330,W,2.81,204.91,130911,,,A*7D
$GPRMC,175155.000,A,3748.4669,N,12218.0333,W,3.31,198.40,130911,,,A*7E
$GPRMC,175156.000,A,3748.4664,N,12218.0333,W,2.97,195.98,130911,,,A*75
$GPRMC,175157.000,A,3748.4651,N,12218.0342,W,3.23,201.18,130911,,,A*7C
$GPRMC,175158.000,A,3748.4643,N,12218.0348,W,2.84,202.50,130911,,,A*79
$GPRMC,175159.000,A,3748.4630,N,12218.0358,W,3.01,202.29,130911,,,A*7F
$GPRMC,175200.000,A,3748.4623,N,12218.0361,W,2.57,198.14,130911,,,A*74
$GPRMC,175201.000,A,3748.4616,N,12218.0362,W,2.75,199.69,130911,,,A*7B
$GPRMC,175202.000,A,3748.4607,N,12218.0364,W,2.90,194.90,130911,,,A*7E
$GPRMC,175203.000,A,3748.4598,N,12218.0367,W,2.71,180.57,130911,,,A*78
$GPRMC,175204.000,A,3748.4587,N,12218.0372,W,2.71,193.10,130911,,,A*74
$GPRMC,175205.000,A,3748.4580,N,12218.0372,W,2.73,200.46,130911,,,A*7A
$GPRMC,175206.000,A,3748.4572,N,12218.0378,W,2.82,201.10,130911,,,A*72
$GPRMC,175207.000,A,3748.4569,N,12218.0379,W,1.86,204.25,130911,,,A*7C
$GPRMC,175208.000,A,3748.4566,N,12218.0379,W,2.14,190.40,130911,,,A*79
$GPRMC,175209.000,A,3748.4560,N,12218.0382,W,2.81,193.54,130911,,,A*70
$GPRMC,175210.000,A,3748.4550,N,12218.0384,W,2.75,189.33,130911,,,A*7C
$GPRMC,175211.000,A,3748.4545,N,12218.0382,W,2.71,186.68,130911,,,A*7A
$GPRMC,175212.000,A,3748.4541,N,12218.0377,W,2.44,189.40,130911,,,A*74
$GPRMC,175213.000,A,3748.4534,N,12218.0378,W,2.58,192.04,130911,,,A*7F
$GPRMC,175214.000,A,3748.4525,N,12218.0383,W,2.78,203.67,130911,,,A*70
$GPRMC,175215.000,A,3748.4519,N,12218.0382,W,2.76,189.50,130911,,,A*74
$GPRMC,175216.000,A,3748.4509,N,12218.0385,W,2.72,195.52,130911,,,A*7A
$GPRMC,175217.000,A,3748.4499,N,12218.0389,W,2.91,201.48,130911,,,A*77
$GPRMC,175218.000,A,3748.4490,N,12218.0394,W,2.45,198.89,130911,,,A*7A
$GPRMC,175219.000,A,3748.4482,N,12218.0396,W,2.76,195.66,130911,,,A*76
$GPRMC,175220.000,A,3748.4477,N,12218.0395,W,2.81,179.16,130911,,,A*78
$GPRMC,175221.000,A,3748.4470,N,12218.0394,W,2.70,184.98,130911,,,A*75
$GPRMC,175222.000,A,3748.4463,N,12218.0400,W,2.77,195.13,130911,,,A*7A
$GPRMC,175223.000,A,3748.4456,N,12218.0401,W,2.73,187.17,130911,,,A*7F
$GPRMC,175224.000,A,3748.4447,N,12218.0403,W,2.68,185.70,130911,,,A*73
$GPRMC,175225.000,A,3748.4442,N,12218.0402,W,2.20,178.83,130911,,,A*74
$GPRMC,175226.000,A,3748.4436,N,12218.0404,W,2.38,182.31,130911,,,A*77
$GPRMC,175227.000,A,3748.4429,N,12218.0407,W,2.44,181.79,130911,,,A*7F
$GPRMC,175228.000,A,3748.4421,N,12218.0411,W,2.79,191.90,130911,,,A*77
$GPRMC,175229.000,A,3748.4409,N,12218.0418,W,2.88,202.47,130911,,,A*78
$GPRMC,175230.000,A,3748.4403,N,12218.0419,W,2.35,193.44,130911,,,A*75
$GPRMC,175231.000,A,3748.4392,N,12218.0425,W,2.52,194.00,130911,,,A*72
$GPRMC,175232.000,A,3748.4382,N,12218.0430,W,2.78,193.51,130911,,,A*7F
$GPRMC,175233.000,A,3748.4376,N,12218.0433,W,2.21,190.72,130911,,,A*78
$GPRMC,175234.000,A,3748.4368,N,12218.0437,W,2.42,190.50,130911,,,A*71
$GPRMC,175235.000,A,3748.4359,N,12218.0442,W,2.58,194.41,130911,,,A*7F
$GPRMC,175236.000,A,3748.4350,N,12218.0448,W,2.04,201.41,130911,,,A*79
$GPRMC,175237.000,A,3748.4346,N,12218.0451,W,1.89,200.87,130911,,,A*7A
$GPRMC,175238.000,A,3748.4344,N,12218.0450,W,1.99,191.09,130911,,,A*7A
$GPRMC,175239.000,A,3748.4336,N,12218.0452,W,2.01,194.61,130911,,,A*75
$GPRMC,175240.000,A,3748.4330,N,12218.0452,W,2.47,197.66,130911,,,A*7B
$GPRMC,175241.000,A,3748.4322,N,12218.0455,W,2.18,198.63,130911,,,A*7E
$GPRMC,175242.000,A,3748.4315,N,12218.0458,W,1.69,199.22,130911,,,A*75
$GPRMC,175243.000,A,3748.4308,N,12218.0461,W,2.06,200.01,130911,,,A*7A
$GPRMC,175244.000,A,3748.4305,N,12218.0467,W,1.24,206.06,130911,,,A*74
$GPRMC,175245.000,A,3748.4300,N,12218.0470,W,1.64,182.49,130911,,,A*76
$GPRMC,175246.000,A,3748.4287,N,12218.0472,W,2.58,176.95,130911,,,A*7F
$GPRMC,175247.000,A,3748.4274,N,12218.0478,W,2.21,191.86,130911,,,A*7D
$GPRMC,175248.000,A,3748.4266,N,12218.0481,W,1.98,194.32,130911,,,A*7C
$GPRMC,175249.000,A,3748.4259,N,12218.0483,W,1.92,189.96,130911,,,A*7B
$GPRMC,175250.000,A,3748.4247,N,12218.0490,W,1.68,183.39,130911,,,A*74
$GPRMC,175251.000,A,3748.4238,N,12218.0493,W,2.59,189.92,130911,,,A*74
$GPRMC,175252.000,A,3748.4227,N,12218.0499,W,2.90,198.12,130911,,,A*7E
$GPRMC,175253.000,A,3748.4212,N,12218.0508,W,2.51,206.56,130911,,,A*79
$GPRMC,175254.000,A,3748.4200,N,12218.0519,W,2.40,211.26,130911,,,A*7C
$GPRMC,175255.000,A,3748.4197,N,12218.0526,W,2.25,207.40,130911,,,A*78
$GPRMC,175256.000,A,3748.4194,N,12218.0528,W,2.60,193.65,130911,,,A*7E
