$ADVER,3080,2.3
$GPRMC,175358.288,A,3748.8071,N,12217.8785,W,0.18,293.00,140612,,,A*71
$GPRMC,175359.288,A,3748.8071,N,12217.8788,W,0.33,299.74,140612,,,A*7D
$GPRMC,175400.287,A,3748.8069,N,12217.8789,W,0.45,290.17,140612,,,A*7C
$GPRMC,175401.287,A,3748.8067,N,12217.8788,W,0.32,290.10,140612,,,A*75
$GPRMC,175402.288,A,3748.8066,N,12217.8787,W,0.28,297.47,140612,,,A*79
$GPRMC,175403.287,A,3748.8065,N,12217.8786,W,0.41,287.57,140612,,,A*7A
$GPRMC,175404.287,A,3748.7996,N,12217.8643,W,0.12,92.26,140612,,,A*49
$GPRMC,175405.287,A,3748.7992,N,12217.8633,W,0.08,142.37,140612,,,A*7C
$GPRMC,175406.000,A,3748.7989,N,12217.8635,W,0.06,120.94,140612,,,A*7D
$GPRMC,175407.000,A,3748.7989,N,12217.8635,W,0.07,91.50,140612,,,A*4E
$GPRMC,175408.000,A,3748.7988,N,12217.8634,W,0.09,99.81,140612,,,A*4B
$GPRMC,175409.000,A,3748.7988,N,12217.8634,W,0.25,86.86,140612,,,A*4D
$GPRMC,175410.000,A,3748.7991,N,12217.8632,W,0.12,73.52,140612,,,A*4C
$GPRMC,175411.000,A,3748.7998,N,12217.8624,W,0.28,35.12,140612,,,A*4C
$GPRMC,175412.000,A,3748.8002,N,12217.8622,W,0.16,50.46,140612,,,A*43
$GPRMC,175413.000,A,3748.8004,N,12217.8623,W,0.08,60.62,140612,,,A*4F
$GPRMC,175414.000,A,3748.8006,N,12217.8625,W,0.10,133.89,140612,,,A*77
$GPRMC,175415.000,A,3748.8008,N,12217.8628,W,0.24,9.98,140612,,,A*7A
$GPRMC,175416.000,A,3748.8011,N,12217.8629,W,0.71,65.60,140612,,,A*4D
$GPRMC,175417.000,A,3748.8017,N,12217.8628,W,0.64,27.87,140612,,,A*40
$GPRMC,175418.000,A,3748.8018,N,12217.8628,W,0.56,24.73,140612,,,A*49
$GPRMC,175419.000,A,3748.8014,N,12217.8629,W,0.28,112.92,140612,,,A*77
$GPRMC,175420.000,A,3748.8012,N,12217.8637,W,0.47,268.00,140612,,,A*78
$GPRMC,175421.000,A,3748.8013,N,12217.8643,W,0.79,269.71,140612,,,A*71
$GPRMC,175422.000,A,3748.8011,N,12217.8644,W,0.31,250.91,140612,,,A*7F
$GPRMC,175423.000,A,3748.8011,N,12217.8643,W,0.15,78.42,140612,,,A*49
$GPRMC,175424.000,A,3748.8011,N,12217.8640,W,0.42,124.30,140612,,,A*72
$GPRMC,175425.000,A,3748.8012,N,12217.8635,W,0.43,70.17,140612,,,A*46
$GPRMC,175426.000,A,3748.8012,N,12217.8628,W,0.03,116.39,140612,,,A*70
$GPRMC,175427.000,A,3748.8012,N,12217.8625,W,0.18,170.84,140612,,,A*70
$GPRMC,175428.000,A,3748.8013,N,12217.8619,W,0.42,125.74,140612,,,A*71
$GPRMC,175429.000,A,3748.8012,N,12217.8613,W,0.69,115.76,140612,,,A*73
$GPRMC,175430.000,A,3748.8012,N,12217.8611,W,0.27,71.43,140612,,,A*46
$GPRMC,175431.000,A,3748.8011,N,12217.8610,W,0.09,91.01,140612,,,A*41
$GPRMC,175432.000,A,3748.8010,N,12217.8609,W,0.36,48.23,140612,,,A*43
$GPRMC,175433.000,A,3748.8010,N,12217.8608,W,0.24,81.88,140612,,,A*44
$GPRMC,175434.000,A,3748.8008,N,12217.8607,W,0.75,120.33,140612,,,A*7B
$GPRMC,175435.000,A,3748.8009,N,12217.8601,W,0.79,85.24,140612,,,A*49
$GPRMC,175436.000,A,3748.8009,N,12217.8598,W,0.60,61.32,140612,,,A*4C
$GPRMC,175437.000,A,3748.8012,N,12217.8596,W,0.45,14.57,140612,,,A*4F
$GPRMC,175438.000,A,3748.8012,N,12217.8594,W,0.17,30.41,140612,,,A*44
$GPRMC,175439.000,A,3748.8009,N,12217.8595,W,0.16,145.36,140612,,,A*7C
$GPRMC,175440.000,A,3748.8007,N,12217.8595,W,0.30,75.51,140612,,,A*4B
$GPRMC,175441.000,A,3748.8006,N,12217.8595,W,0.25,328.71,140612,,,A*76
$GPRMC,175442.000,A,3748.8006,N,12217.8594,W,0.48,344.10,140612,,,A*72
$GPRMC,175443.000,A,3748.8006,N,12217.8599,W,0.45,8.22,140612,,,A*79
$GPRMC,175444.000,A,3748.8004,N,12217.8599,W,0.41,1.76,140612,,,A*70
$GPRMC,175445.000,A,3748.8006,N,12217.8598,W,0.52,34.02,140612,,,A*45
$GPRMC,175446.000,A,3748.8008,N,12217.8597,W,0.29,37.44,140612,,,A*4A
$GPRMC,175447.000,A,3748.8008,N,12217.8595,W,0.40,122.34,140612,,,A*74
$GPRMC,175448.000,A,3748.8008,N,12217.8591,W,0.50,82.88,140612,,,A*42
$GPRMC,175449.000,A,3748.8006,N,12217.8590,W,0.09,125.16,140612,,,A*7B
$GPRMC,175450.000,A,3748.8003,N,12217.8589,W,0.27,142.01,140612,,,A*75
$GPRMC,175451.000,A,3748.8002,N,12217.8587,W,0.43,136.58,140612,,,A*76
$GPRMC,175452.000,A,3748.8003,N,12217.8585,W,0.21,114.29,140612,,,A*74
$GPRMC,175453.000,A,3748.8004,N,12217.8582,W,0.21,67.62,140612,,,A*4F
$GPRMC,175454.000,A,3748.8005,N,12217.8581,W,0.23,268.65,140612,,,A*72
$GPRMC,175455.000,A,3748.8006,N,12217.8581,W,0.36,271.19,140612,,,A*77
$GPRMC,175456.000,A,3748.8006,N,12217.8581,W,0.54,262.96,140612,,,A*75
$GPRMC,175457.000,A,3748.8009,N,12217.8583,W,0.76,319.65,140612,,,A*78
$GPRMC,175458.000,A,3748.8012,N,12217.8584,W,0.48,337.15,140612,,,A*7C
$GPRMC,175459.000,A,3748.8014,N,12217.8586,W,1.26,347.47,140612,,,A*70
$GPRMC,175500.000,A,3748.8016,N,12217.8587,W,1.24,330.53,140612,,,A*79
$GPRMC,175501.000,A,3748.8017,N,12217.8587,W,0.52,310.85,140612,,,A*70
$GPRMC,175502.000,A,3748.8016,N,12217.8587,W,0.24,71.71,140612,,,A*4C
$GPRMC,175503.000,A,3748.8012,N,12217.8588,W,0.32,165.63,140612,,,A*76
$GPRMC,175504.000,A,3748.8007,N,12217.8588,W,0.38,199.94,140612,,,A*74
$GPRMC,175505.000,A,3748.8004,N,12217.8590,W,0.51,255.21,140612,,,A*7D
$GPRMC,175506.000,A,3748.8002,N,12217.8592,W,0.29,269.48,140612,,,A*75
$GPRMC,175507.000,A,3748.8001,N,12217.8593,W,0.23,271.84,140612,,,A*75
$GPRMC,175508.000,A,3748.8000,N,12217.8595,W,0.28,149.79,140612,,,A*7C
$GPRMC,175509.000,A,3748.7998,N,12217.8595,W,0.42,132.14,140612,,,A*71
$GPRMC,175510.000,A,3748.7998,N,12217.8595,W,0.13,175.85,140612,,,A*76
$GPRMC,175511.000,A,3748.7997,N,12217.8596,W,0.39,224.68,140612,,,A*77
$GPRMC,175512.000,A,3748.7997,N,12217.8598,W,0.16,233.87,140612,,,A*70
$GPRMC,175513.000,A,3748.7998,N,12217.8598,W,0.10,242.47,140612,,,A*72
$GPRMC,175514.000,A,3748.7998,N,12217.8599,W,0.07,13.50,140612,,,A*42
$GPRMC,175515.000,A,3748.7999,N,12217.8599,W,0.13,104.67,140612,,,A*74
$GPRMC,175516.000,A,3748.7998,N,12217.8600,W,0.21,224.20,140612,,,A*76
$GPRMC,175517.000,A,3748.7998,N,12217.8601,W,0.39,241.84,140612,,,A*72
$GPRMC,175518.000,A,3748.7998,N,12217.8602,W,0.23,257.13,140612,,,A*7C
$GPRMC,175519.000,A,3748.7999,N,12217.8603,W,0.21,264.99,140612,,,A*7D
$GPRMC,175520.000,A,3748.7999,N,12217.8604,W,0.25,274.34,140612,,,A*72
$GPRMC,175521.000,A,3748.7999,N,12217.8604,W,0.19,95.50,140612,,,A*43
$GPRMC,175522.000,A,3748.8000,N,12217.8603,W,0.27,113.11,140612,,,A*76
$GPRMC,175523.000,A,3748.8000,N,12217.8603,W,0.07,226.48,140612,,,A*7C
$GPRMC,175524.000,A,3748.8000,N,12217.8602,W,0.44,92.05,140612,,,A*49
$GPRMC,175525.000,A,3748.8001,N,12217.8600,W,0.46,77.08,140612,,,A*4F
$GPRMC,175526.000,A,3748.8001,N,12217.8600,W,0.06,61.17,140612,,,A*41
$GPRMC,175527.000,A,3748.8002,N,12217.8600,W,0.17,272.27,140612,,,A*70
$GPRMC,175528.000,A,3748.8002,N,12217.8601,W,0.11,263.53,140612,,,D*7E
$GPRMC,175529.000,A,3748.8002,N,12217.8602,W,0.04,327.17,140612,,,D*79
$GPRMC,175530.000,A,3748.8002,N,12217.8603,W,0.22,293.09,140612,,,D*75
$GPRMC,175531.000,A,3748.8003,N,12217.8604,W,0.21,296.67,140612,,,D*7C
$GPRMC,175532.000,A,3748.8003,N,12217.8604,W,0.18,19.97,140612,,,D*4F
$GPRMC,175533.000,A,3748.8003,N,12217.8604,W,0.13,16.68,140612,,,D*4A
$GPRMC,175534.000,A,3748.8003,N,12217.8605,W,0.17,345.29,140612,,,D*78
$GPRMC,175535.000,A,3748.8003,N,12217.8605,W,0.06,81.84,140612,,,D*45
$GPRMC,175536.000,A,3748.8002,N,12217.8605,W,0.30,225.75,140612,,,D*70
$GPRMC,175537.000,A,3748.8002,N,12217.8606,W,0.11,257.26,140612,,,D*72
$GPRMC,175538.000,A,3748.8001,N,12217.8606,W,0.12,115.33,140612,,,D*7C
$GPRMC,175539.000,A,3748.8001,N,12217.8606,W,0.08,11.33,140612,,,D*43
$GPRMC,175540.000,A,3748.8001,N,12217.8606,W,0.12,340.93,140612,,,D*7B
$GPRMC,175541.000,A,3748.8001,N,12217.8606,W,0.09,292.52,140612,,,D*73
$GPRMC,175542.000,A,3748.8001,N,12217.8607,W,0.43,274.25,140612,,,D*77
$GPRMC,175543.000,A,3748.8000,N,12217.8609,W,0.52,247.57,140612,,,D*7C
$GPRMC,175544.000,A,3748.8000,N,12217.8609,W,0.43,246.46,140612,,,D*7A
$GPRMC,175545.000,A,3748.8000,N,12217.8610,W,0.13,270.77,140612,,,D*71
$GPRMC,175546.000,A,3748.8000,N,12217.8610,W,0.44,276.55,140612,,,D*76
$GPRMC,175547.000,A,3748.8000,N,12217.8610,W,0.14,206.25,140612,,,D*72
$GPRMC,175548.000,A,3748.8000,N,12217.8609,W,0.27,71.85,140612,,,D*4D
$GPRMC,175549.000,A,3748.7998,N,12217.8607,W,0.26,114.47,140612,,,D*78
$GPRMC,175550.000,A,3748.7996,N,12217.8603,W,0.47,94.48,140612,,,D*4B
$GPRMC,175551.000,A,3748.7993,N,12217.8603,W,1.22,120.20,140612,,,D*7D
$GPRMC,175552.000,A,3748.7990,N,12217.8599,W,1.82,114.15,140612,,,D*76
$GPRMC,175553.000,A,3748.7988,N,12217.8594,W,1.54,120.33,140612,,,D*7B
$GPRMC,175554.000,A,3748.7985,N,12217.8588,W,1.82,116.11,140612,,,D*72
$GPRMC,175555.000,A,3748.7981,N,12217.8581,W,2.45,129.45,140612,,,D*7B
$GPRMC,175556.000,A,3748.7978,N,12217.8574,W,2.29,128.27,140612,,,D*7B
$GPRMC,175557.000,A,3748.7975,N,12217.8566,W,2.23,128.30,140612,,,D*78
$GPRMC,175558.000,A,3748.7974,N,12217.8558,W,2.04,127.36,140612,,,D*77
$GPRMC,175559.000,A,3748.7969,N,12217.8551,W,2.06,130.52,140612,,,D*75
$GPRMC,175600.000,A,3748.7964,N,12217.8544,W,2.60,125.14,140612,,,D*75
$GPRMC,175601.000,A,3748.7959,N,12217.8537,W,2.24,112.96,140612,,,D*70
$GPRMC,175602.000,A,3748.7955,N,12217.8530,W,2.10,118.25,140612,,,D*7D
$GPRMC,175603.000,A,3748.7951,N,12217.8522,W,2.34,132.67,140612,,,D*73
$GPRMC,175604.000,A,3748.7947,N,12217.8515,W,2.30,138.43,140612,,,D*7F
$GPRMC,175605.000,A,3748.7943,N,12217.8510,W,1.87,138.61,140612,,,D*70
$GPRMC,175606.000,A,3748.7941,N,12217.8505,W,1.19,123.15,140612,,,D*7B
$GPRMC,175607.000,A,3748.7941,N,12217.8502,W,0.56,116.94,140612,,,D*78
$GPRMC,175608.000,A,3748.7941,N,12217.8501,W,0.20,170.77,140612,,,D*78
$GPRMC,175609.000,A,3748.7942,N,12217.8501,W,0.20,243.53,140612,,,D*7F
$GPRMC,175610.000,A,3748.7942,N,12217.8502,W,0.24,198.06,140612,,,D*75
$GPRMC,175611.000,A,3748.7941,N,12217.8502,W,0.24,212.96,140612,,,D*7F
$GPRMC,175612.000,A,3748.7940,N,12217.8502,W,0.43,179.60,140612,,,D*7B
$GPRMC,175613.000,A,3748.7939,N,12217.8501,W,0.42,166.60,140612,,,D*78
$GPRMC,175614.000,A,3748.7938,N,12217.8502,W,0.37,250.56,140612,,,D*7C
$GPRMC,175615.000,A,3748.7943,N,12217.8503,W,0.63,235.87,140612,,,D*7E
$GPRMC,175616.000,A,3748.7949,N,12217.8507,W,0.10,262.16,140612,,,D*7D
$GPRMC,175617.000,A,3748.7950,N,12217.8509,W,0.50,177.99,140612,,,D*7E
$GPRMC,175618.000,A,3748.7951,N,12217.8509,W,0.67,209.11,140612,,,D*7E
$GPRMC,175619.000,A,3748.7949,N,12217.8514,W,0.60,227.67,140612,,,D*70
$GPRMC,175620.000,A,3748.7947,N,12217.8518,W,0.11,276.04,140612,,,D*7F
$GPRMC,175621.000,A,3748.7947,N,12217.8519,W,0.38,91.70,140612,,,D*4C
$GPRMC,175622.000,A,3748.7947,N,12217.8518,W,0.60,76.83,140612,,,D*46
$GPRMC,175623.000,A,3748.7947,N,12217.8517,W,0.58,79.99,140612,,,D*47
$GPRMC,175624.000,A,3748.7946,N,12217.8516,W,0.48,83.91,140612,,,D*4C
$GPRMC,175625.000,A,3748.7946,N,12217.8515,W,0.41,118.40,140612,,,D*78
$GPRMC,175626.000,A,3748.7945,N,12217.8515,W,0.17,115.98,140612,,,D*73
$GPRMC,175627.000,A,3748.7945,N,12217.8516,W,0.13,76.24,140612,,,D*46
$GPRMC,175628.000,A,3748.7945,N,12217.8516,W,0.05,346.04,140612,,,D*7C
$GPRMC,175629.000,A,3748.7944,N,12217.8516,W,0.49,118.57,140612,,,D*7B
$GPRMC,175630.000,A,3748.7941,N,12217.8515,W,0.55,111.17,140612,,,D*75
$GPRMC,175631.000,A,3748.7942,N,12217.8515,W,0.35,97.70,140612,,,D*4F
$GPRMC,175632.000,A,3748.7943,N,12217.8516,W,0.13,11.87,140612,,,D*4C
$GPRMC,175633.000,A,3748.7945,N,12217.8517,W,0.23,21.00,140612,,,D*45
$GPRMC,175634.000,A,3748.7946,N,12217.8516,W,0.27,67.69,140612,,,D*49
$GPRMC,175635.000,A,3748.7947,N,12217.8516,W,0.24,82.83,140612,,,D*45
$GPRMC,175636.000,A,3748.7950,N,12217.8513,W,0.48,42.37,140612,,,D*4C
$GPRMC,175637.000,A,3748.7952,N,12217.8512,W,0.56,90.99,140612,,,D*4A
$GPRMC,175638.000,A,3748.7955,N,12217.8510,W,0.18,63.61,140612,,,D*41
$GPRMC,175639.000,A,3748.7957,N,12217.8513,W,0.21,290.21,140612,,,D*71
$GPRMC,175640.000,A,3748.7958,N,12217.8514,W,0.27,271.77,140612,,,D*7D
$GPRMC,175641.000,A,3748.7960,N,12217.8519,W,0.29,320.69,140612,,,D*7E
$GPRMC,175642.000,A,3748.7961,N,12217.8522,W,0.29,301.18,140612,,,D*71
$GPRMC,175643.000,A,3748.7961,N,12217.8528,W,0.08,260.72,140612,,,D*73
$GPRMC,175644.000,A,3748.7961,N,12217.8534,W,0.15,3.04,140612,,,D*73
$GPRMC,175645.000,A,3748.7962,N,12217.8537,W,0.26,31.12,140612,,,D*44
$GPRMC,175646.000,A,3748.7963,N,12217.8541,W,0.18,21.53,140612,,,D*4E
$GPRMC,175647.000,A,3748.7964,N,12217.8544,W,0.40,246.21,140612,,,D*76
$GPRMC,175648.000,A,3748.7965,N,12217.8548,W,0.26,270.83,140612,,,D*79
$GPRMC,175649.000,A,3748.7969,N,12217.8555,W,0.35,246.74,140612,,,D*77
$GPRMC,175650.000,A,3748.7972,N,12217.8556,W,0.31,288.17,140612,,,D*75
$GPRMC,175651.000,A,3748.7977,N,12217.8567,W,0.57,308.12,140612,,,D*7F
$GPRMC,175652.000,A,3748.7981,N,12217.8572,W,0.59,310.11,140612,,,D*75
$GPRMC,175653.000,A,3748.7980,N,12217.8573,W,0.55,280.65,140612,,,D*73
$GPRMC,175654.000,A,3748.7982,N,12217.8569,W,0.33,275.30,140612,,,D*77
$GPRMC,175655.000,A,3748.7984,N,12217.8568,W,0.47,46.73,140612,,,D*47
$GPRMC,175656.000,A,3748.7985,N,12217.8569,W,0.24,129.56,140612,,,D*7E
$GPRMC,175657.000,A,3748.7985,N,12217.8574,W,0.56,139.07,140612,,,D*73
$GPRMC,175658.000,A,3748.7984,N,12217.8581,W,0.40,211.39,140612,,,D*74
$GPRMC,175659.000,A,3748.7980,N,12217.8586,W,0.26,201.68,140612,,,D*73
$GPRMC,175700.000,A,3748.7976,N,12217.8587,W,0.29,97.47,140612,,,D*49
$GPRMC,175701.000,A,3748.7973,N,12217.8588,W,0.26,96.63,140612,,,D*4A
$GPRMC,175702.000,A,3748.7974,N,12217.8588,W,0.17,30.10,140612,,,D*44
$GPRMC,175703.000,A,3748.7975,N,12217.8590,W,0.25,48.54,140612,,,D*43
$GPRMC,175704.000,A,3748.7976,N,12217.8594,W,0.40,208.10,140612,,,D*76
$GPRMC,175705.000,A,3748.7975,N,12217.8601,W,1.12,221.99,140612,,,D*77
$GPRMC,175706.000,A,3748.7975,N,12217.8606,W,0.70,221.58,140612,,,D*7B
$GPRMC,175707.000,A,3748.7972,N,12217.8609,W,0.38,198.96,140612,,,D*7D
$GPRMC,175708.000,A,3748.7975,N,12217.8596,W,0.90,93.62,140612,,,D*43
$GPRMC,175709.000,A,3748.7979,N,12217.8579,W,1.54,111.72,140612,,,D*7C
$GPRMC,175710.000,A,3748.7978,N,12217.8570,W,1.84,125.31,140612,,,D*71
$GPRMC,175711.000,A,3748.7976,N,12217.8559,W,1.70,125.56,140612,,,D*7F
$GPRMC,175712.000,A,3748.7976,N,12217.8547,W,1.77,118.58,140612,,,D*74
$GPRMC,175713.000,A,3748.7976,N,12217.8534,W,1.84,93.74,140612,,,D*41
$GPRMC,175714.000,A,3748.7974,N,12217.8525,W,1.85,120.17,140612,,,D*79
$GPRMC,175715.000,A,3748.7970,N,12217.8514,W,1.99,110.42,140612,,,D*70
$GPRMC,175716.000,A,3748.7968,N,12217.8506,W,2.16,125.70,140612,,,D*7A
$GPRMC,175717.000,A,3748.7965,N,12217.8496,W,2.14,104.17,140612,,,D*7E
$GPRMC,175718.000,A,3748.7957,N,12217.8488,W,1.65,123.42,140612,,,D*7F
$GPRMC,175719.000,A,3748.7949,N,12217.8480,W,1.96,128.20,140612,,,D*7A
$GPRMC,175720.000,A,3748.7941,N,12217.8470,W,2.29,121.32,140612,,,D*7A
$GPRMC,175721.000,A,3748.7934,N,12217.8461,W,1.88,118.35,140612,,,D*7C
$GPRMC,175722.000,A,3748.7930,N,12217.8451,W,2.27,116.73,140612,,,D*72
$GPRMC,175723.000,A,3748.7927,N,12217.8440,W,2.24,121.31,140612,,,D*74
$GPRMC,175724.000,A,3748.7921,N,12217.8432,W,2.01,117.70,140612,,,D*77
$GPRMC,175725.000,A,3748.7917,N,12217.8425,W,1.92,123.76,140612,,,D*7D
$GPRMC,175726.000,A,3748.7914,N,12217.8417,W,1.91,121.04,140612,,,D*78
$GPRMC,175727.000,A,3748.7910,N,12217.8411,W,1.70,118.57,140612,,,D*78
$GPRMC,175728.000,A,3748.7907,N,12217.8404,W,1.98,117.32,140612,,,D*7F
$GPRMC,175729.000,A,3748.7904,N,12217.8393,W,2.16,103.87,140612,,,D*7A
$GPRMC,175730.000,A,3748.7900,N,12217.8385,W,2.05,120.93,140612,,,D*77
$GPRMC,175731.000,A,3748.7894,N,12217.8379,W,2.15,129.82,140612,,,D*71
$GPRMC,175732.000,A,3748.7889,N,12217.8373,W,2.15,121.08,140612,,,D*7E
$GPRMC,175733.000,A,3748.7883,N,12217.8366,W,2.07,122.76,140612,,,D*78
$GPRMC,175734.000,A,3748.7879,N,12217.8360,W,1.90,118.96,140612,,,D*76
$GPRMC,175735.000,A,3748.7875,N,12217.8354,W,1.75,116.97,140612,,,D*78
$GPRMC,175736.000,A,3748.7873,N,12217.8346,W,1.85,117.41,140612,,,D*7B
$GPRMC,175737.000,A,3748.7870,N,12217.8339,W,1.29,112.00,140612,,,D*77
$GPRMC,175738.000,A,3748.7867,N,12217.8335,W,0.71,144.01,140612,,,D*7C
$GPRMC,175739.000,A,3748.7864,N,12217.8332,W,1.38,126.29,140612,,,D*7B
$GPRMC,175740.000,A,3748.7860,N,12217.8327,W,1.37,121.50,140612,,,D*73
$GPRMC,175741.000,A,3748.7858,N,12217.8326,W,0.61,76.56,140612,,,D*4F
$GPRMC,175742.000,A,3748.7858,N,12217.8324,W,0.42,21.31,140612,,,D*4C
$GPRMC,175743.000,A,3748.7851,N,12217.8324,W,0.55,197.26,140612,,,D*78
$GPRMC,175744.000,A,3748.7846,N,12217.8323,W,0.04,92.68,140612,,,D*44
$GPRMC,175745.000,A,3748.7843,N,12217.8320,W,1.11,126.32,140612,,,D*77
$GPRMC,175746.000,A,3748.7841,N,12217.8315,W,1.85,117.31,140612,,,D*7C
$GPRMC,175747.000,A,3748.7836,N,12217.8311,W,2.10,119.98,140612,,,D*7B
$GPRMC,175748.000,A,3748.7836,N,12217.8301,W,2.40,125.04,140612,,,D*7A
$GPRMC,175749.000,A,3748.7833,N,12217.8292,W,2.30,120.07,140612,,,D*74
$GPRMC,175750.000,A,3748.7831,N,12217.8282,W,2.19,120.56,140612,,,D*70
$GPRMC,175751.000,A,3748.7828,N,12217.8274,W,2.24,129.99,140612,,,D*74
$GPRMC,175752.000,A,3748.7824,N,12217.8268,W,2.26,122.51,140612,,,D*7B
$GPRMC,175753.000,A,3748.7823,N,12217.8259,W,2.24,124.68,140612,,,D*71
$GPRMC,175754.000,A,3748.7823,N,12217.8249,W,2.25,123.89,140612,,,D*7E
$GPRMC,175755.000,A,3748.7821,N,12217.8240,W,2.28,113.79,140612,,,D*75
$GPRMC,175756.000,A,3748.7819,N,12217.8232,W,2.21,119.48,140612,,,D*79
$GPRMC,175757.000,A,3748.7816,N,12217.8224,W,2.39,120.97,140612,,,D*71
$GPRMC,175758.000,A,3748.7812,N,12217.8217,W,2.25,120.44,140612,,,D*79
$GPRMC,175759.000,A,3748.7809,N,12217.8209,W,2.32,122.60,140612,,,D*7F
$GPRMC,175800.000,A,3748.7807,N,12217.8199,W,2.57,120.24,140612,,,D*79
$GPRMC,175801.000,A,3748.7801,N,12217.8193,W,2.41,127.10,140612,,,D*73
$GPRMC,175802.000,A,3748.7798,N,12217.8185,W,2.47,117.85,140612,,,D*71
$GPRMC,175803.000,A,3748.7795,N,12217.8177,W,2.54,108.51,140612,,,D*75
$GPRMC,175804.000,A,3748.7790,N,12217.8170,W,2.33,120.36,140612,,,D*7A
$GPRMC,175805.000,A,3748.7786,N,12217.8163,W,2.65,126.82,140612,,,D*74
$GPRMC,175806.000,A,3748.7781,N,12217.8156,W,2.39,120.41,140612,,,D*76
$GPRMC,175807.000,A,3748.7777,N,12217.8149,W,2.50,130.15,140612,,,D*7F
$GPRMC,175808.000,A,3748.7772,N,12217.8143,W,1.97,115.28,140612,,,D*7E
$GPRMC,175809.000,A,3748.7768,N,12217.8140,W,1.23,120.10,140612,,,D*75
$GPRMC,175810.000,A,3748.7765,N,12217.8138,W,0.45,128.15,140612,,,D*73
$GPRMC,175811.000,A,3748.7763,N,12217.8135,W,1.11,136.31,140612,,,D*70
$GPRMC,175812.000,A,3748.7761,N,12217.8129,W,1.57,118.69,140612,,,D*7F
$GPRMC,175813.000,A,3748.7759,N,12217.8122,W,1.37,125.06,140612,,,D*7F
$GPRMC,175814.000,A,3748.7757,N,12217.8113,W,1.09,105.55,140612,,,D*7D
$GPRMC,175815.000,A,3748.7754,N,12217.8107,W,0.80,145.73,140612,,,D*7A
$GPRMC,175816.000,A,3748.7751,N,12217.8104,W,0.77,137.59,140612,,,D*7A
$GPRMC,175817.000,A,3748.7749,N,12217.8100,W,0.64,111.98,140612,,,D*7D
$GPRMC,175818.000,A,3748.7747,N,12217.8100,W,0.15,320.55,140612,,,D*7B
$GPRMC,175819.000,A,3748.7746,N,12217.8103,W,0.48,266.55,140612,,,D*73
$GPRMC,175820.000,A,3748.7744,N,12217.8109,W,0.69,256.75,140612,,,D*73
$GPRMC,175821.000,A,3748.7743,N,12217.8113,W,0.29,222.78,140612,,,D*74
$GPRMC,175822.000,A,3748.7742,N,12217.8115,W,0.44,133.92,140612,,,D*7C
$GPRMC,175823.000,A,3748.7741,N,12217.8113,W,0.44,128.02,140612,,,D*7B
$GPRMC,175824.000,A,3748.7740,N,12217.8112,W,0.62,167.11,140612,,,D*71
$GPRMC,175825.000,A,3748.7739,N,12217.8113,W,1.15,132.13,140612,,,D*7C
$GPRMC,175826.000,A,3748.7736,N,12217.8111,W,1.43,126.75,140612,,,D*74
$GPRMC,175827.000,A,3748.7736,N,12217.8104,W,1.85,117.60,140612,,,D*7D
$GPRMC,175828.000,A,3748.7733,N,12217.8098,W,1.64,119.14,140612,,,D*71
$GPRMC,175829.000,A,3748.7732,N,12217.8091,W,1.69,113.90,140612,,,D*73
$GPRMC,175830.000,A,3748.7729,N,12217.8086,W,1.67,120.08,140612,,,D*78
$GPRMC,175831.000,A,3748.7726,N,12217.8083,W,1.55,120.01,140612,,,D*7B
$GPRMC,175832.000,A,3748.7720,N,12217.8080,W,1.70,126.07,140612,,,D*7A
$GPRMC,175833.000,A,3748.7715,N,12217.8077,W,2.03,124.15,140612,,,D*73
$GPRMC,175834.000,A,3748.7709,N,12217.8072,W,2.26,135.96,140612,,,D*70
$GPRMC,175835.000,A,3748.7704,N,12217.8065,W,2.32,135.98,140612,,,D*71
$GPRMC,175836.000,A,3748.7701,N,12217.8058,W,2.16,130.70,140612,,,D*7C
$GPRMC,175837.000,A,3748.7699,N,12217.8051,W,2.35,125.18,140612,,,D*7F
$GPRMC,175838.000,A,3748.7697,N,12217.8043,W,2.12,117.12,140612,,,D*73
$GPRMC,175839.000,A,3748.7695,N,12217.8036,W,2.15,129.28,140612,,,D*71
$GPRMC,175840.000,A,3748.7692,N,12217.8028,W,2.05,129.62,140612,,,D*78
$GPRMC,175841.000,A,3748.7686,N,12217.8022,W,2.24,121.76,140612,,,D*78
$GPRMC,175842.000,A,3748.7682,N,12217.8015,W,2.31,115.80,140612,,,D*71
$GPRMC,175843.000,A,3748.7678,N,12217.8008,W,2.49,121.20,140612,,,D*7B
$GPRMC,175844.000,A,3748.7674,N,12217.8000,W,2.08,118.48,140612,,,D*79
$GPRMC,175845.000,A,3748.7671,N,12217.7992,W,2.29,124.70,140612,,,D*77
$GPRMC,175846.000,A,3748.7670,N,12217.7984,W,2.15,116.24,140612,,,D*7D
$GPRMC,175847.000,A,3748.7668,N,12217.7976,W,2.14,121.26,140612,,,D*7F
$GPRMC,175848.000,A,3748.7664,N,12217.7970,W,2.08,125.96,140612,,,D*78
$GPRMC,175849.000,A,3748.7661,N,12217.7963,W,2.18,128.41,140612,,,D*78
$GPRMC,175850.000,A,3748.7656,N,12217.7956,W,2.40,113.00,140612,,,D*72
$GPRMC,175851.000,A,3748.7654,N,12217.7948,W,2.44,109.68,140612,,,D*7F
$GPRMC,175852.000,A,3748.7653,N,12217.7936,W,2.51,103.98,140612,,,D*73
$GPRMC,175853.000,A,3748.7652,N,12217.7928,W,1.82,112.89,140612,,,D*71
$GPRMC,175854.000,A,3748.7652,N,12217.7917,W,2.35,109.11,140612,,,D*7E
$GPRMC,175855.000,A,3748.7650,N,12217.7908,W,2.27,102.94,140612,,,D*76
$GPRMC,175856.000,A,3748.7647,N,12217.7900,W,2.38,120.00,140612,,,D*78
$GPRMC,175857.000,A,3748.7640,N,12217.7895,W,2.48,119.83,140612,,,D*75
$GPRMC,175858.000,A,3748.7635,N,12217.7887,W,2.38,122.31,140612,,,D*7D
$GPRMC,175859.000,A,3748.7631,N,12217.7881,W,2.41,129.76,140612,,,D*78
$GPRMC,175900.000,A,3748.7624,N,12217.7876,W,2.18,122.54,140612,,,D*7E
$GPRMC,175901.000,A,3748.7620,N,12217.7869,W,2.14,119.33,140612,,,D*70
$GPRMC,175902.000,A,3748.7613,N,12217.7862,W,2.53,125.45,140612,,,D*75
$GPRMC,175903.000,A,3748.7609,N,12217.7854,W,2.20,115.71,140612,,,D*7A
$GPRMC,175904.000,A,3748.7602,N,12217.7848,W,2.68,127.72,140612,,,D*75
$GPRMC,175905.000,A,3748.7592,N,12217.7843,W,2.81,142.28,140612,,,D*7E
$GPRMC,175906.000,A,3748.7582,N,12217.7838,W,2.75,137.16,140612,,,D*74
$GPRMC,175907.000,A,3748.7571,N,12217.7835,W,2.65,139.04,140612,,,D*78
$GPRMC,175908.000,A,3748.7560,N,12217.7832,W,2.58,126.02,140612,,,D*76
$GPRMC,175909.000,A,3748.7554,N,12217.7827,W,2.68,123.75,140612,,,D*72
$GPRMC,175910.000,A,3748.7545,N,12217.7822,W,2.66,123.69,140612,,,D*7C
$GPRMC,175911.000,A,3748.7538,N,12217.7816,W,2.50,127.13,140612,,,D*7C
$GPRMC,175912.000,A,3748.7531,N,12217.7811,W,2.34,119.15,140612,,,D*78
$GPRMC,175913.000,A,3748.7523,N,12217.7805,W,2.40,121.43,140612,,,D*74
$GPRMC,175914.000,A,3748.7517,N,12217.7800,W,2.04,128.10,140612,,,D*7E
$GPRMC,175915.000,A,3748.7514,N,12217.7797,W,1.82,135.55,140612,,,D*7D
$GPRMC,175916.000,A,3748.7508,N,12217.7793,W,2.76,133.06,140612,,,D*7F
$GPRMC,175917.000,A,3748.7501,N,12217.7789,W,2.65,140.31,140612,,,D*7E
$GPRMC,175918.000,A,3748.7493,N,12217.7784,W,2.47,141.09,140612,,,D*7C
$GPRMC,175919.000,A,3748.7490,N,12217.7779,W,2.42,125.82,140612,,,D*78
$GPRMC,175920.000,A,3748.7488,N,12217.7772,W,2.15,118.31,140612,,,D*74
$GPRMC,175921.000,A,3748.7488,N,12217.7763,W,2.24,108.83,140612,,,D*7F
$GPRMC,175922.000,A,3748.7486,N,12217.7755,W,2.32,132.71,140612,,,D*74
$GPRMC,175923.000,A,3748.7483,N,12217.7748,W,2.39,138.40,140612,,,D*7F
$GPRMC,175924.000,A,3748.7480,N,12217.7740,W,2.69,129.50,140612,,,D*77
$GPRMC,175925.000,A,3748.7478,N,12217.7730,W,2.67,119.93,140612,,,D*74
$GPRMC,175926.000,A,3748.7477,N,12217.7720,W,2.67,108.53,140612,,,D*75
$GPRMC,175927.000,A,3748.7477,N,12217.7712,W,2.56,107.60,140612,,,D*78
$GPRMC,175928.000,A,3748.7474,N,12217.7704,W,2.49,115.83,140612,,,D*73
$GPRMC,175929.000,A,3748.7472,N,12217.7696,W,2.14,113.50,140612,,,D*7E
$GPRMC,175930.000,A,3748.7468,N,12217.7692,W,2.36,124.99,140612,,,D*78
$GPRMC,175931.000,A,3748.7463,N,12217.7684,W,2.55,134.32,140612,,,D*70
$GPRMC,175932.000,A,3748.7456,N,12217.7677,W,2.68,135.17,140612,,,D*71
$GPRMC,175933.000,A,3748.7451,N,12217.7672,W,2.29,119.42,140612,,,D*79
$GPRMC,175934.000,A,3748.7445,N,12217.7669,W,2.69,126.98,140612,,,D*7E
$GPRMC,175935.000,A,3748.7445,N,12217.7658,W,2.32,110.50,140612,,,D*72
$GPRMC,175936.000,A,3748.7445,N,12217.7648,W,2.36,96.39,140612,,,D*44
$GPRMC,175937.000,A,3748.7445,N,12217.7637,W,2.32,102.95,140612,,,D*73
$GPRMC,175938.000,A,3748.7441,N,12217.7628,W,2.40,124.47,140612,,,D*78
$GPRMC,175939.000,A,3748.7435,N,12217.7620,W,2.81,132.49,140612,,,D*76
$GPRMC,175940.000,A,3748.7433,N,12217.7610,W,2.67,121.44,140612,,,D*7A
$GPRMC,175941.000,A,3748.7433,N,12217.7597,W,2.26,119.50,140612,,,D*7C
$GPRMC,175942.000,A,3748.7434,N,12217.7584,W,2.32,101.69,140612,,,D*7C
$GPRMC,175943.000,A,3748.7433,N,12217.7575,W,2.25,117.85,140612,,,D*77
$GPRMC,175944.000,A,3748.7432,N,12217.7566,W,2.26,113.38,140612,,,D*72
$GPRMC,175945.000,A,3748.7433,N,12217.7554,W,2.13,108.39,140612,,,D*7E
$GPRMC,175946.000,A,3748.7433,N,12217.7543,W,2.42,115.71,140612,,,D*7F
$GPRMC,175947.000,A,3748.7429,N,12217.7534,W,2.60,116.77,140612,,,D*70
$GPRMC,175948.000,A,3748.7427,N,12217.7525,W,2.36,112.59,140612,,,D*7A
$GPRMC,175949.000,A,3748.7423,N,12217.7518,W,2.26,113.57,140612,,,D*7F
$GPRMC,175950.000,A,3748.7422,N,12217.7507,W,2.30,118.43,140612,,,D*71
$GPRMC,175951.000,A,3748.7418,N,12217.7499,W,2.32,130.64,140612,,,D*72
$GPRMC,175952.000,A,3748.7418,N,12217.7492,W,2.53,128.95,140612,,,D*7A
$GPRMC,175953.000,A,3748.7417,N,12217.7483,W,2.59,113.07,140612,,,D*7D
$GPRMC,175954.000,A,3748.7416,N,12217.7474,W,2.39,113.65,140612,,,D*71
$GPRMC,175955.000,A,3748.7414,N,12217.7465,W,2.14,104.86,140612,,,D*76
$GPRMC,175956.000,A,3748.7413,N,12217.7454,W,2.86,106.97,140612,,,D*79
$GPRMC,175957.000,A,3748.7409,N,12217.7445,W,2.58,115.31,140612,,,D*7E
$GPRMC,175958.000,A,3748.7404,N,12217.7439,W,2.23,126.83,140612,,,D*72
$GPRMC,175959.000,A,3748.7398,N,12217.7432,W,2.70,130.24,140612,,,D*76
$GPRMC,180000.000,A,3748.7396,N,12217.7423,W,2.00,130.22,140612,,,D*76
$GPRMC,180001.000,A,3748.7395,N,12217.7412,W,2.05,120.53,140612,,,D*74
$GPRMC,180002.000,A,3748.7392,N,12217.7407,W,2.16,108.02,140612,,,D*78
$GPRMC,180003.000,A,3748.7388,N,12217.7403,W,1.94,126.63,140612,,,D*74
$GPRMC,180004.000,A,3748.7387,N,12217.7397,W,1.72,108.95,140612,,,A*7E
$GPRMC,180005.000,A,3748.7389,N,12217.7390,W,1.72,126.78,140612,,,A*79
$GPRMC,180006.000,A,3748.7386,N,12217.7381,W,1.07,114.24,140612,,,A*7F
$GPRMC,180007.000,A,3748.7388,N,12217.7375,W,1.77,127.72,140612,,,A*7F
$GPRMC,180008.000,A,3748.7387,N,12217.7368,W,1.64,115.77,140612,,,A*75
$GPRMC,180009.000,A,3748.7384,N,12217.7363,W,1.86,139.57,140612,,,A*7C
$GPRMC,180010.000,A,3748.7385,N,12217.7356,W,0.61,53.77,140612,,,A*44
$GPRMC,180011.000,A,3748.7386,N,12217.7347,W,0.60,77.61,140612,,,A*46
$GPRMC,180012.000,A,3748.7387,N,12217.7343,W,1.02,174.21,140612,,,A*73
$GPRMC,180013.000,A,3748.7385,N,12217.7339,W,1.04,127.04,140612,,,A*7A
$GPRMC,180014.000,A,3748.7386,N,12217.7336,W,0.96,143.51,140612,,,A*79
$GPRMC,180015.000,A,3748.7385,N,12217.7334,W,1.05,205.57,140612,,,A*75
$GPRMC,180016.000,A,3748.7388,N,12217.7334,W,0.93,170.82,140612,,,A*7C
$GPRMC,180017.000,A,3748.7383,N,12217.7331,W,2.48,145.33,140612,,,A*7B
$GPRMC,180018.000,A,3748.7374,N,12217.7326,W,2.31,154.52,140612,,,A*73
$GPRMC,180019.000,A,3748.7364,N,12217.7325,W,2.14,151.66,140612,,,A*75
$GPRMC,180020.000,A,3748.7351,N,12217.7318,W,2.72,143.01,140612,,,A*75
$GPRMC,180021.000,A,3748.7343,N,12217.7312,W,2.60,148.18,140612,,,A*7D
$GPRMC,180022.000,A,3748.7333,N,12217.7310,W,2.40,145.31,140612,,,A*7F
$GPRMC,180023.000,A,3748.7323,N,12217.7303,W,1.82,130.33,140612,,,A*70
$GPRMC,180024.000,A,3748.7318,N,12217.7296,W,2.24,131.87,140612,,,A*73
$GPRMC,180025.000,A,3748.7314,N,12217.7287,W,2.35,124.37,140612,,,A*71
$GPRMC,180026.000,A,3748.7308,N,12217.7282,W,2.41,127.46,140612,,,A*7C
$GPRMC,180027.000,A,3748.7300,N,12217.7279,W,2.80,130.94,140612,,,A*75
$GPRMC,180028.000,A,3748.7293,N,12217.7280,W,2.09,116.40,140612,,,D*7E
$GPRMC,180029.000,A,3748.7290,N,12217.7275,W,2.44,105.11,140612,,,D*79
$GPRMC,180030.000,A,3748.7287,N,12217.7270,W,2.37,115.90,140612,,,D*7E
$GPRMC,180031.000,A,3748.7284,N,12217.7264,W,2.31,118.35,140612,,,D*7D
$GPRMC,180032.000,A,3748.7279,N,12217.7260,W,2.49,117.86,140612,,,D*70
$GPRMC,180033.000,A,3748.7276,N,12217.7253,W,2.28,106.46,140612,,,D*75
$GPRMC,180034.000,A,3748.7273,N,12217.7245,W,2.19,115.79,140612,,,D*7C
$GPRMC,180035.000,A,3748.7275,N,12217.7234,W,2.27,117.39,140612,,,D*76
$GPRMC,180036.000,A,3748.7271,N,12217.7227,W,2.25,114.56,140612,,,D*7B
$GPRMC,180037.000,A,3748.7273,N,12217.7216,W,2.24,103.63,140612,,,D*7B
$GPRMC,180038.000,A,3748.7271,N,12217.7209,W,2.19,120.60,140612,,,D*74
$GPRMC,180039.000,A,3748.7271,N,12217.7199,W,2.21,111.90,140612,,,D*79
$GPRMC,180040.000,A,3748.7269,N,12217.7191,W,2.35,115.31,140612,,,D*7C
$GPRMC,180041.000,A,3748.7265,N,12217.7182,W,2.23,115.49,140612,,,D*7B
$GPRMC,180042.000,A,3748.7263,N,12217.7174,W,1.70,102.75,140612,,,D*7B
$GPRMC,180043.000,A,3748.7267,N,12217.7166,W,1.87,26.61,140612,,,D*47
$GPRMC,180044.000,A,3748.7278,N,12217.7165,W,0.77,324.96,140612,,,D*7A
$GPRMC,180045.000,A,3748.7284,N,12217.7166,W,0.59,315.95,140612,,,D*76
$GPRMC,180046.000,A,3748.7293,N,12217.7164,W,0.32,52.29,140612,,,D*4B
$GPRMC,180047.000,A,3748.7302,N,12217.7160,W,0.54,67.44,140612,,,D*4A
$GPRMC,180048.000,A,3748.7309,N,12217.7156,W,0.99,51.03,140612,,,D*4C
$GPRMC,180049.000,A,3748.7316,N,12217.7152,W,1.63,21.84,140612,,,D*4B
$GPRMC,180050.000,A,3748.7320,N,12217.7149,W,2.07,18.97,140612,,,D*45
$GPRMC,180051.000,A,3748.7324,N,12217.7143,W,2.06,25.13,140612,,,D*49
$GPRMC,180052.000,A,3748.7328,N,12217.7140,W,1.91,11.18,140612,,,D*44
$GPRMC,180053.000,A,3748.7329,N,12217.7136,W,1.85,6.31,140612,,,D*7D
$GPRMC,180054.000,A,3748.7334,N,12217.7136,W,2.12,4.21,140612,,,D*78
$GPRMC,180055.000,A,3748.7337,N,12217.7137,W,1.98,355.92,140612,,,D*75
$GPRMC,180056.000,A,3748.7342,N,12217.7133,W,1.45,6.44,140612,,,D*7E
$GPRMC,180057.000,A,3748.7345,N,12217.7128,W,0.73,7.70,140612,,,D*70
$GPRMC,180058.000,A,3748.7344,N,12217.7119,W,0.25,66.01,140612,,,D*4E
$GPRMC,180059.000,A,3748.7341,N,12217.7114,W,0.53,167.68,140612,,,A*7C
$GPRMC,180100.000,A,3748.7338,N,12217.7110,W,0.53,158.25,140612,,,A*7E
$GPRMC,180101.000,A,3748.7337,N,12217.7107,W,0.59,61.41,140612,,,A*45
$GPRMC,180102.000,A,3748.7343,N,12217.7102,W,1.04,59.48,140612,,,A*4B
$GPRMC,180103.000,A,3748.7344,N,12217.7096,W,1.25,71.06,140612,,,A*42
$GPRMC,180104.000,A,3748.7344,N,12217.7084,W,1.38,66.58,140612,,,A*47
$GPRMC,180105.000,A,3748.7344,N,12217.7076,W,0.57,87.18,140612,,,A*48
$GPRMC,180106.000,A,3748.7342,N,12217.7068,W,0.50,110.78,140612,,,A*7C
$GPRMC,180107.000,A,3748.7335,N,12217.7055,W,0.99,120.81,140612,,,A*73
$GPRMC,180108.000,A,3748.7335,N,12217.7047,W,0.87,87.51,140612,,,A*41
$GPRMC,180109.000,A,3748.7331,N,12217.7042,W,0.22,105.18,140612,,,A*78
$GPRMC,180110.000,A,3748.7331,N,12217.7038,W,0.17,232.34,140612,,,A*72
$GPRMC,180111.000,A,3748.7332,N,12217.7033,W,0.10,317.41,140612,,,A*78
$GPRMC,180112.000,A,3748.7333,N,12217.7032,W,0.33,266.86,140612,,,A*76
$GPRMC,180113.000,A,3748.7337,N,12217.7030,W,0.16,350.27,140612,,,A*79
$GPRMC,180114.000,A,3748.7337,N,12217.7025,W,0.57,24.14,140612,,,A*4F
$GPRMC,180115.000,A,3748.7334,N,12217.7018,W,0.59,41.34,140612,,,A*4C
$GPRMC,180116.000,A,3748.7333,N,12217.7018,W,0.32,254.54,140612,,,A*75
$GPRMC,180117.000,A,3748.7327,N,12217.7017,W,0.49,177.61,140612,,,A*76
$GPRMC,180118.000,A,3748.7325,N,12217.7018,W,0.71,145.31,140612,,,A*7B
$GPRMC,180119.000,A,3748.7324,N,12217.7022,W,0.70,137.58,140612,,,A*79
$GPRMC,180120.000,A,3748.7323,N,12217.7023,W,0.48,107.66,140612,,,A*70
$GPRMC,180121.000,A,3748.7322,N,12217.7031,W,0.54,107.38,140612,,,A*75
$GPRMC,180122.000,A,3748.7319,N,12217.7032,W,0.55,133.90,140612,,,A*79
$GPRMC,180123.000,A,3748.7320,N,12217.7032,W,0.32,175.03,140612,,,A*7B
$GPRMC,180124.000,A,3748.7323,N,12217.7028,W,0.71,275.09,140612,,,A*7A
$GPRMC,180125.000,A,3748.7323,N,12217.7034,W,0.64,232.89,140612,,,A*79
$GPRMC,180126.000,A,3748.7322,N,12217.7035,W,0.22,254.96,140612,,,A*76
$GPRMC,180127.000,A,3748.7322,N,12217.7035,W,0.46,169.82,140612,,,A*7D
$GPRMC,180128.000,A,3748.7325,N,12217.7033,W,1.01,138.09,140612,,,A*76
$GPRMC,180129.000,A,3748.7325,N,12217.7029,W,0.97,130.97,140612,,,A*7D
$GPRMC,180130.000,A,3748.7326,N,12217.7025,W,1.29,135.64,140612,,,A*77
$GPRMC,180131.000,A,3748.7328,N,12217.7024,W,0.67,126.28,140612,,,A*78
$GPRMC,180132.000,A,3748.7328,N,12217.7018,W,0.44,123.17,140612,,,A*7C
$GPRMC,180133.000,A,3748.7332,N,12217.7023,W,0.34,123.96,140612,,,A*70
$GPRMC,180134.000,A,3748.7335,N,12217.7027,W,0.10,176.03,140612,,,A*7E
$GPRMC,180135.000,A,3748.7338,N,12217.7030,W,0.18,286.78,140612,,,A*7C
$GPRMC,180136.000,A,3748.7340,N,12217.7034,W,0.19,291.45,140612,,,A*7D
$GPRMC,180137.000,A,3748.7343,N,12217.7038,W,0.38,118.95,140612,,,A*7F
$GPRMC,180138.000,A,3748.7344,N,12217.7041,W,0.33,317.69,140612,,,A*7C
$GPRMC,180139.000,A,3748.7345,N,12217.7042,W,0.38,257.96,140612,,,A*71
$GPRMC,180140.000,A,3748.7346,N,12217.7043,W,0.15,224.32,140612,,,A*78
$GPRMC,180141.000,A,3748.7345,N,12217.7041,W,0.29,252.80,140612,,,A*7F
$GPRMC,180142.000,A,3748.7346,N,12217.7043,W,0.35,319.71,140612,,,A*70
$GPRMC,180143.000,A,3748.7346,N,12217.7042,W,0.60,109.33,140612,,,A*75
$GPRMC,180144.000,A,3748.7345,N,12217.7037,W,0.61,88.48,140612,,,A*46
$GPRMC,180145.000,A,3748.7344,N,12217.7033,W,0.59,91.98,140612,,,A*4C
$GPRMC,180146.000,A,3748.7344,N,12217.7028,W,0.44,120.60,140612,,,A*75
$GPRMC,180147.000,A,3748.7342,N,12217.7025,W,0.26,145.21,140612,,,A*7D
$GPRMC,180148.000,A,3748.7341,N,12217.7024,W,0.27,189.31,140612,,,A*70
$GPRMC,180149.000,A,3748.7342,N,12217.7028,W,0.36,215.88,140612,,,A*7A
$GPRMC,180150.000,A,3748.7345,N,12217.7030,W,0.82,301.06,140612,,,A*71
$GPRMC,180151.000,A,3748.7347,N,12217.7035,W,0.74,315.11,140612,,,A*7D
$GPRMC,180152.000,A,3748.7349,N,12217.7040,W,0.71,307.79,140612,,,A*7A
$GPRMC,180153.000,A,3748.7351,N,12217.7044,W,0.49,307.47,140612,,,A*70
$GPRMC,180154.000,A,3748.7354,N,12217.7047,W,0.36,332.94,140612,,,A*71
$GPRMC,180155.000,A,3748.7358,N,12217.7049,W,0.42,321.59,140612,,,A*72
$GPRMC,180156.000,A,3748.7360,N,12217.7054,W,0.39,190.59,140612,,,A*72
$GPRMC,180157.000,A,3748.7360,N,12217.7054,W,0.23,191.33,140612,,,A*75
$GPRMC,180158.000,A,3748.7359,N,12217.7057,W,0.25,255.10,140612,,,A*7F
$GPRMC,180159.000,A,3748.7361,N,12217.7059,W,0.12,326.14,140612,,,A*7E
$GPRMC,180200.000,A,3748.7364,N,12217.7058,W,0.76,33.55,140612,,,A*45
$GPRMC,180201.000,A,3748.7362,N,12217.7055,W,0.89,17.65,140612,,,A*4A
$GPRMC,180202.000,A,3748.7362,N,12217.7054,W,0.15,295.91,140612,,,A*7E
$GPRMC,180203.000,A,3748.7361,N,12217.7053,W,0.20,87.08,140612,,,A*4C
$GPRMC,180204.000,A,3748.7360,N,12217.7054,W,0.49,156.21,140612,,,A*74
$GPRMC,180205.000,A,3748.7361,N,12217.7056,W,0.22,148.75,140612,,,A*75
$GPRMC,180206.000,A,3748.7363,N,12217.7059,W,0.25,92.84,140612,,,A*44
$GPRMC,180207.000,A,3748.7366,N,12217.7062,W,0.35,76.31,140612,,,A*4D
$GPRMC,180208.000,A,3748.7368,N,12217.7068,W,0.19,94.39,140612,,,A*4C
$GPRMC,180209.000,A,3748.7370,N,12217.7073,W,0.50,245.94,140612,,,A*7A
$GPRMC,180210.000,A,3748.7371,N,12217.7079,W,0.70,274.18,140612,,,A*7D
$GPRMC,180211.000,A,3748.7373,N,12217.7088,W,0.83,282.25,140612,,,A*7B
$GPRMC,180212.000,A,3748.7372,N,12217.7093,W,0.55,295.97,140612,,,A*77
$GPRMC,180213.000,A,3748.7374,N,12217.7097,W,0.41,305.41,140612,,,A*72
$GPRMC,180214.000,A,3748.7378,N,12217.7101,W,0.35,335.24,140612,,,A*74
$GPRMC,180215.000,A,3748.7381,N,12217.7104,W,0.49,345.93,140612,,,A*76
$GPRMC,180216.000,A,3748.7379,N,12217.7105,W,0.36,235.15,140612,,,A*73
$GPRMC,180217.000,A,3748.7378,N,12217.7107,W,0.56,205.98,140612,,,A*71
$GPRMC,180218.000,A,3748.7377,N,12217.7113,W,0.49,198.73,140612,,,A*78
$GPRMC,180219.000,A,3748.7374,N,12217.7110,W,0.59,130.85,140612,,,A*73
$GPRMC,180220.000,A,3748.7374,N,12217.7109,W,0.32,37.43,140612,,,A*40
$GPRMC,180221.000,A,3748.7374,N,12217.7105,W,0.55,18.39,140612,,,A*4C
$GPRMC,180222.000,A,3748.7375,N,12217.7103,W,0.16,74.47,140612,,,A*4C
$GPRMC,180223.000,A,3748.7378,N,12217.7104,W,0.64,311.39,140612,,,A*7B
$GPRMC,180224.000,A,3748.7382,N,12217.7104,W,0.59,283.04,140612,,,A*73
$GPRMC,180225.000,A,3748.7379,N,12217.7103,W,0.52,143.02,140612,,,A*73
$GPRMC,180226.000,A,3748.7373,N,12217.7107,W,0.77,225.86,140612,,,A*76
$GPRMC,180227.000,A,3748.7370,N,12217.7107,W,0.43,244.88,140612,,,A*7A
$GPRMC,180228.000,A,3748.7368,N,12217.7103,W,0.66,50.53,140612,,,A*4E
$GPRMC,180229.000,A,3748.7370,N,12217.7099,W,1.77,40.04,140612,,,A*46
$GPRMC,180230.000,A,3748.7374,N,12217.7093,W,1.76,32.05,140612,,,A*45
$GPRMC,180231.000,A,3748.7382,N,12217.7089,W,1.66,10.62,140612,,,A*46
$GPRMC,180232.000,A,3748.7387,N,12217.7084,W,1.56,24.07,140612,,,A*4A
$GPRMC,180233.000,A,3748.7387,N,12217.7083,W,1.47,5.60,140612,,,A*7E
$GPRMC,180234.000,A,3748.7389,N,12217.7085,W,1.34,23.52,140612,,,D*45
$GPRMC,180235.000,A,3748.7396,N,12217.7084,W,1.92,20.85,140612,,,D*4E
$GPRMC,180236.000,A,3748.7403,N,12217.7080,W,2.03,25.09,140612,,,D*48
$GPRMC,180237.000,A,3748.7409,N,12217.7076,W,2.18,30.85,140612,,,D*40
$GPRMC,180238.000,A,3748.7412,N,12217.7074,W,1.65,18.02,140612,,,D*4B
$GPRMC,180239.000,A,3748.7416,N,12217.7074,W,1.60,29.99,140612,,,D*4B
$GPRMC,180240.000,A,3748.7416,N,12217.7069,W,1.82,32.07,140612,,,D*48
$GPRMC,180241.000,A,3748.7415,N,12217.7064,W,1.68,35.15,140612,,,D*47
$GPRMC,180242.000,A,3748.7418,N,12217.7055,W,2.20,54.01,140612,,,D*46
$GPRMC,180243.000,A,3748.7420,N,12217.7049,W,2.16,51.72,140612,,,D*45
$GPRMC,180244.000,A,3748.7422,N,12217.7043,W,1.62,36.48,140612,,,D*42
$GPRMC,180245.000,A,3748.7425,N,12217.7042,W,1.54,44.10,140612,,,D*48
$GPRMC,180246.000,A,3748.7424,N,12217.7037,W,1.43,86.68,140612,,,D*4F
$GPRMC,180247.000,A,3748.7425,N,12217.7031,W,1.07,80.52,140612,,,D*46
$GPRMC,180248.000,A,3748.7426,N,12217.7024,W,1.24,36.49,140612,,,D*48
$GPRMC,180249.000,A,3748.7426,N,12217.7022,W,0.37,26.55,140612,,,D*40
$GPRMC,180250.000,A,3748.7422,N,12217.7022,W,0.62,193.88,140612,,,D*73
$GPRMC,180251.000,A,3748.7418,N,12217.7024,W,0.90,235.29,140612,,,D*74
$GPRMC,180252.000,A,3748.7417,N,12217.7020,W,0.43,259.45,140612,,,D*72
$GPRMC,180253.000,A,3748.7417,N,12217.7022,W,0.56,240.31,140612,,,D*7E
$GPRMC,180254.000,A,3748.7417,N,12217.7017,W,0.53,108.77,140612,,,D*77
$GPRMC,180255.000,A,3748.7417,N,12217.7022,W,0.54,281.76,140612,,,D*74
$GPRMC,180256.000,A,3748.7414,N,12217.7023,W,0.04,245.05,140612,,,D*7C
$GPRMC,180257.000,A,3748.7413,N,12217.7028,W,0.17,350.93,140612,,,D*79
$GPRMC,180258.000,A,3748.7408,N,12217.7032,W,1.02,190.99,140612,,,D*76
$GPRMC,180259.000,A,3748.7405,N,12217.7032,W,1.20,176.75,140612,,,D*70
$GPRMC,180300.000,A,3748.7398,N,12217.7034,W,0.76,172.90,140612,,,D*75
$GPRMC,180301.000,A,3748.7392,N,12217.7037,W,0.42,203.71,140612,,,D*70
$GPRMC,180302.000,A,3748.7384,N,12217.7042,W,0.34,207.29,140612,,,D*7E
$GPRMC,180303.000,A,3748.7378,N,12217.7046,W,0.05,281.79,140612,,,D*71
$GPRMC,180304.000,A,3748.7376,N,12217.7050,W,0.31,354.53,140612,,,D*79
$GPRMC,180305.000,A,3748.7376,N,12217.7053,W,0.47,307.21,140612,,,D*79
$GPRMC,180306.000,A,3748.7375,N,12217.7061,W,0.57,316.54,140612,,,D*7B
$GPRMC,180307.000,A,3748.7377,N,12217.7064,W,0.59,18.46,140612,,,D*4D
$GPRMC,180308.000,A,3748.7380,N,12217.7062,W,0.78,60.51,140612,,,D*46
$GPRMC,180309.000,A,3748.7380,N,12217.7062,W,0.33,65.61,140612,,,D*4E
$GPRMC,180310.000,A,3748.7379,N,12217.7061,W,0.34,62.89,140612,,,D*45
$GPRMC,180311.000,A,3748.7378,N,12217.7061,W,0.46,29.13,140612,,,A*49
$GPRMC,180312.000,A,3748.7376,N,12217.7063,W,0.16,41.56,140612,,,A*4C
$GPRMC,180313.000,A,3748.7372,N,12217.7061,W,0.41,138.46,140612,,,A*77
$GPRMC,180314.000,A,3748.7371,N,12217.7061,W,0.17,193.43,140612,,,A*74
$GPRMC,180315.000,A,3748.7370,N,12217.7062,W,0.47,204.24,140612,,,A*7E
$GPRMC,180316.000,A,3748.7366,N,12217.7065,W,0.70,205.57,140612,,,A*7C
$GPRMC,180317.000,A,3748.7363,N,12217.7069,W,0.62,199.25,140612,,,A*74
$GPRMC,180318.000,A,3748.7359,N,12217.7074,W,1.06,202.23,140612,,,A*7A
$GPRMC,180319.000,A,3748.7357,N,12217.7072,W,1.11,167.93,140612,,,A*7E
$GPRMC,180320.000,A,3748.7356,N,12217.7072,W,0.87,182.16,140612,,,A*7D
$GPRMC,180321.000,A,3748.7354,N,12217.7072,W,0.72,168.25,140612,,,A*70
$GPRMC,180322.000,A,3748.7353,N,12217.7071,W,0.61,157.48,140612,,,D*77
$GPRMC,180323.000,A,3748.7353,N,12217.7069,W,0.49,115.68,140612,,,D*71
$GPRMC,180324.000,A,3748.7355,N,12217.7065,W,0.70,129.73,140612,,,D*73
$GPRMC,180325.000,A,3748.7357,N,12217.7058,W,0.77,133.44,140612,,,D*76
$GPRMC,180326.000,A,3748.7358,N,12217.7054,W,0.99,127.02,140612,,,D*71
$GPRMC,180327.000,A,3748.7360,N,12217.7059,W,0.75,204.80,140612,,,D*7C
$GPRMC,180328.000,A,3748.7365,N,12217.7061,W,0.23,219.01,140612,,,D*7B
$GPRMC,180329.000,A,3748.7371,N,12217.7062,W,0.18,355.33,140612,,,D*7C
$GPRMC,180330.000,A,3748.7378,N,12217.7062,W,0.27,46.13,140612,,,D*42
$GPRMC,180331.000,A,3748.7382,N,12217.7069,W,0.28,346.33,140612,,,D*73
$GPRMC,180332.000,A,3748.7384,N,12217.7070,W,0.58,274.44,140612,,,D*79
$GPRMC,180333.000,A,3748.7388,N,12217.7077,W,0.33,309.17,140612,,,D*73
$GPRMC,180334.000,A,3748.7393,N,12217.7081,W,0.47,352.00,140612,,,D*7C
$GPRMC,180335.000,A,3748.7397,N,12217.7085,W,0.38,292.80,140612,,,D*70
$GPRMC,180336.000,A,3748.7401,N,12217.7095,W,0.61,298.16,140612,,,D*73
$GPRMC,180337.000,A,3748.7404,N,12217.7098,W,0.18,358.95,140612,,,D*72
$GPRMC,180338.000,A,3748.7405,N,12217.7103,W,0.26,253.53,140612,,,D*72
$GPRMC,180339.000,A,3748.7405,N,12217.7105,W,0.33,232.44,140612,,,D*70
$GPRMC,180340.000,A,3748.7401,N,12217.7109,W,0.72,219.00,140612,,,D*7A
$GPRMC,180341.000,A,3748.7400,N,12217.7111,W,0.54,183.54,140612,,,D*76
$GPRMC,180342.000,A,3748.7406,N,12217.7109,W,0.60,91.36,140612,,,D*4B
$GPRMC,180343.000,A,3748.7413,N,12217.7103,W,1.43,38.35,140612,,,D*44
$GPRMC,180344.000,A,3748.7422,N,12217.7100,W,2.55,2.02,140612,,,D*7B
$GPRMC,180345.000,A,3748.7430,N,12217.7097,W,2.63,354.96,140612,,,D*7E
$GPRMC,180346.000,A,3748.7439,N,12217.7091,W,1.93,5.47,140612,,,D*75
$GPRMC,180347.000,A,3748.7443,N,12217.7084,W,2.05,8.12,140612,,,D*7C
$GPRMC,180348.000,A,3748.7449,N,12217.7079,W,2.14,15.67,140612,,,D*45
$GPRMC,180349.000,A,3748.7457,N,12217.7072,W,2.45,21.68,140612,,,D*4C
$GPRMC,180350.000,A,3748.7460,N,12217.7067,W,1.77,12.45,140612,,,D*49
$GPRMC,180351.000,A,3748.7464,N,12217.7064,W,1.85,9.54,140612,,,D*78
$GPRMC,180352.000,A,3748.7469,N,12217.7061,W,1.69,27.10,140612,,,D*4D
$GPRMC,180353.000,A,3748.7474,N,12217.7054,W,2.56,26.14,140612,,,D*4C
$GPRMC,180354.000,A,3748.7481,N,12217.7049,W,2.41,23.34,140612,,,D*4C
$GPRMC,180355.000,A,3748.7480,N,12217.7040,W,1.99,37.74,140612,,,D*42
$GPRMC,180356.000,A,3748.7485,N,12217.7034,W,1.24,29.12,140612,,,D*4E
$GPRMC,180357.000,A,3748.7490,N,12217.7023,W,2.26,36.81,140612,,,D*48
$GPRMC,180358.000,A,3748.7496,N,12217.7010,W,2.05,36.05,140612,,,D*4C
$GPRMC,180359.000,A,3748.7504,N,12217.7000,W,2.56,26.62,140612,,,D*40
$GPRMC,180400.000,A,3748.7514,N,12217.6997,W,2.29,20.45,140612,,,D*47
$GPRMC,180401.000,A,3748.7520,N,12217.6993,W,2.10,33.24,140612,,,D*4A
$GPRMC,180402.000,A,3748.7521,N,12217.6988,W,2.38,41.18,140612,,,D*42
$GPRMC,180403.000,A,3748.7525,N,12217.6979,W,2.54,45.64,140612,,,D*4C
$GPRMC,180404.000,A,3748.7530,N,12217.6969,W,2.86,38.64,140612,,,D*4B
$GPRMC,180405.000,A,3748.7535,N,12217.6962,W,1.91,18.39,140612,,,D*4B
$GPRMC,180406.000,A,3748.7542,N,12217.6961,W,1.72,22.80,140612,,,D*4D
$GPRMC,180407.000,A,3748.7550,N,12217.6960,W,1.86,2.81,140612,,,D*76
$GPRMC,180408.000,A,3748.7559,N,12217.6960,W,2.03,4.22,140612,,,D*71
$GPRMC,180409.000,A,3748.7565,N,12217.6958,W,2.27,26.60,140612,,,D*44
$GPRMC,180410.000,A,3748.7569,N,12217.6951,W,1.77,18.97,140612,,,D*4A
$GPRMC,180411.000,A,3748.7574,N,12217.6944,W,2.17,31.87,140612,,,D*4C
$GPRMC,180412.000,A,3748.7580,N,12217.6939,W,1.92,12.75,140612,,,D*4C
$GPRMC,180413.000,A,3748.7591,N,12217.6942,W,1.69,9.60,140612,,,D*7B
$GPRMC,180414.000,A,3748.7597,N,12217.6940,W,1.90,38.94,140612,,,D*47
$GPRMC,180415.000,A,3748.7602,N,12217.6936,W,1.94,22.97,140612,,,D*44
$GPRMC,180416.000,A,3748.7609,N,12217.6936,W,2.16,9.78,140612,,,D*7D
$GPRMC,180417.000,A,3748.7615,N,12217.6932,W,2.76,33.96,140612,,,D*4A
$GPRMC,180418.000,A,3748.7620,N,12217.6926,W,2.49,38.46,140612,,,D*4C
$GPRMC,180419.000,A,3748.7627,N,12217.6920,W,2.67,35.34,140612,,,D*48
$GPRMC,180420.000,A,3748.7634,N,12217.6916,W,2.68,24.47,140612,,,D*4E
$GPRMC,180421.000,A,3748.7641,N,12217.6912,W,2.66,19.60,140612,,,D*4C
$GPRMC,180422.000,A,3748.7648,N,12217.6910,W,2.48,12.64,140612,,,D*47
$GPRMC,180423.000,A,3748.7655,N,12217.6907,W,2.41,25.20,140612,,,D*41
$GPRMC,180424.000,A,3748.7661,N,12217.6903,W,2.29,33.52,140612,,,D*49
$GPRMC,180425.000,A,3748.7666,N,12217.6900,W,2.42,34.07,140612,,,D*46
$GPRMC,180426.000,A,3748.7673,N,12217.6894,W,2.27,32.83,140612,,,D*44
$GPRMC,180427.000,A,3748.7678,N,12217.6890,W,1.94,32.16,140612,,,D*4D
$GPRMC,180428.000,A,3748.7682,N,12217.6888,W,1.89,13.78,140612,,,D*49
$GPRMC,180429.000,A,3748.7686,N,12217.6882,W,2.15,18.52,140612,,,D*43
$GPRMC,180430.000,A,3748.7693,N,12217.6880,W,2.18,12.51,140612,,,D*49
$GPRMC,180431.000,A,3748.7698,N,12217.6877,W,2.41,23.50,140612,,,D*44
$GPRMC,180432.000,A,3748.7704,N,12217.6873,W,2.30,27.95,140612,,,D*4C
$GPRMC,180433.000,A,3748.7709,N,12217.6869,W,2.12,21.37,140612,,,D*45
$GPRMC,180434.000,A,3748.7714,N,12217.6865,W,2.39,29.49,140612,,,D*4A
$GPRMC,180435.000,A,3748.7718,N,12217.6855,W,2.50,28.77,140612,,,D*47
$GPRMC,180436.000,A,3748.7722,N,12217.6848,W,2.28,27.25,140612,,,D*46
$GPRMC,180437.000,A,3748.7726,N,12217.6842,W,2.32,14.83,140612,,,D*4E
$GPRMC,180438.000,A,3748.7730,N,12217.6834,W,2.39,22.45,140612,,,D*43
$GPRMC,180439.000,A,3748.7736,N,12217.6826,W,2.57,40.88,140612,,,D*4A
$GPRMC,180440.000,A,3748.7741,N,12217.6817,W,2.32,37.69,140612,,,D*4A
$GPRMC,180441.000,A,3748.7747,N,12217.6811,W,2.40,24.98,140612,,,D*42
$GPRMC,180442.000,A,3748.7753,N,12217.6806,W,2.51,28.17,140612,,,D*49
$GPRMC,180443.000,A,3748.7758,N,12217.6800,W,2.28,29.42,140612,,,D*4A
$GPRMC,180444.000,A,3748.7762,N,12217.6792,W,2.17,25.60,140612,,,D*40
$GPRMC,180445.000,A,3748.7767,N,12217.6784,W,2.39,24.87,140612,,,D*47
$GPRMC,180446.000,A,3748.7772,N,12217.6779,W,2.22,25.96,140612,,,D*49
$GPRMC,180447.000,A,3748.7775,N,12217.6771,W,2.03,30.33,140612,,,D*4F
$GPRMC,180448.000,A,3748.7782,N,12217.6768,W,2.47,29.78,140612,,,D*47
$GPRMC,180449.000,A,3748.7788,N,12217.6763,W,2.25,30.31,140612,,,D*46
$GPRMC,180450.000,A,3748.7794,N,12217.6759,W,2.02,31.68,140612,,,D*42
$GPRMC,180451.000,A,3748.7798,N,12217.6756,W,2.11,26.52,140612,,,D*4D
$GPRMC,180452.000,A,3748.7803,N,12217.6752,W,2.10,28.60,140612,,,D*49
$GPRMC,180453.000,A,3748.7811,N,12217.6747,W,2.28,30.89,140612,,,D*4A
$GPRMC,180454.000,A,3748.7817,N,12217.6742,W,2.60,38.08,140612,,,D*43
$GPRMC,180455.000,A,3748.7825,N,12217.6735,W,2.30,44.20,140612,,,D*47
$GPRMC,180456.000,A,3748.7830,N,12217.6729,W,2.29,38.75,140612,,,D*4E
$GPRMC,180457.000,A,3748.7837,N,12217.6724,W,2.56,30.96,140612,,,D*48
$GPRMC,180458.000,A,3748.7842,N,12217.6718,W,2.28,34.54,140612,,,D*49
$GPRMC,180459.000,A,3748.7849,N,12217.6714,W,2.04,34.96,140612,,,D*4F
$GPRMC,180500.000,A,3748.7853,N,12217.6710,W,2.42,27.00,140612,,,A*47
$GPRMC,180501.000,A,3748.7857,N,12217.6706,W,1.83,20.93,140612,,,A*46
$GPRMC,180502.000,A,3748.7860,N,12217.6705,W,1.45,25.43,140612,,,A*40
$GPRMC,180503.000,A,3748.7864,N,12217.6703,W,1.65,30.80,140612,,,A*4A
$GPRMC,180504.000,A,3748.7872,N,12217.6697,W,1.85,35.50,140612,,,A*40
$GPRMC,180505.000,A,3748.7878,N,12217.6693,W,2.05,36.17,140612,,,A*44
$GPRMC,180506.000,A,3748.7883,N,12217.6688,W,2.25,38.42,140612,,,A*45
$GPRMC,180507.000,A,3748.7890,N,12217.6682,W,2.46,33.48,140612,,,A*48
$GPRMC,180508.000,A,3748.7896,N,12217.6676,W,1.99,28.29,140612,,,A*46
$GPRMC,180509.000,A,3748.7901,N,12217.6673,W,2.19,16.01,140612,,,A*41
$GPRMC,180510.000,A,3748.7904,N,12217.6669,W,2.16,37.43,140612,,,A*4D
$GPRMC,180511.000,A,3748.7910,N,12217.6664,W,2.33,39.57,140612,,,A*48
$GPRMC,180512.000,A,3748.7913,N,12217.6660,W,2.07,36.15,140612,,,A*42
$GPRMC,180513.000,A,3748.7916,N,12217.6650,W,1.93,36.00,140612,,,A*4F
$GPRMC,180514.000,A,3748.7921,N,12217.6648,W,1.46,34.57,140612,,,A*4D
$GPRMC,180515.000,A,3748.7929,N,12217.6646,W,1.95,21.04,140612,,,A*46
$GPRMC,180516.000,A,3748.7937,N,12217.6645,W,2.13,13.15,140612,,,A*45
$GPRMC,180517.000,A,3748.7942,N,12217.6642,W,1.74,25.33,140612,,,A*42
$GPRMC,180518.000,A,3748.7946,N,12217.6639,W,1.66,31.55,140612,,,A*43
$GPRMC,180519.000,A,3748.7953,N,12217.6636,W,2.14,23.99,140612,,,A*4C
$GPRMC,180520.000,A,3748.7963,N,12217.6632,W,1.91,27.91,140612,,,A*43
$GPRMC,180521.000,A,3748.7968,N,12217.6626,W,1.80,33.70,140612,,,A*46
$GPRMC,180522.000,A,3748.7976,N,12217.6623,W,1.99,25.10,140612,,,A*46
$GPRMC,180523.000,A,3748.7982,N,12217.6619,W,2.17,30.04,140612,,,A*41
$GPRMC,180524.000,A,3748.7987,N,12217.6612,W,2.24,35.64,140612,,,A*4B
$GPRMC,180525.000,A,3748.7992,N,12217.6604,W,2.49,33.23,140612,,,A*47
$GPRMC,180526.000,A,3748.7995,N,12217.6595,W,1.76,43.55,140612,,,A*41
$GPRMC,180527.000,A,3748.7997,N,12217.6592,W,1.40,33.88,140612,,,A*47
$GPRMC,180528.000,A,3748.7999,N,12217.6591,W,0.78,20.61,140612,,,A*4A
$GPRMC,180529.000,A,3748.8001,N,12217.6589,W,0.14,132.92,140612,,,A*71
$GPRMC,180530.000,A,3748.8001,N,12217.6587,W,0.58,282.69,140612,,,A*73
$GPRMC,180531.000,A,3748.8002,N,12217.6588,W,0.35,304.05,140612,,,A*70
$GPRMC,180532.000,A,3748.8006,N,12217.6587,W,0.29,58.45,140612,,,A*4B
$GPRMC,180533.000,A,3748.8003,N,12217.6578,W,1.34,125.25,140612,,,A*7F
$GPRMC,180534.000,A,3748.8000,N,12217.6580,W,1.43,167.20,140612,,,A*7F
$GPRMC,180535.000,A,3748.7992,N,12217.6582,W,1.59,186.02,140612,,,A*75
$GPRMC,180536.000,A,3748.7987,N,12217.6594,W,2.60,224.42,140612,,,A*73
$GPRMC,180537.000,A,3748.7981,N,12217.6603,W,2.88,220.35,140612,,,A*7B
$GPRMC,180538.000,A,3748.7973,N,12217.6613,W,2.91,219.67,140612,,,A*7D
$GPRMC,180539.000,A,3748.7959,N,12217.6620,W,3.07,212.72,140612,,,A*75
$GPRMC,180540.000,A,3748.7958,N,12217.6631,W,1.83,228.90,140612,,,A*71
$GPRMC,180541.000,A,3748.7963,N,12217.6629,W,1.01,304.27,140612,,,A*78
$GPRMC,180542.000,A,3748.7974,N,12217.6632,W,1.67,341.39,140612,,,A*79
$GPRMC,180543.000,A,3748.7985,N,12217.6624,W,1.35,7.48,140612,,,A*71
$GPRMC,180544.000,A,3748.7995,N,12217.6631,W,1.29,358.71,140612,,,A*7D
$GPRMC,180545.000,A,3748.8004,N,12217.6631,W,1.10,14.52,140612,,,A*42
$GPRMC,180546.000,A,3748.8004,N,12217.6621,W,1.11,332.92,140612,,,A*7A
$GPRMC,180547.000,A,3748.8006,N,12217.6623,W,1.43,339.27,140612,,,A*79
$GPRMC,180548.000,A,3748.8012,N,12217.6625,W,0.77,318.96,140612,,,A*7A
$GPRMC,180549.000,A,3748.8011,N,12217.6621,W,0.54,260.84,140612,,,A*70
$GPRMC,180550.000,A,3748.8017,N,12217.6621,W,0.08,342.36,140612,,,A*7F
$GPRMC,180551.000,A,3748.8020,N,12217.6618,W,1.08,124.00,140612,,,A*76
$GPRMC,180552.000,A,3748.8023,N,12217.6605,W,0.91,58.98,140612,,,A*40
$GPRMC,180553.000,A,3748.8027,N,12217.6597,W,1.26,47.15,140612,,,A*4B
$GPRMC,180554.000,A,3748.8025,N,12217.6594,W,0.31,79.95,140612,,,A*4F
$GPRMC,180555.000,A,3748.8027,N,12217.6591,W,0.26,226.64,140612,,,A*79
$GPRMC,180556.000,A,3748.8027,N,12217.6586,W,0.33,18.81,140612,,,A*4C
$GPRMC,180557.000,A,3748.8026,N,12217.6584,W,0.33,272.44,140612,,,A*79
$GPRMC,180558.000,A,3748.8025,N,12217.6582,W,0.36,230.56,140612,,,A*73
$GPRMC,180559.000,A,3748.8027,N,12217.6584,W,0.31,210.60,140612,,,A*76
$GPRMC,180600.000,A,3748.8027,N,12217.6584,W,0.24,161.91,140612,,,A*76
$GPRMC,180601.000,A,3748.8028,N,12217.6580,W,0.91,58.12,140612,,,A*42
$GPRMC,180602.000,A,3748.8032,N,12217.6577,W,1.67,13.78,140612,,,A*49
$GPRMC,180603.000,A,3748.8038,N,12217.6575,W,1.81,18.15,140612,,,A*48
$GPRMC,180604.000,A,3748.8045,N,12217.6572,W,1.91,15.05,140612,,,A*4F
$GPRMC,180605.000,A,3748.8053,N,12217.6568,W,1.49,20.75,140612,,,A*46
$GPRMC,180606.000,A,3748.8058,N,12217.6565,W,1.29,13.08,140612,,,A*4F
$GPRMC,180607.000,A,3748.8062,N,12217.6564,W,1.06,21.91,140612,,,A*4A
$GPRMC,180608.000,A,3748.8066,N,12217.6563,W,1.15,13.17,140612,,,A*4B
$GPRMC,180609.000,A,3748.8070,N,12217.6561,W,1.37,12.31,140612,,,A*4A
$GPRMC,180609.000,A,3748.8073,N,12217.6559,W,1.09,358.16,140612,,,A*77
$GPRMC,180610.000,A,3748.8076,N,12217.6557,W,1.29,21.78,140612,,,A*43
$GPRMC,180611.000,A,3748.8079,N,12217.6555,W,0.85,31.00,140612,,,A*46
$GPRMC,180612.000,A,3748.8078,N,12217.6554,W,0.99,39.30,140612,,,A*43
$GPRMC,180613.000,A,3748.8082,N,12217.6553,W,1.17,20.17,140612,,,A*4A
$GPRMC,180614.000,A,3748.8085,N,12217.6553,W,1.42,23.19,140612,,,A*47
$GPRMC,180615.000,A,3748.8090,N,12217.6546,W,2.05,46.27,140612,,,A*48
$GPRMC,180616.000,A,3748.8093,N,12217.6541,W,1.59,40.37,140612,,,A*42
$GPRMC,180617.000,A,3748.8096,N,12217.6534,W,1.98,50.48,140612,,,A*40
$GPRMC,180618.000,A,3748.8100,N,12217.6529,W,1.96,41.95,140612,,,A*43
$GPRMC,180619.000,A,3748.8101,N,12217.6524,W,1.01,49.09,140612,,,A*4D
$GPRMC,180620.000,A,3748.8098,N,12217.6517,W,1.30,74.69,140612,,,A*4C
$GPRMC,180621.000,A,3748.8096,N,12217.6512,W,0.86,95.13,140612,,,A*48
$GPRMC,180622.000,A,3748.8095,N,12217.6504,W,1.97,102.01,140612,,,A*72
$GPRMC,180623.000,A,3748.8094,N,12217.6496,W,2.39,98.90,140612,,,A*45
$GPRMC,180624.000,A,3748.8093,N,12217.6488,W,2.39,87.36,140612,,,A*48
$GPRMC,180625.000,A,3748.8094,N,12217.6480,W,2.03,77.42,140612,,,A*43
$GPRMC,180626.000,A,3748.8093,N,12217.6478,W,0.81,88.15,140612,,,A*4A
$GPRMC,180627.000,A,3748.8091,N,12217.6474,W,1.05,119.62,140612,,,A*71
$GPRMC,180628.000,A,3748.8088,N,12217.6470,W,1.06,146.75,140612,,,A*7D
$GPRMC,180629.000,A,3748.8083,N,12217.6466,W,1.27,152.13,140612,,,A*76
$GPRMC,180630.000,A,3748.8078,N,12217.6462,W,1.18,144.64,140612,,,A*75
$GPRMC,180631.000,A,3748.8076,N,12217.6458,W,1.00,89.01,140612,,,A*49
$GPRMC,180632.000,A,3748.8076,N,12217.6453,W,1.40,46.96,140612,,,A*48
$GPRMC,180633.000,A,3748.8080,N,12217.6448,W,2.48,40.49,140612,,,A*45
$GPRMC,180634.000,A,3748.8082,N,12217.6442,W,2.55,55.07,140612,,,A*48
$GPRMC,180635.000,A,3748.8086,N,12217.6431,W,2.76,53.84,140612,,,A*45
$GPRMC,180636.000,A,3748.8089,N,12217.6422,W,2.32,43.86,140612,,,A*48
$GPRMC,180637.000,A,3748.8093,N,12217.6413,W,2.16,27.52,140612,,,A*4D
$GPRMC,180638.000,A,3748.8097,N,12217.6409,W,1.67,19.93,140612,,,A*48
$GPRMC,180639.000,A,3748.8101,N,12217.6403,W,1.81,23.49,140612,,,A*4B
$GPRMC,180640.000,A,3748.8105,N,12217.6402,W,2.09,11.87,140612,,,A*40
$GPRMC,180641.000,A,3748.8109,N,12217.6401,W,2.30,24.59,140612,,,A*41
$GPRMC,180642.000,A,3748.8111,N,12217.6399,W,1.96,21.51,140612,,,A*4F
$GPRMC,180643.000,A,3748.8117,N,12217.6387,W,1.80,50.49,140612,,,A*4F
$GPRMC,180644.000,A,3748.8123,N,12217.6381,W,1.96,31.49,140612,,,A*49
$GPRMC,180645.000,A,3748.8124,N,12217.6375,W,1.80,42.82,140612,,,A*40
$GPRMC,180646.000,A,3748.8135,N,12217.6360,W,2.53,38.81,140612,,,A*44
$GPRMC,180647.000,A,3748.8142,N,12217.6357,W,1.62,33.81,140612,,,A*4B
$GPRMC,180648.000,A,3748.8151,N,12217.6357,W,1.88,26.13,140612,,,A*4D
$GPRMC,180649.000,A,3748.8159,N,12217.6352,W,1.88,31.82,140612,,,A*4F
$GPRMC,180650.000,A,3748.8160,N,12217.6354,W,1.48,33.96,140612,,,A*40
$GPRMC,180651.000,A,3748.8168,N,12217.6348,W,2.57,49.88,140612,,,A*4B
$GPRMC,180652.000,A,3748.8166,N,12217.6343,W,1.58,79.48,140612,,,A*4E
$GPRMC,180653.000,A,3748.8156,N,12217.6337,W,1.54,89.66,140612,,,A*40
$GPRMC,180654.000,A,3748.8158,N,12217.6336,W,1.36,25.80,140612,,,A*42
$GPRMC,180655.000,A,3748.8169,N,12217.6343,W,2.42,332.61,140612,,,A*79
$GPRMC,180656.000,A,3748.8180,N,12217.6356,W,3.87,316.25,140612,,,A*77
$GPRMC,180657.000,A,3748.8190,N,12217.6348,W,2.54,347.32,140612,,,A*75
$GPRMC,180658.000,A,3748.8205,N,12217.6344,W,3.02,1.09,140612,,,A*72
$GPRMC,180659.000,A,3748.8214,N,12217.6334,W,2.32,16.90,140612,,,A*40
$GPRMC,180700.000,A,3748.8219,N,12217.6328,W,2.33,14.55,140612,,,A*47
$GPRMC,180701.000,A,3748.8219,N,12217.6332,W,1.78,17.54,140612,,,A*43
$GPRMC,180702.000,A,3748.8216,N,12217.6333,W,0.86,15.70,140612,,,A*4A
$GPRMC,180703.000,A,3748.8211,N,12217.6329,W,0.56,346.75,140612,,,A*7A
$GPRMC,180704.000,A,3748.8212,N,12217.6337,W,1.08,285.72,140612,,,A*72
$GPRMC,180705.000,A,3748.8214,N,12217.6350,W,1.21,293.82,140612,,,A*77
$GPRMC,180706.000,A,3748.8213,N,12217.6356,W,0.90,287.64,140612,,,A*73
$GPRMC,180707.000,A,3748.8214,N,12217.6367,W,0.95,289.66,140612,,,A*7E
$GPRMC,180708.000,A,3748.8211,N,12217.6368,W,0.78,300.34,140612,,,A*7F
$GPRMC,180709.000,A,3748.8207,N,12217.6368,W,0.91,310.16,140612,,,A*7F
$GPRMC,180710.000,A,3748.8203,N,12217.6388,W,1.63,273.22,140612,,,A*72
$GPRMC,180711.000,A,3748.8203,N,12217.6407,W,1.75,268.16,140612,,,A*79
$GPRMC,180712.000,A,3748.8199,N,12217.6420,W,1.79,262.97,140612,,,A*70
$GPRMC,180713.000,A,3748.8202,N,12217.6433,W,1.47,268.62,140612,,,A*7F
$GPRMC,180714.000,A,3748.8205,N,12217.6449,W,2.57,258.14,140612,,,A*72
$GPRMC,180715.000,A,3748.8208,N,12217.6447,W,1.81,274.72,140612,,,A*76
$GPRMC,180716.000,A,3748.8207,N,12217.6429,W,0.43,242.09,140612,,,A*74
$GPRMC,180717.000,A,3748.8206,N,12217.6412,W,0.20,85.10,140612,,,A*48
$GPRMC,180718.000,A,3748.8209,N,12217.6404,W,0.49,56.00,140612,,,A*4F
$GPRMC,180719.000,A,3748.8213,N,12217.6400,W,0.32,133.80,140612,,,A*77
$GPRMC,180720.000,A,3748.8216,N,12217.6399,W,0.29,239.79,140612,,,A*7A
$GPRMC,180721.000,A,3748.8211,N,12217.6395,W,0.88,236.65,140612,,,A*79
$GPRMC,180722.000,A,3748.8207,N,12217.6391,W,0.27,103.96,140612,,,A*75
$GPRMC,180723.000,A,3748.8208,N,12217.6388,W,0.37,28.73,140612,,,A*41
$GPRMC,180724.000,A,3748.8209,N,12217.6387,W,0.55,327.06,140612,,,A*72
$GPRMC,180725.000,A,3748.8210,N,12217.6380,W,0.60,341.91,140612,,,A*74
$GPRMC,180726.000,A,3748.8210,N,12217.6374,W,0.46,295.34,140612,,,A*7F
$GPRMC,180727.000,A,3748.8211,N,12217.6373,W,0.20,309.24,140612,,,A*7D
$GPRMC,180728.000,A,3748.8210,N,12217.6364,W,0.95,86.54,140612,,,A*48
$GPRMC,180729.000,A,3748.8213,N,12217.6355,W,1.02,92.59,140612,,,A*4F
$GPRMC,180730.000,A,3748.8211,N,12217.6347,W,0.63,130.67,140612,,,A*74
$GPRMC,180731.000,A,3748.8212,N,12217.6348,W,0.23,36.82,140612,,,A*41
$GPRMC,180732.000,A,3748.8210,N,12217.6352,W,0.39,258.75,140612,,,A*72
$GPRMC,180733.000,A,3748.8206,N,12217.6352,W,0.43,9.56,140612,,,A*7E
$GPRMC,180734.000,A,3748.8198,N,12217.6347,W,1.34,73.37,140612,,,A*42
$GPRMC,180735.000,A,3748.8191,N,12217.6344,W,2.16,76.06,140612,,,A*4D
$GPRMC,180736.000,A,3748.8194,N,12217.6348,W,1.73,31.69,140612,,,A*4D
$GPRMC,180737.000,A,3748.8195,N,12217.6341,W,1.37,18.00,140612,,,A*40
$GPRMC,180738.000,A,3748.8204,N,12217.6334,W,1.83,3.74,140612,,,A*70
$GPRMC,180739.000,A,3748.8210,N,12217.6324,W,2.23,11.29,140612,,,A*47
$GPRMC,180740.000,A,3748.8222,N,12217.6309,W,3.43,41.21,140612,,,A*4D
$GPRMC,180741.000,A,3748.8237,N,12217.6296,W,3.40,40.99,140612,,,A*4E
$GPRMC,180742.000,A,3748.8251,N,12217.6278,W,2.96,48.99,140612,,,A*4F
$GPRMC,180743.000,A,3748.8270,N,12217.6277,W,2.86,26.57,140612,,,A*49
$GPRMC,180744.000,A,3748.8284,N,12217.6280,W,2.90,30.61,140612,,,A*48
$GPRMC,180745.000,A,3748.8298,N,12217.6279,W,3.03,23.57,140612,,,A*4E
$GPRMC,180746.000,A,3748.8307,N,12217.6286,W,2.46,24.60,140612,,,A*49
$GPRMC,180747.000,A,3748.8310,N,12217.6292,W,1.25,41.52,140612,,,A*4F
$GPRMC,180748.000,A,3748.8311,N,12217.6301,W,1.35,9.20,140612,,,A*72
$GPRMC,180749.000,A,3748.8316,N,12217.6297,W,1.75,0.99,140612,,,A*75
$GPRMC,180750.000,A,3748.8325,N,12217.6294,W,1.71,2.78,140612,,,A*77
$GPRMC,180751.000,A,3748.8328,N,12217.6286,W,2.20,27.95,140612,,,A*4B
$GPRMC,180752.000,A,3748.8326,N,12217.6274,W,1.97,47.24,140612,,,A*48
$GPRMC,180753.000,A,3748.8323,N,12217.6256,W,1.87,103.95,140612,,,A*76
$GPRMC,180754.000,A,3748.8317,N,12217.6233,W,2.03,102.27,140612,,,A*72
$GPRMC,180755.000,A,3748.8309,N,12217.6215,W,1.67,114.30,140612,,,A*78
$GPRMC,180756.000,A,3748.8301,N,12217.6190,W,2.58,113.65,140612,,,A*75
$GPRMC,180757.000,A,3748.8298,N,12217.6179,W,1.32,96.26,140612,,,A*46
$GPRMC,180758.000,A,3748.8302,N,12217.6172,W,1.61,58.32,140612,,,A*41
$GPRMC,180759.000,A,3748.8310,N,12217.6167,W,2.07,50.05,140612,,,A*48
$GPRMC,180800.000,A,3748.8318,N,12217.6167,W,1.68,28.11,140612,,,A*43
$GPRMC,180801.000,A,3748.8331,N,12217.6168,W,1.69,18.98,140612,,,A*45
$GPRMC,180802.000,A,3748.8337,N,12217.6165,W,1.40,37.50,140612,,,A*4F
$GPRMC,180803.000,A,3748.8345,N,12217.6158,W,2.25,22.06,140612,,,A*42
$GPRMC,180804.000,A,3748.8359,N,12217.6157,W,2.56,12.90,140612,,,A*4F
$GPRMC,180805.000,A,3748.8367,N,12217.6154,W,2.69,11.73,140612,,,A*42
