$ADVER,3080,2.3
$GPRMC,171822.192,A,3748.8009,N,12217.8642,W,0.21,230.43,290911,,,A*78
$GPRMC,171823.192,A,3748.8009,N,12217.8642,W,0.18,215.13,290911,,,A*71
$GPRMC,171824.192,A,3748.8010,N,12217.8641,W,0.12,229.33,290911,,,A*7A
$GPRMC,171825.192,A,3748.8011,N,12217.8636,W,0.09,194.53,290911,,,A*73
$GPRMC,171826.192,A,3748.8012,N,12217.8635,W,0.16,210.69,290911,,,A*78
$GPRMC,171827.192,A,3748.8014,N,12217.8633,W,0.24,227.08,290911,,,A*7B
$GPRMC,171828.192,A,3748.8015,N,12217.8632,W,0.06,205.72,290911,,,A*79
$GPRMC,171829.192,A,3748.8016,N,12217.8630,W,0.17,217.93,290911,,,A*75
$GPRMC,171830.192,A,3748.8017,N,12217.8628,W,0.20,232.87,290911,,,A*73
$GPRMC,171831.192,A,3748.8018,N,12217.8626,W,0.13,234.97,290911,,,A*74
$GPRMC,171832.192,A,3748.8018,N,12217.8625,W,0.20,232.26,290911,,,A*78
$GPRMC,171833.192,A,3748.8018,N,12217.8625,W,0.19,237.87,290911,,,A*7D
$GPRMC,171834.192,A,3748.8019,N,12217.8624,W,0.27,229.62,290911,,,A*73
$GPRMC,171835.192,A,3748.8019,N,12217.8622,W,0.15,225.77,290911,,,A*7D
$GPRMC,171836.192,A,3748.8019,N,12217.8621,W,0.19,236.93,290911,,,A*79
$GPRMC,171837.192,A,3748.8020,N,12217.8620,W,0.23,221.51,290911,,,A*72
$GPRMC,171838.192,A,3748.8020,N,12217.8620,W,0.27,233.18,290911,,,A*77
$GPRMC,171839.192,A,3748.8021,N,12217.8619,W,0.21,224.69,290911,,,A*7B
$GPRMC,171840.192,A,3748.8022,N,12217.8618,W,0.19,222.63,290911,,,A*70
$GPRMC,171841.192,A,3748.8022,N,12217.8616,W,0.19,240.43,290911,,,A*79
$GPRMC,171842.192,A,3748.8023,N,12217.8615,W,0.17,226.36,290911,,,A*74
$GPRMC,171843.192,A,3748.8023,N,12217.8615,W,0.19,224.48,290911,,,A*70
$GPRMC,171844.192,A,3748.8022,N,12217.8615,W,0.16,234.69,290911,,,A*7B
$GPRMC,171845.192,A,3748.8017,N,12217.8637,W,0.23,236.26,290911,,,D*76
$GPRMC,171846.192,A,3748.8017,N,12217.8638,W,0.20,231.65,290911,,,D*79
$GPRMC,171847.192,A,3748.8016,N,12217.8639,W,0.19,230.57,290911,,,D*72
$GPRMC,171848.192,A,3748.8016,N,12217.8640,W,0.27,233.03,290911,,,D*7C
$GPRMC,171849.192,A,3748.8016,N,12217.8641,W,0.18,253.77,290911,,,D*75
$GPRMC,171850.192,A,3748.8015,N,12217.8642,W,0.24,239.46,290911,,,D*7C
$GPRMC,171851.192,A,3748.8016,N,12217.8639,W,0.11,213.37,290911,,,D*7A
$GPRMC,171852.192,A,3748.8016,N,12217.8639,W,0.05,199.53,290911,,,D*7F
$GPRMC,171853.192,A,3748.8016,N,12217.8639,W,0.17,212.67,290911,,,D*7A
$GPRMC,171854.192,A,3748.8016,N,12217.8639,W,0.18,219.43,290911,,,D*7F
$GPRMC,171855.192,A,3748.8016,N,12217.8638,W,0.03,164.47,290911,,,D*78
$GPRMC,171856.192,A,3748.8017,N,12217.8637,W,0.14,203.81,290911,,,D*7B
$GPRMC,171857.192,A,3748.8016,N,12217.8641,W,0.17,225.21,290911,,,D*77
$GPRMC,171858.192,A,3748.7892,N,12217.8647,W,0.12,17.35,290911,,,D*46
$GPRMC,171859.192,A,3748.7992,N,12217.8626,W,0.07,219.06,290911,,,D*79
$GPRMC,171900.000,A,3748.7997,N,12217.8623,W,0.03,35.85,290911,,,D*4D
$GPRMC,171901.000,A,3748.8000,N,12217.8620,W,0.01,137.18,290911,,,D*72
$GPRMC,171902.000,A,3748.8002,N,12217.8619,W,0.03,89.33,290911,,,D*46
$GPRMC,171903.000,A,3748.8002,N,12217.8618,W,0.07,157.52,290911,,,D*77
$GPRMC,171904.000,A,3748.8003,N,12217.8618,W,0.08,169.22,290911,,,D*74
$GPRMC,171905.000,A,3748.8003,N,12217.8617,W,0.13,203.46,290911,,,D*7D
$GPRMC,171906.000,A,3748.8003,N,12217.8617,W,0.13,200.76,290911,,,D*7E
$GPRMC,171907.000,A,3748.8003,N,12217.8617,W,0.10,187.76,290911,,,D*70
$GPRMC,171908.000,A,3748.8003,N,12217.8617,W,0.11,186.09,290911,,,D*77
$GPRMC,171909.000,A,3748.8003,N,12217.8617,W,0.07,208.34,290911,,,D*7A
$GPRMC,171910.000,A,3748.8003,N,12217.8617,W,0.11,214.23,290911,,,D*7E
$GPRMC,171911.000,A,3748.8003,N,12217.8617,W,0.04,239.99,290911,,,D*75
$GPRMC,171912.000,A,3748.8003,N,12217.8616,W,0.01,177.69,290911,,,D*74
$GPRMC,171913.000,A,3748.8003,N,12217.8616,W,0.05,238.59,290911,,,D*7A
$GPRMC,171914.000,A,3748.8003,N,12217.8616,W,0.06,38.07,290911,,,D*47
$GPRMC,171915.000,A,3748.8004,N,12217.8616,W,0.06,189.72,290911,,,D*78
$GPRMC,171916.000,A,3748.8004,N,12217.8616,W,0.07,198.95,290911,,,D*73
$GPRMC,171917.000,A,3748.8003,N,12217.8616,W,0.14,207.76,290911,,,D*7F
$GPRMC,171918.000,A,3748.8003,N,12217.8616,W,0.13,207.20,290911,,,D*74
$GPRMC,171919.000,A,3748.8003,N,12217.8616,W,0.15,214.84,290911,,,D*7F
$GPRMC,171920.000,A,3748.8003,N,12217.8616,W,0.12,208.57,290911,,,D*71
$GPRMC,171921.000,A,3748.8003,N,12217.8616,W,0.09,234.10,290911,,,D*76
$GPRMC,171922.000,A,3748.8003,N,12217.8617,W,0.10,233.54,290911,,,D*7B
$GPRMC,171923.000,A,3748.8003,N,12217.8617,W,0.02,306.51,290911,,,D*7B
$GPRMC,171924.000,A,3748.8003,N,12217.8616,W,0.06,43.52,290911,,,D*48
$GPRMC,171925.000,A,3748.8003,N,12217.8616,W,0.03,36.89,290911,,,D*48
$GPRMC,171926.000,A,3748.8003,N,12217.8616,W,0.03,68.55,290911,,,D*41
$GPRMC,171927.000,A,3748.8003,N,12217.8616,W,0.03,215.43,290911,,,D*7F
$GPRMC,171928.000,A,3748.8002,N,12217.8617,W,0.03,84.16,290911,,,D*4A
$GPRMC,171929.000,A,3748.8000,N,12217.8618,W,0.03,333.33,290911,,,D*7E
$GPRMC,171930.000,A,3748.7998,N,12217.8619,W,0.14,207.58,290911,,,D*7D
$GPRMC,171931.000,A,3748.7996,N,12217.8620,W,0.01,284.43,290911,,,D*7D
$GPRMC,171932.000,A,3748.7994,N,12217.8621,W,0.10,347.20,290911,,,D*76
$GPRMC,171933.000,A,3748.7993,N,12217.8621,W,0.12,234.82,290911,,,D*7F
$GPRMC,171934.000,A,3748.7992,N,12217.8620,W,0.16,144.87,290911,,,D*7D
$GPRMC,171935.000,A,3748.7988,N,12217.8621,W,0.33,79.04,290911,,,D*45
$GPRMC,171936.000,A,3748.7986,N,12217.8622,W,0.09,28.44,290911,,,D*42
$GPRMC,171937.000,A,3748.7979,N,12217.8625,W,0.57,196.70,290911,,,D*7C
$GPRMC,171938.000,A,3748.7972,N,12217.8631,W,0.38,186.74,290911,,,D*71
$GPRMC,171939.000,A,3748.7968,N,12217.8636,W,0.53,219.43,290911,,,D*70
$GPRMC,171940.000,A,3748.7966,N,12217.8639,W,0.83,181.13,290911,,,D*75
$GPRMC,171941.000,A,3748.7961,N,12217.8642,W,0.13,201.00,290911,,,D*7F
$GPRMC,171942.000,A,3748.7963,N,12217.8646,W,0.50,339.80,290911,,,D*7F
$GPRMC,171943.000,A,3748.7965,N,12217.8646,W,0.43,71.37,290911,,,D*49
$GPRMC,171944.000,A,3748.7967,N,12217.8648,W,0.30,265.71,290911,,,D*73
$GPRMC,171945.000,A,3748.7967,N,12217.8650,W,0.48,114.65,290911,,,D*74
$GPRMC,171946.000,A,3748.7967,N,12217.8650,W,0.24,21.30,290911,,,D*4A
$GPRMC,171947.000,A,3748.7968,N,12217.8651,W,0.27,289.19,290911,,,D*7D
$GPRMC,171948.000,A,3748.7970,N,12217.8651,W,0.28,168.72,290911,,,D*75
$GPRMC,171949.000,A,3748.7969,N,12217.8653,W,0.49,158.73,290911,,,D*7B
$GPRMC,171950.000,A,3748.7969,N,12217.8655,W,0.27,252.96,290911,,,D*7F
$GPRMC,171951.000,A,3748.7967,N,12217.8655,W,0.60,192.53,290911,,,D*75
$GPRMC,171952.000,A,3748.7966,N,12217.8656,W,0.16,199.24,290911,,,D*7E
$GPRMC,171953.000,A,3748.7966,N,12217.8657,W,0.34,264.96,290911,,,D*76
$GPRMC,171954.000,A,3748.7965,N,12217.8658,W,0.38,175.25,290911,,,D*7A
$GPRMC,171955.000,A,3748.7964,N,12217.8661,W,0.26,246.26,290911,,,D*7F
$GPRMC,171956.000,A,3748.7960,N,12217.8664,W,0.51,217.92,290911,,,A*73
$GPRMC,171957.000,A,3748.7957,N,12217.8664,W,0.38,191.46,290911,,,A*7D
$GPRMC,171958.000,A,3748.7957,N,12217.8663,W,1.26,295.03,290911,,,A*7D
$GPRMC,171959.000,A,3748.7960,N,12217.8664,W,0.19,170.42,290911,,,D*7A
$GPRMC,172000.000,A,3748.7962,N,12217.8662,W,0.35,160.54,290911,,,D*70
$GPRMC,172001.000,A,3748.7968,N,12217.8658,W,0.22,6.30,290911,,,D*77
$GPRMC,172002.000,A,3748.7974,N,12217.8653,W,0.12,102.71,290911,,,D*71
$GPRMC,172003.000,A,3748.7978,N,12217.8651,W,0.22,114.74,290911,,,D*7F
$GPRMC,172004.000,A,3748.7982,N,12217.8647,W,0.46,91.67,290911,,,D*46
$GPRMC,172005.000,A,3748.7982,N,12217.8644,W,0.27,253.41,290911,,,D*7B
$GPRMC,172006.000,A,3748.7984,N,12217.8640,W,0.12,74.79,290911,,,D*40
$GPRMC,172007.000,A,3748.7979,N,12217.8644,W,0.31,169.70,290911,,,D*72
$GPRMC,172008.000,A,3748.7975,N,12217.8643,W,0.27,179.81,290911,,,D*7E
$GPRMC,172009.000,A,3748.7972,N,12217.8643,W,0.31,272.22,290911,,,D*7E
$GPRMC,172010.000,A,3748.7971,N,12217.8645,W,0.56,320.03,290911,,,D*77
$GPRMC,172011.000,A,3748.7973,N,12217.8642,W,0.45,103.29,290911,,,D*7A
$GPRMC,172012.000,A,3748.7973,N,12217.8643,W,0.35,283.37,290911,,,D*7B
$GPRMC,172013.000,A,3748.7972,N,12217.8650,W,0.08,257.12,290911,,,D*79
$GPRMC,172014.000,A,3748.7967,N,12217.8654,W,0.97,208.02,290911,,,D*73
$GPRMC,172015.000,A,3748.7964,N,12217.8653,W,0.74,248.36,290911,,,D*78
$GPRMC,172016.000,A,3748.7963,N,12217.8654,W,0.83,306.81,290911,,,D*74
$GPRMC,172017.000,A,3748.7966,N,12217.8654,W,0.33,338.89,290911,,,D*7E
$GPRMC,172018.000,A,3748.7970,N,12217.8650,W,0.80,44.51,290911,,,D*47
$GPRMC,172019.000,A,3748.7972,N,12217.8651,W,0.63,20.55,290911,,,D*4E
$GPRMC,172020.000,A,3748.7973,N,12217.8654,W,0.52,328.05,290911,,,D*7C
$GPRMC,172021.000,A,3748.7967,N,12217.8659,W,0.24,186.61,290911,,,D*70
$GPRMC,172022.000,A,3748.7961,N,12217.8664,W,0.42,169.78,290911,,,D*72
$GPRMC,172023.000,A,3748.7957,N,12217.8667,W,0.39,207.58,290911,,,D*70
$GPRMC,172024.000,A,3748.7956,N,12217.8671,W,0.31,297.56,290911,,,D*7E
$GPRMC,172025.000,A,3748.7957,N,12217.8677,W,0.58,330.40,290911,,,D*7C
$GPRMC,172026.000,A,3748.7959,N,12217.8680,W,0.33,335.31,290911,,,D*77
$GPRMC,172027.000,A,3748.7963,N,12217.8683,W,0.15,9.94,290911,,,D*7B
$GPRMC,172028.000,A,3748.7962,N,12217.8686,W,0.16,193.03,290911,,,D*7F
$GPRMC,172029.000,A,3748.7963,N,12217.8688,W,0.17,174.68,290911,,,D*74
$GPRMC,172030.000,A,3748.7960,N,12217.8692,W,0.14,206.89,290911,,,D*7E
$GPRMC,172031.000,A,3748.7962,N,12217.8697,W,0.13,269.50,290911,,,D*72
$GPRMC,172032.000,A,3748.7961,N,12217.8699,W,0.16,164.78,290911,,,D*7D
$GPRMC,172033.000,A,3748.7965,N,12217.8698,W,0.09,163.64,290911,,,D*7D
$GPRMC,172034.000,A,3748.7967,N,12217.8702,W,0.26,155.20,290911,,,D*72
$GPRMC,172035.000,A,3748.7967,N,12217.8702,W,0.19,322.69,290911,,,D*70
$GPRMC,172036.000,A,3748.7966,N,12217.8702,W,0.17,118.63,290911,,,D*7D
$GPRMC,172037.000,A,3748.7966,N,12217.8700,W,0.14,341.28,290911,,,D*7C
$GPRMC,172038.000,A,3748.7961,N,12217.8697,W,0.12,48.38,290911,,,D*46
$GPRMC,172039.000,A,3748.7960,N,12217.8698,W,0.14,27.01,290911,,,D*4C
$GPRMC,172040.000,A,3748.7958,N,12217.8698,W,0.19,162.93,290911,,,D*7F
$GPRMC,172041.000,A,3748.7963,N,12217.8702,W,0.07,319.42,290911,,,D*79
$GPRMC,172042.000,A,3748.7963,N,12217.8705,W,0.18,359.25,290911,,,D*76
$GPRMC,172043.000,A,3748.7965,N,12217.8708,W,0.39,20.12,290911,,,D*46
$GPRMC,172044.000,A,3748.7968,N,12217.8711,W,0.35,7.36,290911,,,D*7B
$GPRMC,172045.000,A,3748.7970,N,12217.8714,W,0.49,8.11,290911,,,D*77
$GPRMC,172046.000,A,3748.7973,N,12217.8715,W,0.54,31.23,290911,,,D*41
$GPRMC,172047.000,A,3748.7980,N,12217.8717,W,0.65,7.83,290911,,,D*73
$GPRMC,172048.000,A,3748.7986,N,12217.8717,W,0.41,8.49,290911,,,D*75
$GPRMC,172049.000,A,3748.7992,N,12217.8716,W,0.95,32.45,290911,,,D*4C
$GPRMC,172050.000,A,3748.7995,N,12217.8715,W,0.57,46.52,290911,,,D*4B
$GPRMC,172051.000,A,3748.7999,N,12217.8714,W,0.25,89.80,290911,,,D*4E
$GPRMC,172052.000,A,3748.7998,N,12217.8715,W,0.45,50.65,290911,,,D*44
$GPRMC,172053.000,A,3748.7993,N,12217.8711,W,0.53,64.15,290911,,,D*4D
$GPRMC,172054.000,A,3748.7988,N,12217.8707,W,0.42,26.53,290911,,,D*43
$GPRMC,172055.000,A,3748.7986,N,12217.8703,W,0.59,41.33,290911,,,D*45
$GPRMC,172056.000,A,3748.7982,N,12217.8701,W,0.21,80.84,290911,,,D*4E
$GPRMC,172057.000,A,3748.7979,N,12217.8699,W,0.26,64.62,290911,,,D*4E
$GPRMC,172058.000,A,3748.7976,N,12217.8697,W,0.13,162.19,290911,,,D*7D
$GPRMC,172059.000,A,3748.7971,N,12217.8699,W,0.12,313.08,290911,,,D*70
$GPRMC,172100.000,A,3748.7968,N,12217.8700,W,0.20,341.48,290911,,,D*76
$GPRMC,172101.000,A,3748.7966,N,12217.8700,W,0.09,138.80,290911,,,D*7A
$GPRMC,172102.000,A,3748.7962,N,12217.8700,W,0.18,149.27,290911,,,D*76
$GPRMC,172103.000,A,3748.7960,N,12217.8700,W,0.10,163.76,290911,,,D*71
$GPRMC,172104.000,A,3748.7957,N,12217.8701,W,0.09,169.38,290911,,,D*7B
$GPRMC,172105.000,A,3748.7954,N,12217.8700,W,0.07,35.24,290911,,,D*43
$GPRMC,172106.000,A,3748.7953,N,12217.8700,W,0.10,188.62,290911,,,D*74
$GPRMC,172107.000,A,3748.7951,N,12217.8700,W,0.02,211.13,290911,,,D*71
$GPRMC,172108.000,A,3748.7949,N,12217.8699,W,0.12,219.39,290911,,,D*77
$GPRMC,172109.000,A,3748.7948,N,12217.8699,W,0.10,41.41,290911,,,D*45
$GPRMC,172110.000,A,3748.7946,N,12217.8699,W,0.21,231.77,290911,,,D*71
$GPRMC,172111.000,A,3748.7945,N,12217.8700,W,0.07,190.38,290911,,,D*75
$GPRMC,172112.000,A,3748.7943,N,12217.8700,W,0.30,204.38,290911,,,D*7A
$GPRMC,172113.000,A,3748.7937,N,12217.8703,W,0.19,213.92,290911,,,D*76
$GPRMC,172114.000,A,3748.7934,N,12217.8708,W,0.51,273.30,290911,,,D*7B
$GPRMC,172115.000,A,3748.7933,N,12217.8713,W,0.55,251.94,290911,,,D*7D
$GPRMC,172116.000,A,3748.7934,N,12217.8716,W,0.58,208.97,290911,,,D*7E
$GPRMC,172117.000,A,3748.7934,N,12217.8717,W,0.65,149.03,290911,,,D*7B
$GPRMC,172118.000,A,3748.7932,N,12217.8714,W,0.55,90.03,290911,,,D*47
$GPRMC,172119.000,A,3748.7931,N,12217.8711,W,0.16,137.20,290911,,,D*7A
$GPRMC,172120.000,A,3748.7930,N,12217.8707,W,0.30,66.39,290911,,,D*4F
$GPRMC,172121.000,A,3748.7929,N,12217.8704,W,0.19,248.06,290911,,,D*7C
$GPRMC,172122.000,A,3748.7929,N,12217.8701,W,0.07,40.32,290911,,,D*48
$GPRMC,172123.000,A,3748.7928,N,12217.8696,W,0.08,125.28,290911,,,D*71
$GPRMC,172124.000,A,3748.7926,N,12217.8689,W,0.19,83.40,290911,,,D*45
$GPRMC,172125.000,A,3748.7924,N,12217.8683,W,0.11,110.03,290911,,,D*78
$GPRMC,172126.000,A,3748.7922,N,12217.8677,W,0.17,124.68,290911,,,D*7A
$GPRMC,172127.000,A,3748.7920,N,12217.8671,W,0.15,118.43,290911,,,D*7B
$GPRMC,172128.000,A,3748.7918,N,12217.8666,W,0.12,138.84,290911,,,D*77
$GPRMC,172129.000,A,3748.7920,N,12217.8663,W,0.10,51.54,290911,,,D*49
$GPRMC,172130.000,A,3748.7923,N,12217.8659,W,0.29,54.91,290911,,,D*4D
$GPRMC,172131.000,A,3748.7924,N,12217.8656,W,0.42,342.63,290911,,,D*70
$GPRMC,172132.000,A,3748.7926,N,12217.8655,W,0.17,18.96,290911,,,D*44
$GPRMC,172133.000,A,3748.7929,N,12217.8654,W,0.25,332.42,290911,,,D*78
$GPRMC,172134.000,A,3748.7931,N,12217.8655,W,0.30,290.72,290911,,,D*79
$GPRMC,172135.000,A,3748.7935,N,12217.8658,W,0.21,196.20,290911,,,D*73
$GPRMC,172136.000,A,3748.7938,N,12217.8661,W,0.16,266.91,290911,,,D*75
$GPRMC,172137.000,A,3748.7941,N,12217.8664,W,0.41,201.06,290911,,,D*72
$GPRMC,172138.000,A,3748.7943,N,12217.8666,W,0.29,251.20,290911,,,D*72
$GPRMC,172139.000,A,3748.7949,N,12217.8662,W,0.21,263.02,290911,,,D*74
$GPRMC,172140.000,A,3748.7948,N,12217.8661,W,0.43,198.93,290911,,,D*73
$GPRMC,172141.000,A,3748.7948,N,12217.8659,W,0.65,186.44,290911,,,D*78
$GPRMC,172142.000,A,3748.7950,N,12217.8657,W,0.25,201.55,290911,,,D*74
$GPRMC,172143.000,A,3748.7951,N,12217.8655,W,0.59,193.06,290911,,,D*73
$GPRMC,172144.000,A,3748.7951,N,12217.8654,W,0.18,59.98,290911,,,D*40
$GPRMC,172145.000,A,3748.7952,N,12217.8656,W,0.20,247.60,290911,,,D*71
$GPRMC,172146.000,A,3748.7950,N,12217.8657,W,0.29,258.45,290911,,,D*71
$GPRMC,172147.000,A,3748.7955,N,12217.8656,W,0.37,197.03,290911,,,D*79
$GPRMC,172148.000,A,3748.7959,N,12217.8654,W,0.23,141.72,290911,,,D*70
$GPRMC,172149.000,A,3748.7961,N,12217.8655,W,0.33,114.38,290911,,,D*74
$GPRMC,172150.000,A,3748.7966,N,12217.8652,W,0.13,108.88,290911,,,D*78
$GPRMC,172151.000,A,3748.7967,N,12217.8651,W,0.11,107.00,290911,,,D*76
$GPRMC,172152.000,A,3748.7970,N,12217.8648,W,0.31,118.49,290911,,,D*7A
$GPRMC,172153.000,A,3748.7972,N,12217.8646,W,0.43,106.69,290911,,,D*7F
$GPRMC,172154.000,A,3748.7970,N,12217.8646,W,0.19,111.53,290911,,,D*7A
$GPRMC,172155.000,A,3748.7969,N,12217.8648,W,0.21,330.23,290911,,,D*70
$GPRMC,172156.000,A,3748.7966,N,12217.8652,W,0.21,302.19,290911,,,D*7F
$GPRMC,172157.000,A,3748.7963,N,12217.8654,W,0.46,150.13,290911,,,D*73
$GPRMC,172158.000,A,3748.7968,N,12217.8652,W,0.40,339.74,290911,,,D*7B
$GPRMC,172159.000,A,3748.7967,N,12217.8652,W,0.29,266.55,290911,,,D*72
$GPRMC,172200.000,A,3748.7967,N,12217.8656,W,0.39,133.59,290911,,,D*77
$GPRMC,172201.000,A,3748.7964,N,12217.8659,W,0.65,160.92,290911,,,D*72
$GPRMC,172202.000,A,3748.7963,N,12217.8663,W,0.86,190.88,290911,,,D*76
$GPRMC,172203.000,A,3748.7961,N,12217.8666,W,1.01,180.95,290911,,,D*73
$GPRMC,172204.000,A,3748.7958,N,12217.8670,W,1.94,204.45,290911,,,D*77
$GPRMC,172205.000,A,3748.7956,N,12217.8675,W,1.59,206.90,290911,,,D*76
$GPRMC,172206.000,A,3748.7951,N,12217.8685,W,2.25,221.36,290911,,,D*7C
$GPRMC,172207.000,A,3748.7948,N,12217.8692,W,0.33,138.23,290911,,,D*79
$GPRMC,172208.000,A,3748.7948,N,12217.8696,W,0.84,187.71,290911,,,D*7D
$GPRMC,172209.000,A,3748.7941,N,12217.8703,W,0.34,212.94,290911,,,D*77
$GPRMC,172210.000,A,3748.7941,N,12217.8706,W,0.26,187.84,290911,,,D*77
$GPRMC,172211.000,A,3748.7943,N,12217.8707,W,0.18,242.78,290911,,,D*71
$GPRMC,172212.000,A,3748.7945,N,12217.8707,W,0.77,0.68,290911,,,D*78
$GPRMC,172213.000,A,3748.7950,N,12217.8707,W,0.65,23.90,290911,,,D*48
$GPRMC,172214.000,A,3748.7949,N,12217.8703,W,0.65,67.91,290911,,,D*42
$GPRMC,172215.000,A,3748.7947,N,12217.8699,W,1.05,96.89,290911,,,D*4F
$GPRMC,172216.000,A,3748.7944,N,12217.8693,W,1.28,108.30,290911,,,D*7E
$GPRMC,172217.000,A,3748.7939,N,12217.8687,W,2.13,121.09,290911,,,D*7A
$GPRMC,172218.000,A,3748.7932,N,12217.8679,W,1.68,107.49,290911,,,D*70
$GPRMC,172219.000,A,3748.7929,N,12217.8673,W,1.28,77.30,290911,,,D*4D
$GPRMC,172220.000,A,3748.7927,N,12217.8670,W,0.76,93.84,290911,,,D*45
$GPRMC,172221.000,A,3748.7928,N,12217.8670,W,0.95,305.24,290911,,,D*70
$GPRMC,172222.000,A,3748.7929,N,12217.8664,W,0.84,332.03,290911,,,D*76
$GPRMC,172223.000,A,3748.7928,N,12217.8664,W,0.87,331.60,290911,,,D*73
$GPRMC,172224.000,A,3748.7930,N,12217.8665,W,0.93,313.52,290911,,,D*78
$GPRMC,172225.000,A,3748.7931,N,12217.8669,W,1.01,303.61,290911,,,D*7F
$GPRMC,172226.000,A,3748.7933,N,12217.8677,W,0.83,287.49,290911,,,D*7D
$GPRMC,172227.000,A,3748.7936,N,12217.8677,W,0.51,262.85,290911,,,D*7D
$GPRMC,172228.000,A,3748.7936,N,12217.8678,W,0.31,196.91,290911,,,D*76
$GPRMC,172229.000,A,3748.7932,N,12217.8679,W,0.55,189.29,290911,,,D*7D
$GPRMC,172230.000,A,3748.7926,N,12217.8680,W,1.45,169.35,290911,,,D*75
$GPRMC,172231.000,A,3748.7919,N,12217.8675,W,1.65,165.60,290911,,,D*7C
$GPRMC,172232.000,A,3748.7907,N,12217.8678,W,1.46,174.62,290911,,,D*7E
$GPRMC,172233.000,A,3748.7900,N,12217.8682,W,0.64,189.53,290911,,,A*79
$GPRMC,172234.000,A,3748.7896,N,12217.8686,W,0.71,214.48,290911,,,A*7D
$GPRMC,172235.000,A,3748.7895,N,12217.8691,W,0.89,245.80,290911,,,A*7E
$GPRMC,172236.000,A,3748.7893,N,12217.8695,W,0.67,203.51,290911,,,A*71
$GPRMC,172237.000,A,3748.7886,N,12217.8699,W,1.34,174.05,290911,,,A*7D
$GPRMC,172238.000,A,3748.7881,N,12217.8696,W,0.83,115.46,290911,,,A*77
$GPRMC,172239.000,A,3748.7874,N,12217.8692,W,0.86,122.90,290911,,,A*72
$GPRMC,172240.000,A,3748.7875,N,12217.8686,W,0.98,106.41,290911,,,A*7D
$GPRMC,172241.000,A,3748.7881,N,12217.8680,W,1.76,41.41,290911,,,A*42
$GPRMC,172242.000,A,3748.7885,N,12217.8669,W,1.16,72.53,290911,,,A*47
$GPRMC,172243.000,A,3748.7886,N,12217.8663,W,1.15,98.89,290911,,,A*4F
$GPRMC,172244.000,A,3748.7880,N,12217.8660,W,0.82,130.82,290911,,,A*7A
$GPRMC,172245.000,A,3748.7879,N,12217.8659,W,1.04,209.20,290911,,,A*79
$GPRMC,172246.000,A,3748.7876,N,12217.8663,W,0.64,223.49,290911,,,A*7C
$GPRMC,172247.000,A,3748.7878,N,12217.8660,W,0.64,308.73,290911,,,A*71
$GPRMC,172248.000,A,3748.7880,N,12217.8656,W,1.02,2.57,290911,,,A*72
$GPRMC,172249.000,A,3748.7894,N,12217.8650,W,2.51,20.98,290911,,,A*46
$GPRMC,172250.000,A,3748.7903,N,12217.8647,W,3.17,24.40,290911,,,A*45
$GPRMC,172251.000,A,3748.7898,N,12217.8649,W,1.86,29.70,290911,,,A*4D
$GPRMC,172252.000,A,3748.7899,N,12217.8655,W,0.77,348.90,290911,,,A*77
$GPRMC,172253.000,A,3748.7897,N,12217.8664,W,0.61,265.47,290911,,,A*79
$GPRMC,172254.000,A,3748.7894,N,12217.8669,W,0.30,216.81,290911,,,A*7A
$GPRMC,172255.000,A,3748.7889,N,12217.8673,W,0.12,222.07,290911,,,A*75
$GPRMC,172256.000,A,3748.7882,N,12217.8674,W,1.27,219.36,290911,,,A*77
$GPRMC,172257.000,A,3748.7881,N,12217.8681,W,0.77,247.31,290911,,,A*77
$GPRMC,172258.000,A,3748.7877,N,12217.8686,W,0.97,171.20,290911,,,A*7E
$GPRMC,172259.000,A,3748.7872,N,12217.8687,W,1.42,170.08,290911,,,A*79
$GPRMC,172300.000,A,3748.7872,N,12217.8681,W,1.14,126.63,290911,,,A*7F
$GPRMC,172301.000,A,3748.7872,N,12217.8679,W,0.98,132.55,290911,,,A*7C
$GPRMC,172302.000,A,3748.7876,N,12217.8668,W,1.34,108.05,290911,,,A*70
$GPRMC,172303.000,A,3748.7878,N,12217.8661,W,1.46,84.32,290911,,,A*42
$GPRMC,172304.000,A,3748.7881,N,12217.8660,W,0.37,28.39,290911,,,A*48
$GPRMC,172305.000,A,3748.7885,N,12217.8662,W,1.29,327.71,290911,,,A*71
$GPRMC,172306.000,A,3748.7891,N,12217.8669,W,1.05,313.03,290911,,,A*70
$GPRMC,172307.000,A,3748.7898,N,12217.8677,W,1.27,299.44,290911,,,A*77
$GPRMC,172308.000,A,3748.7903,N,12217.8683,W,1.03,274.83,290911,,,A*7E
$GPRMC,172309.000,A,3748.7894,N,12217.8691,W,1.30,210.84,290911,,,A*76
$GPRMC,172310.000,A,3748.7888,N,12217.8697,W,1.63,200.75,290911,,,A*7C
$GPRMC,172311.000,A,3748.7884,N,12217.8696,W,1.14,174.16,290911,,,A*75
$GPRMC,172312.000,A,3748.7883,N,12217.8689,W,0.77,144.94,290911,,,A*72
$GPRMC,172313.000,A,3748.7878,N,12217.8690,W,0.30,135.15,290911,,,A*73
$GPRMC,172314.000,A,3748.7875,N,12217.8691,W,0.11,107.33,290911,,,A*7E
$GPRMC,172315.000,A,3748.7877,N,12217.8690,W,0.51,335.95,290911,,,A*77
$GPRMC,172316.000,A,3748.7882,N,12217.8693,W,1.46,353.45,290911,,,A*77
$GPRMC,172317.000,A,3748.7887,N,12217.8691,W,1.19,355.21,290911,,,A*7F
$GPRMC,172318.000,A,3748.7895,N,12217.8692,W,0.26,92.18,290911,,,A*4F
$GPRMC,172319.000,A,3748.7893,N,12217.8689,W,0.07,147.28,290911,,,A*7B
$GPRMC,172320.000,A,3748.7894,N,12217.8689,W,0.56,233.89,290911,,,A*79
$GPRMC,172321.000,A,3748.7897,N,12217.8685,W,0.56,222.24,290911,,,A*70
$GPRMC,172322.000,A,3748.7901,N,12217.8680,W,0.18,223.04,290911,,,A*71
$GPRMC,172323.000,A,3748.7901,N,12217.8676,W,0.47,262.10,290911,,,A*73
$GPRMC,172324.000,A,3748.7903,N,12217.8676,W,0.47,298.49,290911,,,A*7F
$GPRMC,172325.000,A,3748.7910,N,12217.8685,W,1.31,300.31,290911,,,A*7F
$GPRMC,172326.000,A,3748.7911,N,12217.8685,W,0.75,289.81,290911,,,A*77
$GPRMC,172327.000,A,3748.7910,N,12217.8681,W,0.39,111.96,290911,,,A*7F
$GPRMC,172328.000,A,3748.7909,N,12217.8677,W,1.05,105.92,290911,,,A*7E
$GPRMC,172329.000,A,3748.7907,N,12217.8672,W,0.86,83.74,290911,,,A*49
$GPRMC,172330.000,A,3748.7907,N,12217.8669,W,1.13,99.57,290911,,,A*4C
$GPRMC,172331.000,A,3748.7906,N,12217.8660,W,1.71,99.37,290911,,,A*47
$GPRMC,172332.000,A,3748.7906,N,12217.8650,W,1.64,75.11,290911,,,A*45
$GPRMC,172333.000,A,3748.7912,N,12217.8648,W,1.62,341.81,290911,,,A*73
$GPRMC,172334.000,A,3748.7917,N,12217.8659,W,1.92,300.80,290911,,,A*7A
$GPRMC,172335.000,A,3748.7921,N,12217.8670,W,1.62,279.87,290911,,,A*72
$GPRMC,172336.000,A,3748.7919,N,12217.8681,W,1.76,251.12,290911,,,A*77
$GPRMC,172337.000,A,3748.7921,N,12217.8692,W,1.25,245.92,290911,,,A*74
$GPRMC,172338.000,A,3748.7920,N,12217.8702,W,2.07,207.31,290911,,,A*7E
$GPRMC,172339.000,A,3748.7917,N,12217.8710,W,1.59,202.47,290911,,,A*74
$GPRMC,172340.000,A,3748.7910,N,12217.8721,W,1.64,207.04,290911,,,A*73
$GPRMC,172341.000,A,3748.7904,N,12217.8731,W,1.20,183.62,290911,,,A*79
$GPRMC,172342.000,A,3748.7903,N,12217.8736,W,0.49,195.56,290911,,,A*74
$GPRMC,172343.000,A,3748.7903,N,12217.8740,W,0.21,150.47,290911,,,A*73
$GPRMC,172344.000,A,3748.7900,N,12217.8747,W,0.36,168.86,290911,,,A*70
$GPRMC,172345.000,A,3748.7895,N,12217.8754,W,1.13,173.64,290911,,,A*7E
$GPRMC,172346.000,A,3748.7890,N,12217.8759,W,0.77,170.09,290911,,,A*7E
$GPRMC,172347.000,A,3748.7888,N,12217.8762,W,0.41,160.87,290911,,,A*7C
$GPRMC,172348.000,A,3748.7886,N,12217.8766,W,0.56,157.76,290911,,,A*75
$GPRMC,172349.000,A,3748.7881,N,12217.8771,W,0.66,176.94,290911,,,A*79
$GPRMC,172350.000,A,3748.7877,N,12217.8776,W,0.65,156.46,290911,,,A*71
$GPRMC,172351.000,A,3748.7868,N,12217.8784,W,1.34,190.63,290911,,,D*7E
$GPRMC,172352.000,A,3748.7860,N,12217.8790,W,0.94,199.52,290911,,,D*70
$GPRMC,172353.000,A,3748.7858,N,12217.8795,W,0.72,203.84,290911,,,D*7C
$GPRMC,172354.000,A,3748.7856,N,12217.8799,W,0.32,160.92,290911,,,D*7C
$GPRMC,172355.000,A,3748.7851,N,12217.8805,W,0.47,126.91,290911,,,D*73
$GPRMC,172356.000,A,3748.7847,N,12217.8810,W,0.53,128.60,290911,,,D*76
$GPRMC,172357.000,A,3748.7844,N,12217.8813,W,0.66,165.70,290911,,,D*79
$GPRMC,172358.000,A,3748.7840,N,12217.8817,W,0.93,186.01,290911,,,D*77
$GPRMC,172359.000,A,3748.7836,N,12217.8821,W,0.93,189.83,290911,,,D*77
$GPRMC,172400.000,A,3748.7827,N,12217.8829,W,1.01,200.47,290911,,,D*74
$GPRMC,172401.000,A,3748.7821,N,12217.8835,W,1.11,203.93,290911,,,D*75
$GPRMC,172402.000,A,3748.7814,N,12217.8841,W,1.11,196.01,290911,,,D*77
$GPRMC,172403.000,A,3748.7805,N,12217.8848,W,1.25,187.41,290911,,,D*7C
$GPRMC,172404.000,A,3748.7798,N,12217.8854,W,1.10,202.59,290911,,,D*7C
$GPRMC,172405.000,A,3748.7791,N,12217.8860,W,1.01,194.48,290911,,,D*7F
$GPRMC,172406.000,A,3748.7785,N,12217.8865,W,1.39,198.06,290911,,,D*71
$GPRMC,172407.000,A,3748.7778,N,12217.8873,W,2.12,202.29,290911,,,D*72
$GPRMC,172408.000,A,3748.7771,N,12217.8882,W,1.76,196.08,290911,,,D*76
$GPRMC,172409.000,A,3748.7768,N,12217.8885,W,1.46,179.63,290911,,,D*77
$GPRMC,172410.000,A,3748.7765,N,12217.8888,W,1.84,181.29,290911,,,D*78
$GPRMC,172411.000,A,3748.7758,N,12217.8893,W,1.71,194.95,290911,,,D*74
$GPRMC,172412.000,A,3748.7751,N,12217.8899,W,1.52,197.39,290911,,,D*70
$GPRMC,172413.000,A,3748.7742,N,12217.8908,W,1.25,179.75,290911,,,D*72
$GPRMC,172414.000,A,3748.7738,N,12217.8911,W,1.07,165.82,290911,,,D*75
$GPRMC,172415.000,A,3748.7735,N,12217.8915,W,0.90,176.08,290911,,,D*72
$GPRMC,172416.000,A,3748.7731,N,12217.8919,W,1.51,196.11,290911,,,D*73
$GPRMC,172417.000,A,3748.7722,N,12217.8925,W,1.34,198.05,290911,,,D*77
$GPRMC,172418.000,A,3748.7724,N,12217.8925,W,0.86,191.96,290911,,,D*75
$GPRMC,172419.000,A,3748.7719,N,12217.8930,W,0.87,184.39,290911,,,D*7E
$GPRMC,172420.000,A,3748.7712,N,12217.8937,W,1.24,184.11,290911,,,D*7A
$GPRMC,172421.000,A,3748.7705,N,12217.8943,W,1.73,190.15,290911,,,D*7D
$GPRMC,172422.000,A,3748.7695,N,12217.8951,W,2.04,200.21,290911,,,D*7B
$GPRMC,172423.000,A,3748.7690,N,12217.8955,W,1.91,201.26,290911,,,D*72
$GPRMC,172424.000,A,3748.7684,N,12217.8960,W,1.93,209.64,290911,,,D*7A
$GPRMC,172425.000,A,3748.7675,N,12217.8967,W,1.74,204.71,290911,,,D*72
$GPRMC,172426.000,A,3748.7668,N,12217.8973,W,1.84,199.80,290911,,,D*7E
$GPRMC,172427.000,A,3748.7666,N,12217.8976,W,2.08,206.11,290911,,,D*7E
$GPRMC,172428.000,A,3748.7660,N,12217.8982,W,1.96,200.23,290911,,,D*7F
$GPRMC,172429.000,A,3748.7655,N,12217.8986,W,1.98,194.40,290911,,,D*79
$GPRMC,172430.000,A,3748.7650,N,12217.8991,W,1.35,204.54,290911,,,D*7A
$GPRMC,172431.000,A,3748.7649,N,12217.8992,W,1.23,185.66,290911,,,D*7C
$GPRMC,172432.000,A,3748.7645,N,12217.8994,W,1.10,174.74,290911,,,D*78
$GPRMC,172433.000,A,3748.7640,N,12217.8998,W,1.48,194.56,290911,,,D*73
$GPRMC,172434.000,A,3748.7634,N,12217.9002,W,2.15,199.90,290911,,,D*70
$GPRMC,172435.000,A,3748.7628,N,12217.9008,W,1.28,193.66,290911,,,D*78
$GPRMC,172436.000,A,3748.7625,N,12217.9012,W,1.81,206.95,290911,,,D*7D
$GPRMC,172437.000,A,3748.7615,N,12217.9019,W,1.94,202.32,290911,,,D*79
$GPRMC,172438.000,A,3748.7610,N,12217.9023,W,1.86,202.29,290911,,,D*73
$GPRMC,172439.000,A,3748.7607,N,12217.9024,W,2.21,211.49,290911,,,D*79
$GPRMC,172440.000,A,3748.7603,N,12217.9026,W,1.83,208.42,290911,,,D*79
$GPRMC,172441.000,A,3748.7600,N,12217.9028,W,2.10,210.19,290911,,,D*7B
$GPRMC,172442.000,A,3748.7591,N,12217.9034,W,1.74,192.05,290911,,,D*7B
$GPRMC,172443.000,A,3748.7580,N,12217.9041,W,2.67,206.78,290911,,,D*7D
$GPRMC,172444.000,A,3748.7570,N,12217.9048,W,2.53,199.15,290911,,,D*75
$GPRMC,172445.000,A,3748.7559,N,12217.9056,W,1.85,194.92,290911,,,D*7A
$GPRMC,172446.000,A,3748.7551,N,12217.9061,W,1.78,191.30,290911,,,D*7A
$GPRMC,172447.000,A,3748.7548,N,12217.9063,W,1.72,193.14,290911,,,D*7F
$GPRMC,172448.000,A,3748.7543,N,12217.9066,W,1.87,197.06,290911,,,D*73
$GPRMC,172449.000,A,3748.7546,N,12217.9067,W,0.61,199.49,290911,,,D*7A
$GPRMC,172450.000,A,3748.7546,N,12217.9070,W,0.87,211.38,290911,,,D*79
$GPRMC,172451.000,A,3748.7545,N,12217.9074,W,1.71,208.47,290911,,,D*77
$GPRMC,172452.000,A,3748.7540,N,12217.9079,W,1.55,200.29,290911,,,D*7A
$GPRMC,172453.000,A,3748.7537,N,12217.9089,W,1.27,204.37,290911,,,D*7A
$GPRMC,172454.000,A,3748.7533,N,12217.9100,W,1.30,192.79,290911,,,D*79
$GPRMC,172455.000,A,3748.7530,N,12217.9110,W,1.41,211.99,290911,,,D*7A
$GPRMC,172456.000,A,3748.7528,N,12217.9119,W,1.11,201.88,290911,,,D*7D
$GPRMC,172457.000,A,3748.7525,N,12217.9127,W,1.50,201.17,290911,,,D*7F
$GPRMC,172458.000,A,3748.7521,N,12217.9132,W,1.43,202.98,290911,,,D*76
$GPRMC,172459.000,A,3748.7514,N,12217.9141,W,2.30,210.57,290911,,,D*72
$GPRMC,172500.000,A,3748.7508,N,12217.9146,W,1.81,200.22,290911,,,D*7F
$GPRMC,172501.000,A,3748.7502,N,12217.9148,W,1.43,190.03,290911,,,D*7D
$GPRMC,172502.000,A,3748.7497,N,12217.9151,W,1.89,188.50,290911,,,D*72
$GPRMC,172503.000,A,3748.7490,N,12217.9154,W,1.14,198.61,290911,,,D*76
$GPRMC,172504.000,A,3748.7482,N,12217.9159,W,1.44,187.89,290911,,,D*72
$GPRMC,172505.000,A,3748.7474,N,12217.9165,W,1.55,195.10,290911,,,D*76
$GPRMC,172506.000,A,3748.7463,N,12217.9171,W,1.58,193.67,290911,,,D*7D
$GPRMC,172507.000,A,3748.7455,N,12217.9174,W,2.13,195.84,290911,,,D*7B
$GPRMC,172508.000,A,3748.7445,N,12217.9180,W,1.98,194.66,290911,,,D*73
$GPRMC,172509.000,A,3748.7438,N,12217.9185,W,1.65,201.55,290911,,,D*70
$GPRMC,172510.000,A,3748.7432,N,12217.9188,W,1.70,192.24,290911,,,D*74
$GPRMC,172511.000,A,3748.7421,N,12217.9195,W,2.16,193.63,290911,,,D*7A
$GPRMC,172512.000,A,3748.7410,N,12217.9201,W,1.77,187.37,290911,,,D*75
$GPRMC,172513.000,A,3748.7405,N,12217.9203,W,1.25,182.04,290911,,,D*70
$GPRMC,172514.000,A,3748.7400,N,12217.9206,W,1.08,190.07,290911,,,D*78
$GPRMC,172515.000,A,3748.7393,N,12217.9211,W,1.47,184.50,290911,,,D*7E
$GPRMC,172516.000,A,3748.7389,N,12217.9215,W,0.73,185.83,290911,,,D*7B
$GPRMC,172517.000,A,3748.7385,N,12217.9219,W,1.48,201.29,290911,,,D*7C
$GPRMC,172518.000,A,3748.7379,N,12217.9224,W,1.66,204.87,290911,,,D*73
$GPRMC,172519.000,A,3748.7373,N,12217.9230,W,1.37,201.67,290911,,,D*72
$GPRMC,172520.000,A,3748.7368,N,12217.9235,W,1.43,214.55,290911,,,D*71
$GPRMC,172521.000,A,3748.7362,N,12217.9241,W,1.60,207.45,290911,,,D*7B
$GPRMC,172522.000,A,3748.7357,N,12217.9246,W,1.36,200.36,290911,,,D*79
$GPRMC,172523.000,A,3748.7350,N,12217.9251,W,1.48,199.64,290911,,,D*74
$GPRMC,172524.000,A,3748.7343,N,12217.9256,W,1.40,206.77,290911,,,D*79
$GPRMC,172525.000,A,3748.7335,N,12217.9262,W,1.39,202.17,290911,,,D*72
$GPRMC,172526.000,A,3748.7327,N,12217.9267,W,1.62,199.89,290911,,,D*7F
$GPRMC,172527.000,A,3748.7316,N,12217.9272,W,1.59,196.53,290911,,,D*78
$GPRMC,172528.000,A,3748.7308,N,12217.9276,W,1.58,195.68,290911,,,D*76
$GPRMC,172529.000,A,3748.7303,N,12217.9281,W,1.53,196.10,290911,,,D*73
$GPRMC,172530.000,A,3748.7298,N,12217.9285,W,1.29,190.99,290911,,,D*76
$GPRMC,172531.000,A,3748.7296,N,12217.9287,W,1.68,214.08,290911,,,D*79
$GPRMC,172532.000,A,3748.7290,N,12217.9292,W,1.44,207.32,290911,,,D*7D
$GPRMC,172533.000,A,3748.7287,N,12217.9295,W,1.52,207.83,290911,,,D*70
$GPRMC,172534.000,A,3748.7282,N,12217.9300,W,1.38,201.87,290911,,,D*71
$GPRMC,172535.000,A,3748.7277,N,12217.9303,W,1.41,190.72,290911,,,D*76
$GPRMC,172536.000,A,3748.7273,N,12217.9307,W,1.43,196.51,290911,,,D*70
$GPRMC,172537.000,A,3748.7267,N,12217.9312,W,1.72,202.34,290911,,,D*7F
$GPRMC,172538.000,A,3748.7266,N,12217.9313,W,1.91,197.19,290911,,,D*7D
$GPRMC,172539.000,A,3748.7260,N,12217.9319,W,2.06,200.43,290911,,,D*7F
$GPRMC,172540.000,A,3748.7250,N,12217.9328,W,2.22,210.71,290911,,,D*76
$GPRMC,172541.000,A,3748.7239,N,12217.9336,W,1.99,212.95,290911,,,D*7C
$GPRMC,172542.000,A,3748.7232,N,12217.9344,W,1.63,215.91,290911,,,D*77
$GPRMC,172543.000,A,3748.7219,N,12217.9353,W,2.17,198.62,290911,,,D*73
$GPRMC,172544.000,A,3748.7206,N,12217.9362,W,2.82,201.29,290911,,,D*78
$GPRMC,172545.000,A,3748.7197,N,12217.9369,W,2.60,196.73,290911,,,D*77
$GPRMC,172546.000,A,3748.7182,N,12217.9375,W,2.66,188.07,290911,,,D*77
$GPRMC,172547.000,A,3748.7171,N,12217.9381,W,2.26,193.48,290911,,,D*74
$GPRMC,172548.000,A,3748.7162,N,12217.9387,W,2.47,199.28,290911,,,D*74
$GPRMC,172549.000,A,3748.7151,N,12217.9392,W,2.05,182.63,290911,,,D*72
$GPRMC,172550.000,A,3748.7139,N,12217.9394,W,2.01,180.51,290911,,,D*75
$GPRMC,172551.000,A,3748.7133,N,12217.9397,W,2.02,190.48,290911,,,D*77
$GPRMC,172552.000,A,3748.7124,N,12217.9401,W,2.06,199.02,290911,,,D*79
$GPRMC,172553.000,A,3748.7116,N,12217.9407,W,2.52,199.90,290911,,,D*75
$GPRMC,172554.000,A,3748.7107,N,12217.9413,W,2.65,199.95,290911,,,D*76
$GPRMC,172555.000,A,3748.7099,N,12217.9419,W,2.53,205.72,290911,,,D*71
$GPRMC,172556.000,A,3748.7089,N,12217.9426,W,2.54,190.86,290911,,,D*7C
$GPRMC,172557.000,A,3748.7082,N,12217.9431,W,2.76,196.90,290911,,,D*71
$GPRMC,172558.000,A,3748.7073,N,12217.9437,W,2.13,195.41,290911,,,D*7A
$GPRMC,172559.000,A,3748.7068,N,12217.9441,W,1.75,205.09,290911,,,D*75
$GPRMC,172600.000,A,3748.7066,N,12217.9444,W,1.26,205.99,290911,,,D*7E
$GPRMC,172601.000,A,3748.7064,N,12217.9449,W,1.46,208.64,290911,,,D*79
$GPRMC,172602.000,A,3748.7058,N,12217.9454,W,1.40,194.59,290911,,,D*77
$GPRMC,172603.000,A,3748.7057,N,12217.9458,W,1.54,193.21,290911,,,D*78
$GPRMC,172604.000,A,3748.7053,N,12217.9461,W,1.89,200.41,290911,,,D*7E
$GPRMC,172605.000,A,3748.7052,N,12217.9467,W,1.85,212.87,290911,,,D*7D
$GPRMC,172606.000,A,3748.7050,N,12217.9473,W,1.87,208.95,290911,,,D*73
$GPRMC,172607.000,A,3748.7048,N,12217.9478,W,1.61,209.38,290911,,,D*7E
$GPRMC,172608.000,A,3748.7045,N,12217.9484,W,1.86,199.95,290911,,,D*7B
$GPRMC,172609.000,A,3748.7038,N,12217.9485,W,1.53,185.96,290911,,,D*77
$GPRMC,172610.000,A,3748.7035,N,12217.9489,W,2.14,211.43,290911,,,D*78
$GPRMC,172611.000,A,3748.7029,N,12217.9494,W,2.06,209.28,290911,,,D*7F
$GPRMC,172612.000,A,3748.7024,N,12217.9498,W,1.91,206.86,290911,,,D*7B
$GPRMC,172613.000,A,3748.7017,N,12217.9502,W,2.21,186.10,290911,,,D*74
$GPRMC,172614.000,A,3748.7010,N,12217.9503,W,1.83,218.15,290911,,,D*7F
$GPRMC,172615.000,A,3748.7004,N,12217.9509,W,2.06,214.18,290911,,,D*7E
$GPRMC,172616.000,A,3748.6998,N,12217.9515,W,1.93,203.65,290911,,,D*7E
$GPRMC,172617.000,A,3748.6992,N,12217.9521,W,2.08,211.90,290911,,,D*7A
$GPRMC,172618.000,A,3748.6984,N,12217.9526,W,2.13,209.39,290911,,,D*75
$GPRMC,172619.000,A,3748.6980,N,12217.9532,W,1.70,207.11,290911,,,D*77
$GPRMC,172620.000,A,3748.6980,N,12217.9536,W,2.18,212.90,290911,,,D*79
$GPRMC,172621.000,A,3748.6979,N,12217.9545,W,1.66,205.12,290911,,,D*7C
$GPRMC,172622.000,A,3748.6975,N,12217.9552,W,1.53,213.16,290911,,,D*70
$GPRMC,172623.000,A,3748.6970,N,12217.9560,W,1.75,206.45,290911,,,D*73
$GPRMC,172624.000,A,3748.6971,N,12217.9565,W,1.44,201.69,290911,,,D*7B
$GPRMC,172625.000,A,3748.6965,N,12217.9571,W,1.35,212.64,290911,,,D*73
$GPRMC,172626.000,A,3748.6958,N,12217.9577,W,1.77,205.54,290911,,,D*7B
$GPRMC,172627.000,A,3748.6952,N,12217.9578,W,1.70,204.00,290911,,,D*78
$GPRMC,172628.000,A,3748.6947,N,12217.9579,W,2.14,205.42,290911,,,D*74
$GPRMC,172629.000,A,3748.6942,N,12217.9580,W,1.79,213.01,290911,,,D*7E
$GPRMC,172630.000,A,3748.6935,N,12217.9583,W,2.17,212.79,290911,,,D*70
$GPRMC,172631.000,A,3748.6927,N,12217.9586,W,2.24,214.06,290911,,,D*79
$GPRMC,172632.000,A,3748.6917,N,12217.9592,W,2.32,201.41,290911,,,D*7C
$GPRMC,172633.000,A,3748.6905,N,12217.9600,W,1.85,197.93,290911,,,D*7A
$GPRMC,172634.000,A,3748.6893,N,12217.9613,W,1.87,202.33,290911,,,D*76
$GPRMC,172635.000,A,3748.6880,N,12217.9622,W,1.81,210.23,290911,,,D*73
$GPRMC,172636.000,A,3748.6866,N,12217.9633,W,2.18,202.19,290911,,,D*71
$GPRMC,172637.000,A,3748.6853,N,12217.9642,W,2.83,207.89,290911,,,D*7E
$GPRMC,172638.000,A,3748.6839,N,12217.9653,W,3.11,208.54,290911,,,D*78
$GPRMC,172639.000,A,3748.6831,N,12217.9659,W,2.61,208.41,290911,,,D*79
$GPRMC,172640.000,A,3748.6820,N,12217.9668,W,2.29,199.46,290911,,,D*75
$GPRMC,172641.000,A,3748.6810,N,12217.9673,W,2.00,201.89,290911,,,D*77
$GPRMC,172642.000,A,3748.6807,N,12217.9676,W,1.34,189.79,290911,,,D*7F
$GPRMC,172643.000,A,3748.6798,N,12217.9680,W,2.31,202.41,290911,,,D*73
$GPRMC,172644.000,A,3748.6792,N,12217.9683,W,1.60,202.34,290911,,,D*78
$GPRMC,172645.000,A,3748.6786,N,12217.9686,W,1.39,204.21,290911,,,D*77
$GPRMC,172646.000,A,3748.6780,N,12217.9689,W,1.51,196.82,290911,,,D*72
$GPRMC,172647.000,A,3748.6774,N,12217.9691,W,1.89,185.05,290911,,,D*79
$GPRMC,172648.000,A,3748.6764,N,12217.9695,W,2.24,191.81,290911,,,D*7E
$GPRMC,172649.000,A,3748.6758,N,12217.9700,W,2.39,199.86,290911,,,D*7E
$GPRMC,172650.000,A,3748.6754,N,12217.9705,W,2.17,207.39,290911,,,D*73
$GPRMC,172651.000,A,3748.6750,N,12217.9711,W,2.35,208.90,290911,,,D*7F
$GPRMC,172652.000,A,3748.6746,N,12217.9714,W,1.83,209.70,290911,,,D*7F
$GPRMC,172653.000,A,3748.6742,N,12217.9718,W,1.74,211.12,290911,,,D*73
$GPRMC,172654.000,A,3748.6736,N,12217.9723,W,2.77,200.73,290911,,,D*78
$GPRMC,172655.000,A,3748.6729,N,12217.9726,W,1.81,194.91,290911,,,D*7A
$GPRMC,172656.000,A,3748.6723,N,12217.9730,W,1.55,188.14,290911,,,D*7D
$GPRMC,172657.000,A,3748.6716,N,12217.9730,W,1.59,173.04,290911,,,D*73
$GPRMC,172658.000,A,3748.6707,N,12217.9734,W,2.04,187.76,290911,,,D*7D
$GPRMC,172659.000,A,3748.6696,N,12217.9738,W,1.54,198.77,290911,,,D*70
$GPRMC,172700.000,A,3748.6684,N,12217.9744,W,1.60,207.78,290911,,,D*78
$GPRMC,172701.000,A,3748.6672,N,12217.9750,W,1.68,209.04,290911,,,D*78
$GPRMC,172702.000,A,3748.6665,N,12217.9755,W,1.73,205.55,290911,,,D*7A
$GPRMC,172703.000,A,3748.6659,N,12217.9757,W,1.62,209.45,290911,,,D*7B
$GPRMC,172704.000,A,3748.6650,N,12217.9762,W,1.99,221.54,290911,,,A*78
$GPRMC,172705.000,A,3748.6645,N,12217.9766,W,1.66,215.85,290911,,,A*72
$GPRMC,172706.000,A,3748.6643,N,12217.9769,W,2.24,199.67,290911,,,A*76
$GPRMC,172707.000,A,3748.6635,N,12217.9773,W,2.21,190.32,290911,,,A*71
$GPRMC,172708.000,A,3748.6625,N,12217.9778,W,1.77,183.86,290911,,,A*79
$GPRMC,172709.000,A,3748.6621,N,12217.9778,W,2.16,154.35,290911,,,A*7A
$GPRMC,172710.000,A,3748.6617,N,12217.9778,W,1.66,180.63,290911,,,A*79
$GPRMC,172711.000,A,3748.6614,N,12217.9782,W,1.57,196.80,290911,,,A*76
$GPRMC,172712.000,A,3748.6611,N,12217.9786,W,1.41,197.48,290911,,,A*76
$GPRMC,172713.000,A,3748.6609,N,12217.9792,W,1.15,186.45,290911,,,A*77
$GPRMC,172714.000,A,3748.6603,N,12217.9796,W,0.86,183.67,290911,,,A*70
$GPRMC,172715.000,A,3748.6601,N,12217.9799,W,1.57,200.41,290911,,,A*7D
$GPRMC,172716.000,A,3748.6596,N,12217.9803,W,2.47,207.11,290911,,,A*7F
$GPRMC,172717.000,A,3748.6588,N,12217.9810,W,1.85,194.54,290911,,,A*76
$GPRMC,172718.000,A,3748.6583,N,12217.9815,W,2.05,188.13,290911,,,A*72
$GPRMC,172719.000,A,3748.6575,N,12217.9820,W,1.82,200.36,290911,,,A*74
$GPRMC,172720.000,A,3748.6570,N,12217.9825,W,2.03,196.59,290911,,,A*71
$GPRMC,172721.000,A,3748.6566,N,12217.9829,W,1.47,188.05,290911,,,A*7E
$GPRMC,172722.000,A,3748.6555,N,12217.9835,W,1.37,194.28,290911,,,A*75
$GPRMC,172723.000,A,3748.6550,N,12217.9841,W,0.92,199.75,290911,,,A*79
$GPRMC,172724.000,A,3748.6544,N,12217.9845,W,1.00,205.28,290911,,,A*7B
$GPRMC,172725.000,A,3748.6532,N,12217.9853,W,1.21,205.55,290911,,,A*75
$GPRMC,172726.000,A,3748.6527,N,12217.9857,W,0.74,193.64,290911,,,A*79
$GPRMC,172727.000,A,3748.6521,N,12217.9862,W,0.62,205.17,290911,,,A*77
$GPRMC,172728.000,A,3748.6515,N,12217.9867,W,1.33,204.90,290911,,,A*71
$GPRMC,172729.000,A,3748.6508,N,12217.9871,W,1.54,201.27,290911,,,A*73
$GPRMC,172730.000,A,3748.6504,N,12217.9875,W,2.02,207.04,290911,,,A*74
$GPRMC,172731.000,A,3748.6496,N,12217.9883,W,2.13,220.36,290911,,,A*72
$GPRMC,172732.000,A,3748.6487,N,12217.9891,W,2.16,211.50,290911,,,A*75
$GPRMC,172733.000,A,3748.6482,N,12217.9897,W,1.90,220.09,290911,,,A*74
$GPRMC,172734.000,A,3748.6474,N,12217.9905,W,1.75,218.76,290911,,,A*78
$GPRMC,172735.000,A,3748.6473,N,12217.9913,W,1.35,211.87,290911,,,A*7A
$GPRMC,172736.000,A,3748.6467,N,12217.9920,W,1.48,199.54,290911,,,A*7B
$GPRMC,172737.000,A,3748.6462,N,12217.9927,W,1.56,195.53,290911,,,A*7C
$GPRMC,172738.000,A,3748.6455,N,12217.9935,W,1.77,196.68,290911,,,A*7C
$GPRMC,172739.000,A,3748.6448,N,12217.9941,W,2.17,209.83,290911,,,A*77
$GPRMC,172740.000,A,3748.6438,N,12217.9948,W,1.65,206.76,290911,,,A*74
$GPRMC,172741.000,A,3748.6433,N,12217.9953,W,1.27,213.51,290911,,,A*73
$GPRMC,172742.000,A,3748.6424,N,12217.9959,W,1.39,194.53,290911,,,A*7D
$GPRMC,172743.000,A,3748.6416,N,12217.9966,W,2.30,200.83,290911,,,A*78
$GPRMC,172744.000,A,3748.6406,N,12217.9976,W,3.00,207.59,290911,,,A*7D
$GPRMC,172745.000,A,3748.6392,N,12217.9986,W,2.52,206.91,290911,,,A*7A
$GPRMC,172746.000,A,3748.6385,N,12217.9994,W,1.92,196.62,290911,,,A*75
$GPRMC,172747.000,A,3748.6378,N,12218.0002,W,2.15,208.32,290911,,,A*7B
$GPRMC,172748.000,A,3748.6369,N,12218.0008,W,2.26,206.92,290911,,,A*7A
$GPRMC,172749.000,A,3748.6363,N,12218.0014,W,1.99,201.07,290911,,,A*70
$GPRMC,172750.000,A,3748.6358,N,12218.0015,W,1.57,201.50,290911,,,A*71
$GPRMC,172751.000,A,3748.6349,N,12218.0017,W,1.70,204.14,290911,,,A*72
$GPRMC,172752.000,A,3748.6343,N,12218.0019,W,1.72,200.53,290911,,,A*70
$GPRMC,172753.000,A,3748.6334,N,12218.0027,W,2.60,207.74,290911,,,A*7E
$GPRMC,172754.000,A,3748.6326,N,12218.0038,W,1.97,209.76,290911,,,A*73
$GPRMC,172755.000,A,3748.6314,N,12218.0047,W,2.88,209.36,290911,,,A*72
$GPRMC,172756.000,A,3748.6306,N,12218.0059,W,2.41,209.47,290911,,,A*7E
$GPRMC,172757.000,A,3748.6300,N,12218.0066,W,1.94,200.37,290911,,,A*70
$GPRMC,172758.000,A,3748.6297,N,12218.0071,W,1.76,192.96,290911,,,A*79
$GPRMC,172759.000,A,3748.6296,N,12218.0076,W,1.64,200.27,290911,,,A*7F
$GPRMC,172800.000,A,3748.6293,N,12218.0083,W,1.94,207.57,290911,,,A*7C
$GPRMC,172801.000,A,3748.6287,N,12218.0090,W,2.25,212.89,290911,,,A*74
$GPRMC,172802.000,A,3748.6283,N,12218.0098,W,2.05,214.73,290911,,,A*7A
$GPRMC,172803.000,A,3748.6276,N,12218.0104,W,1.75,212.91,290911,,,A*7B
$GPRMC,172804.000,A,3748.6272,N,12218.0107,W,1.79,188.03,290911,,,A*7C
$GPRMC,172805.000,A,3748.6264,N,12218.0111,W,1.53,174.50,290911,,,A*70
$GPRMC,172806.000,A,3748.6255,N,12218.0112,W,2.10,148.10,290911,,,A*7D
$GPRMC,172807.000,A,3748.6245,N,12218.0111,W,2.34,135.12,290911,,,A*70
$GPRMC,172808.000,A,3748.6232,N,12218.0099,W,2.94,129.29,290911,,,A*71
$GPRMC,172809.000,A,3748.6222,N,12218.0087,W,2.90,121.59,290911,,,A*75
$GPRMC,172810.000,A,3748.6213,N,12218.0076,W,2.91,123.14,290911,,,A*7B
$GPRMC,172811.000,A,3748.6204,N,12218.0064,W,3.06,126.10,290911,,,A*71
$GPRMC,172812.000,A,3748.6193,N,12218.0052,W,2.69,130.00,290911,,,A*74
$GPRMC,172813.000,A,3748.6184,N,12218.0042,W,2.69,125.48,290911,,,A*7A
$GPRMC,172814.000,A,3748.6174,N,12218.0030,W,2.97,120.49,290911,,,A*72
$GPRMC,172815.000,A,3748.6167,N,12218.0019,W,2.74,120.26,290911,,,A*7E
$GPRMC,172816.000,A,3748.6155,N,12218.0009,W,2.90,127.69,290911,,,A*7B
$GPRMC,172817.000,A,3748.6146,N,12217.9998,W,2.82,127.59,290911,,,A*7F
$GPRMC,172818.000,A,3748.6138,N,12217.9989,W,2.74,127.41,290911,,,A*79
$GPRMC,172819.000,A,3748.6131,N,12217.9979,W,2.51,122.96,290911,,,A*76
$GPRMC,172820.000,A,3748.6126,N,12217.9969,W,2.91,123.07,290911,,,A*7E
$GPRMC,172821.000,A,3748.6124,N,12217.9958,W,2.70,122.41,290911,,,D*76
$GPRMC,172822.000,A,3748.6119,N,12217.9949,W,2.89,123.16,290911,,,D*7E
$GPRMC,172823.000,A,3748.6111,N,12217.9940,W,2.71,125.89,290911,,,D*79
$GPRMC,172824.000,A,3748.6101,N,12217.9931,W,3.02,126.62,290911,,,D*7A
$GPRMC,172825.000,A,3748.6095,N,12217.9920,W,3.20,128.34,290911,,,D*7A
$GPRMC,172826.000,A,3748.6088,N,12217.9911,W,3.02,125.64,290911,,,D*7F
$GPRMC,172827.000,A,3748.6082,N,12217.9901,W,2.91,124.18,290911,,,D*74
$GPRMC,172828.000,A,3748.6075,N,12217.9892,W,2.94,127.69,290911,,,D*78
$GPRMC,172829.000,A,3748.6071,N,12217.9883,W,2.45,119.94,290911,,,D*7E
$GPRMC,172830.000,A,3748.6066,N,12217.9874,W,2.72,120.46,290911,,,D*79
$GPRMC,172831.000,A,3748.6059,N,12217.9866,W,2.27,111.05,290911,,,D*72
$GPRMC,172832.000,A,3748.6058,N,12217.9858,W,2.20,110.43,290911,,,D*79
$GPRMC,172833.000,A,3748.6050,N,12217.9848,W,2.65,110.07,290911,,,D*70
$GPRMC,172834.000,A,3748.6044,N,12217.9840,W,2.58,114.29,290911,,,D*7C
$GPRMC,172835.000,A,3748.6038,N,12217.9830,W,2.95,118.84,290911,,,D*7B
$GPRMC,172836.000,A,3748.6030,N,12217.9817,W,3.15,127.11,290911,,,D*7C
$GPRMC,172837.000,A,3748.6026,N,12217.9805,W,2.77,120.39,290911,,,D*71
$GPRMC,172838.000,A,3748.6023,N,12217.9794,W,2.86,122.49,290911,,,D*77
$GPRMC,172839.000,A,3748.6022,N,12217.9784,W,2.39,117.48,290911,,,D*75
$GPRMC,172839.000,A,3748.6014,N,12217.9775,W,2.90,114.92,290911,,,D*79
$GPRMC,172840.000,A,3748.6008,N,12217.9767,W,2.46,117.91,290911,,,D*72
$GPRMC,172841.000,A,3748.6001,N,12217.9758,W,2.86,119.44,290911,,,D*7C
$GPRMC,172842.000,A,3748.5996,N,12217.9751,W,2.52,123.61,290911,,,D*75
$GPRMC,172843.000,A,3748.5996,N,12217.9740,W,2.71,120.14,290911,,,D*74
$GPRMC,172844.000,A,3748.5997,N,12217.9731,W,2.33,112.50,290911,,,D*73
$GPRMC,172845.000,A,3748.5997,N,12217.9724,W,2.21,114.12,290911,,,D*75
$GPRMC,172846.000,A,3748.5999,N,12217.9717,W,2.14,105.32,290911,,,D*7C
$GPRMC,172847.000,A,3748.6002,N,12217.9707,W,2.79,103.62,290911,,,D*7C
$GPRMC,172848.000,A,3748.6002,N,12217.9696,W,2.32,100.84,290911,,,D*7E
$GPRMC,172849.000,A,3748.5995,N,12217.9687,W,2.59,104.61,290911,,,D*79
$GPRMC,172850.000,A,3748.5989,N,12217.9678,W,2.69,113.24,290911,,,D*78
$GPRMC,172851.000,A,3748.5988,N,12217.9669,W,2.20,112.96,290911,,,D*7D
$GPRMC,172852.000,A,3748.5986,N,12217.9660,W,1.91,101.48,290911,,,D*71
$GPRMC,172853.000,A,3748.5980,N,12217.9653,W,2.26,110.54,290911,,,D*74
$GPRMC,172854.000,A,3748.5976,N,12217.9647,W,1.93,112.81,290911,,,D*78
$GPRMC,172855.000,A,3748.5966,N,12217.9642,W,2.01,130.23,290911,,,D*7D
$GPRMC,172856.000,A,3748.5958,N,12217.9638,W,2.48,115.17,290911,,,D*73
$GPRMC,172857.000,A,3748.5955,N,12217.9628,W,2.59,108.57,290911,,,D*76
$GPRMC,172858.000,A,3748.5955,N,12217.9619,W,2.18,112.31,290911,,,D*75
$GPRMC,172859.000,A,3748.5952,N,12217.9610,W,2.31,120.42,290911,,,D*74
$GPRMC,172900.000,A,3748.5950,N,12217.9599,W,2.89,108.00,290911,,,D*76
$GPRMC,172901.000,A,3748.5949,N,12217.9585,W,3.00,104.75,290911,,,D*7C
$GPRMC,172902.000,A,3748.5946,N,12217.9572,W,3.10,105.52,290911,,,D*7D
$GPRMC,172903.000,A,3748.5945,N,12217.9561,W,2.59,113.23,290911,,,D*70
$GPRMC,172904.000,A,3748.5940,N,12217.9549,W,2.78,122.73,290911,,,D*7C
$GPRMC,172905.000,A,3748.5935,N,12217.9540,W,2.70,126.74,290911,,,D*7D
$GPRMC,172906.000,A,3748.5930,N,12217.9530,W,2.80,127.23,290911,,,D*70
$GPRMC,172907.000,A,3748.5926,N,12217.9521,W,2.60,120.85,290911,,,D*73
$GPRMC,172908.000,A,3748.5922,N,12217.9512,W,2.82,109.44,290911,,,D*72
$GPRMC,172909.000,A,3748.5919,N,12217.9503,W,2.91,117.40,290911,,,D*72
$GPRMC,172910.000,A,3748.5916,N,12217.9493,W,2.82,117.21,290911,,,D*78
$GPRMC,172911.000,A,3748.5914,N,12217.9484,W,2.80,113.73,290911,,,D*7C
$GPRMC,172912.000,A,3748.5912,N,12217.9475,W,2.71,114.78,290911,,,D*75
$GPRMC,172913.000,A,3748.5909,N,12217.9466,W,2.82,110.60,290911,,,D*7D
$GPRMC,172914.000,A,3748.5907,N,12217.9457,W,2.61,112.67,290911,,,D*7E
$GPRMC,172915.000,A,3748.5904,N,12217.9449,W,2.64,121.56,290911,,,D*74
$GPRMC,172916.000,A,3748.5902,N,12217.9441,W,2.57,112.96,290911,,,D*75
$GPRMC,172917.000,A,3748.5899,N,12217.9433,W,2.21,122.70,290911,,,D*78
$GPRMC,172918.000,A,3748.5897,N,12217.9428,W,2.05,115.27,290911,,,D*73
$GPRMC,172919.000,A,3748.5893,N,12217.9423,W,2.14,108.44,290911,,,D*74
$GPRMC,172920.000,A,3748.5892,N,12217.9415,W,2.33,91.08,290911,,,D*46
$GPRMC,172921.000,A,3748.5888,N,12217.9411,W,2.76,97.50,290911,,,D*42
$GPRMC,172922.000,A,3748.5886,N,12217.9399,W,3.15,97.69,290911,,,D*46
$GPRMC,172923.000,A,3748.5881,N,12217.9384,W,2.70,106.44,290911,,,D*78
$GPRMC,172924.000,A,3748.5876,N,12217.9372,W,1.99,105.68,290911,,,D*77
$GPRMC,172925.000,A,3748.5870,N,12217.9361,W,2.08,111.48,290911,,,D*7E
$GPRMC,172926.000,A,3748.5864,N,12217.9350,W,2.23,140.56,290911,,,D*78
$GPRMC,172927.000,A,3748.5857,N,12217.9343,W,1.99,151.33,290911,,,D*7A
$GPRMC,172928.000,A,3748.5854,N,12217.9344,W,1.65,172.01,290911,,,D*72
$GPRMC,172929.000,A,3748.5853,N,12217.9349,W,1.03,175.51,290911,,,D*7B
$GPRMC,172930.000,A,3748.5851,N,12217.9353,W,0.78,205.57,290911,,,D*75
$GPRMC,172931.000,A,3748.5846,N,12217.9358,W,1.38,191.68,290911,,,D*7E
$GPRMC,172932.000,A,3748.5842,N,12217.9362,W,1.47,180.61,290911,,,D*71
$GPRMC,172933.000,A,3748.5835,N,12217.9369,W,1.91,204.18,290911,,,D*71
$GPRMC,172934.000,A,3748.5830,N,12217.9376,W,1.88,212.47,290911,,,D*78
$GPRMC,172935.000,A,3748.5828,N,12217.9385,W,1.81,208.80,290911,,,D*75
$GPRMC,172936.000,A,3748.5820,N,12217.9393,W,2.37,219.07,290911,,,A*7D
$GPRMC,172937.000,A,3748.5811,N,12217.9407,W,2.19,217.92,290911,,,A*7A
$GPRMC,172938.000,A,3748.5803,N,12217.9420,W,2.03,214.63,290911,,,A*75
$GPRMC,172939.000,A,3748.5795,N,12217.9427,W,2.06,211.49,290911,,,A*7B
$GPRMC,172940.000,A,3748.5792,N,12217.9435,W,1.43,220.50,290911,,,A*79
$GPRMC,172941.000,A,3748.5787,N,12217.9444,W,1.41,238.49,290911,,,A*79
$GPRMC,172942.000,A,3748.5782,N,12217.9452,W,1.67,220.72,290911,,,A*7D
$GPRMC,172943.000,A,3748.5779,N,12217.9458,W,1.46,207.35,290911,,,A*77
$GPRMC,172944.000,A,3748.5771,N,12217.9461,W,1.69,196.92,290911,,,A*79
$GPRMC,172945.000,A,3748.5766,N,12217.9465,W,1.96,195.27,290911,,,A*77
$GPRMC,172946.000,A,3748.5760,N,12217.9471,W,1.86,217.29,290911,,,A*71
$GPRMC,172947.000,A,3748.5752,N,12217.9477,W,1.69,213.93,290911,,,A*73
$GPRMC,172948.000,A,3748.5744,N,12217.9481,W,2.08,213.30,290911,,,A*7F
$GPRMC,172949.000,A,3748.5741,N,12217.9485,W,1.38,213.45,290911,,,A*7D
$GPRMC,172950.000,A,3748.5738,N,12217.9490,W,1.33,209.38,290911,,,A*75
$GPRMC,172951.000,A,3748.5734,N,12217.9494,W,1.52,204.06,290911,,,A*7B
$GPRMC,172952.000,A,3748.5730,N,12217.9497,W,1.57,206.71,290911,,,A*78
$GPRMC,172953.000,A,3748.5725,N,12217.9501,W,1.92,204.66,290911,,,A*7E
$GPRMC,172954.000,A,3748.5716,N,12217.9508,W,1.78,193.65,290911,,,A*7A
$GPRMC,172955.000,A,3748.5709,N,12217.9514,W,1.53,200.01,290911,,,A*7A
$GPRMC,172956.000,A,3748.5702,N,12217.9521,W,1.46,203.22,290911,,,A*72
$GPRMC,172957.000,A,3748.5693,N,12217.9524,W,1.95,198.83,290911,,,A*7B
$GPRMC,172958.000,A,3748.5685,N,12217.9532,W,1.87,205.66,290911,,,A*7B
$GPRMC,172959.000,A,3748.5677,N,12217.9542,W,1.78,202.57,290911,,,A*75
$GPRMC,173000.000,A,3748.5668,N,12217.9546,W,2.02,200.09,290911,,,A*7C
$GPRMC,173001.000,A,3748.5658,N,12217.9552,W,2.10,206.79,290911,,,A*79
$GPRMC,173002.000,A,3748.5654,N,12217.9557,W,1.55,202.90,290911,,,A*72
$GPRMC,173003.000,A,3748.5649,N,12217.9558,W,1.21,191.10,290911,,,A*72
$GPRMC,173004.000,A,3748.5641,N,12217.9562,W,1.04,207.45,290911,,,A*7F
$GPRMC,173005.000,A,3748.5636,N,12217.9568,W,1.52,222.51,290911,,,A*75
$GPRMC,173006.000,A,3748.5629,N,12217.9576,W,1.41,214.01,290911,,,A*75
$GPRMC,173007.000,A,3748.5621,N,12217.9582,W,1.77,208.84,290911,,,A*72
$GPRMC,173008.000,A,3748.5615,N,12217.9586,W,1.59,205.57,290911,,,A*71
$GPRMC,173009.000,A,3748.5604,N,12217.9593,W,1.74,203.68,290911,,,A*71
$GPRMC,173010.000,A,3748.5599,N,12217.9599,W,1.24,224.49,290911,,,A*77
$GPRMC,173011.000,A,3748.5596,N,12217.9603,W,1.53,221.17,290911,,,A*77
$GPRMC,173012.000,A,3748.5587,N,12217.9610,W,1.98,214.41,290911,,,A*74
$GPRMC,173013.000,A,3748.5579,N,12217.9617,W,2.00,231.65,290911,,,A*70
$GPRMC,173014.000,A,3748.5574,N,12217.9623,W,2.47,222.90,290911,,,A*76
$GPRMC,173015.000,A,3748.5568,N,12217.9629,W,2.20,218.04,290911,,,A*75
$GPRMC,173016.000,A,3748.5561,N,12217.9633,W,2.13,224.19,290911,,,A*77
$GPRMC,173017.000,A,3748.5555,N,12217.9638,W,1.99,206.23,290911,,,A*72
$GPRMC,173018.000,A,3748.5548,N,12217.9644,W,2.07,202.96,290911,,,A*74
$GPRMC,173019.000,A,3748.5540,N,12217.9648,W,2.42,206.91,290911,,,A*73
$GPRMC,173020.000,A,3748.5534,N,12217.9654,W,1.94,208.45,290911,,,A*78
$GPRMC,173021.000,A,3748.5524,N,12217.9661,W,2.43,212.41,290911,,,A*78
$GPRMC,173022.000,A,3748.5513,N,12217.9669,W,2.95,211.78,290911,,,A*75
$GPRMC,173023.000,A,3748.5505,N,12217.9675,W,2.38,210.05,290911,,,A*72
$GPRMC,173024.000,A,3748.5500,N,12217.9677,W,2.29,194.78,290911,,,A*77
$GPRMC,173025.000,A,3748.5492,N,12217.9682,W,2.12,204.41,290911,,,A*7E
$GPRMC,173026.000,A,3748.5486,N,12217.9686,W,1.88,202.87,290911,,,A*70
$GPRMC,173027.000,A,3748.5480,N,12217.9688,W,1.72,194.51,290911,,,A*7B
$GPRMC,173028.000,A,3748.5473,N,12217.9693,W,2.04,203.33,290911,,,A*79
$GPRMC,173029.000,A,3748.5462,N,12217.9701,W,2.30,202.25,290911,,,A*73
$GPRMC,173030.000,A,3748.5453,N,12217.9709,W,1.97,206.24,290911,,,A*7A
$GPRMC,173031.000,A,3748.5444,N,12217.9721,W,2.61,205.23,290911,,,A*79
$GPRMC,173032.000,A,3748.5432,N,12217.9727,W,2.39,196.07,290911,,,A*7F
$GPRMC,173033.000,A,3748.5423,N,12217.9736,W,2.00,204.88,290911,,,A*7B
$GPRMC,173034.000,A,3748.5417,N,12217.9748,W,2.23,220.23,290911,,,A*74
$GPRMC,173035.000,A,3748.5409,N,12217.9760,W,2.32,221.77,290911,,,A*70
$GPRMC,173036.000,A,3748.5399,N,12217.9769,W,2.41,210.35,290911,,,A*74
$GPRMC,173037.000,A,3748.5391,N,12217.9777,W,2.16,201.97,290911,,,A*78
$GPRMC,173038.000,A,3748.5386,N,12217.9780,W,2.01,200.98,290911,,,A*71
$GPRMC,173039.000,A,3748.5383,N,12217.9783,W,2.14,203.92,290911,,,A*7B
$GPRMC,173040.000,A,3748.5377,N,12217.9786,W,2.33,194.85,290911,,,A*75
$GPRMC,173041.000,A,3748.5372,N,12217.9788,W,1.77,188.02,290911,,,A*7E
$GPRMC,173042.000,A,3748.5368,N,12217.9789,W,1.45,187.79,290911,,,A*75
$GPRMC,173043.000,A,3748.5362,N,12217.9791,W,1.43,196.91,290911,,,A*77
$GPRMC,173044.000,A,3748.5358,N,12217.9792,W,1.26,190.75,290911,,,A*75
$GPRMC,173045.000,A,3748.5357,N,12217.9794,W,0.69,160.62,290911,,,A*7E
$GPRMC,173046.000,A,3748.5357,N,12217.9798,W,0.15,136.60,290911,,,A*7B
$GPRMC,173047.000,A,3748.5358,N,12217.9799,W,1.44,353.52,290911,,,A*71
$GPRMC,173048.000,A,3748.5356,N,12217.9804,W,1.84,235.35,290911,,,A*77
$GPRMC,173049.000,A,3748.5350,N,12217.9807,W,1.75,207.83,290911,,,A*71
$GPRMC,173050.000,A,3748.5346,N,12217.9814,W,1.62,203.30,290911,,,A*76
$GPRMC,173051.000,A,3748.5342,N,12217.9821,W,1.47,218.68,290911,,,A*75
$GPRMC,173052.000,A,3748.5336,N,12217.9825,W,1.48,238.12,290911,,,A*71
$GPRMC,173053.000,A,3748.5333,N,12217.9833,W,1.40,242.22,290911,,,A*74
$GPRMC,173054.000,A,3748.5326,N,12217.9838,W,2.14,210.62,290911,,,A*7D
$GPRMC,173055.000,A,3748.5316,N,12217.9839,W,1.94,214.44,290911,,,A*75
$GPRMC,173056.000,A,3748.5308,N,12217.9847,W,2.64,228.22,290911,,,A*73
$GPRMC,173057.000,A,3748.5300,N,12217.9852,W,1.88,230.89,290911,,,A*77
$GPRMC,173058.000,A,3748.5289,N,12217.9858,W,1.14,213.22,290911,,,A*77
$GPRMC,173059.000,A,3748.5282,N,12217.9861,W,0.94,209.18,290911,,,A*7C
$GPRMC,173100.000,A,3748.5278,N,12217.9866,W,1.10,237.50,290911,,,A*7F
$GPRMC,173101.000,A,3748.5269,N,12217.9874,W,1.15,215.88,290911,,,A*7D
$GPRMC,173102.000,A,3748.5258,N,12217.9882,W,1.79,212.28,290911,,,A*72
$GPRMC,173103.000,A,3748.5250,N,12217.9887,W,1.81,207.13,290911,,,A*75
$GPRMC,173104.000,A,3748.5246,N,12217.9892,W,1.62,201.84,290911,,,A*74
$GPRMC,173105.000,A,3748.5243,N,12217.9899,W,1.63,202.62,290911,,,A*71
$GPRMC,173106.000,A,3748.5238,N,12217.9902,W,1.18,182.55,290911,,,A*7E
$GPRMC,173107.000,A,3748.5224,N,12217.9906,W,1.92,197.03,290911,,,A*73
$GPRMC,173108.000,A,3748.5214,N,12217.9910,W,1.92,196.38,290911,,,A*71
$GPRMC,173109.000,A,3748.5205,N,12217.9916,W,1.95,199.03,290911,,,A*76
$GPRMC,173110.000,A,3748.5196,N,12217.9925,W,2.08,206.27,290911,,,A*73
$GPRMC,173111.000,A,3748.5189,N,12217.9931,W,1.84,195.44,290911,,,A*72
$GPRMC,173112.000,A,3748.5180,N,12217.9938,W,1.67,214.87,290911,,,A*79
$GPRMC,173113.000,A,3748.5175,N,12217.9942,W,1.51,228.94,290911,,,A*77
$GPRMC,173114.000,A,3748.5170,N,12217.9946,W,2.05,207.10,290911,,,A*72
$GPRMC,173115.000,A,3748.5163,N,12217.9950,W,1.97,199.47,290911,,,A*78
$GPRMC,173116.000,A,3748.5158,N,12217.9955,W,1.50,186.21,290911,,,A*73
$GPRMC,173117.000,A,3748.5151,N,12217.9958,W,1.69,201.85,290911,,,A*7E
$GPRMC,173118.000,A,3748.5145,N,12217.9961,W,2.03,218.79,290911,,,A*7A
$GPRMC,173119.000,A,3748.5138,N,12217.9963,W,1.55,207.78,290911,,,A*7C
$GPRMC,173120.000,A,3748.5134,N,12217.9965,W,1.23,208.04,290911,,,A*79
$GPRMC,173121.000,A,3748.5131,N,12217.9971,W,1.77,222.05,290911,,,A*70
$GPRMC,173122.000,A,3748.5126,N,12217.9977,W,1.84,208.36,290911,,,A*77
$GPRMC,173123.000,A,3748.5118,N,12217.9984,W,1.48,209.33,290911,,,A*73
$GPRMC,173124.000,A,3748.5113,N,12217.9990,W,1.28,261.22,290911,,,A*72
$GPRMC,173125.000,A,3748.5104,N,12217.9997,W,1.92,223.76,290911,,,A*74
$GPRMC,173126.000,A,3748.5097,N,12218.0002,W,1.76,209.43,290911,,,A*7B
$GPRMC,173127.000,A,3748.5091,N,12218.0005,W,1.71,206.76,290911,,,A*75
$GPRMC,173128.000,A,3748.5086,N,12218.0009,W,1.56,198.74,290911,,,A*73
$GPRMC,173129.000,A,3748.5081,N,12218.0014,W,1.91,214.05,290911,,,A*73
$GPRMC,173130.000,A,3748.5072,N,12218.0016,W,1.42,211.62,290911,,,A*7F
$GPRMC,173131.000,A,3748.5070,N,12218.0022,W,1.06,245.36,290911,,,A*7B
$GPRMC,173132.000,A,3748.5067,N,12218.0027,W,1.38,213.50,290911,,,A*75
$GPRMC,173133.000,A,3748.5063,N,12218.0034,W,1.89,212.03,290911,,,A*7F
$GPRMC,173134.000,A,3748.5054,N,12218.0042,W,2.03,198.06,290911,,,A*78
$GPRMC,173135.000,A,3748.5042,N,12218.0050,W,1.73,196.55,290911,,,A*71
$GPRMC,173136.000,A,3748.5036,N,12218.0060,W,2.10,225.17,290911,,,A*79
$GPRMC,173137.000,A,3748.5028,N,12218.0067,W,2.16,238.14,290911,,,A*79
$GPRMC,173138.000,A,3748.5020,N,12218.0071,W,2.01,216.61,290911,,,A*71
$GPRMC,173139.000,A,3748.5013,N,12218.0078,W,1.54,215.07,290911,,,A*79
$GPRMC,173140.000,A,3748.5006,N,12218.0087,W,2.16,218.67,290911,,,D*78
$GPRMC,173141.000,A,3748.4997,N,12218.0094,W,1.98,212.77,290911,,,D*75
$GPRMC,173142.000,A,3748.4989,N,12218.0103,W,1.80,197.15,290911,,,D*75
$GPRMC,173143.000,A,3748.4980,N,12218.0109,W,2.30,211.70,290911,,,D*71
$GPRMC,173144.000,A,3748.4975,N,12218.0122,W,1.84,218.18,290911,,,D*7E
$GPRMC,173145.000,A,3748.4966,N,12218.0131,W,2.23,208.05,290911,,,D*7C
$GPRMC,173146.000,A,3748.4958,N,12218.0137,W,2.36,206.77,290911,,,D*7B
$GPRMC,173147.000,A,3748.4950,N,12218.0144,W,2.10,199.11,290911,,,D*77
$GPRMC,173148.000,A,3748.4944,N,12218.0147,W,1.74,192.24,290911,,,D*72
$GPRMC,173149.000,A,3748.4937,N,12218.0150,W,1.64,196.63,290911,,,D*77
$GPRMC,173150.000,A,3748.4929,N,12218.0154,W,1.70,201.37,290911,,,D*7D
$GPRMC,173151.000,A,3748.4919,N,12218.0159,W,1.89,201.44,290911,,,D*70
$GPRMC,173152.000,A,3748.4912,N,12218.0158,W,1.15,194.20,290911,,,D*71
$GPRMC,173153.000,A,3748.4906,N,12218.0163,W,1.44,229.63,290911,,,D*7B
$GPRMC,173154.000,A,3748.4901,N,12218.0168,W,1.30,239.88,290911,,,D*77
$GPRMC,173155.000,A,3748.4897,N,12218.0175,W,1.52,243.13,290911,,,D*7F
$GPRMC,173156.000,A,3748.4893,N,12218.0183,W,2.28,246.29,290911,,,D*73
$GPRMC,173157.000,A,3748.4886,N,12218.0193,W,2.31,241.77,290911,,,D*73
$GPRMC,173158.000,A,3748.4878,N,12218.0200,W,2.56,215.59,290911,,,D*78
$GPRMC,173159.000,A,3748.4869,N,12218.0205,W,1.87,210.48,290911,,,D*76
$GPRMC,173200.000,A,3748.4862,N,12218.0209,W,2.26,205.68,290911,,,D*70
$GPRMC,173201.000,A,3748.4854,N,12218.0213,W,2.36,208.04,290911,,,D*79
$GPRMC,173202.000,A,3748.4845,N,12218.0218,W,2.06,207.60,290911,,,D*7F
$GPRMC,173203.000,A,3748.4838,N,12218.0223,W,2.43,211.36,290911,,,D*79
$GPRMC,173204.000,A,3748.4830,N,12218.0228,W,2.13,205.81,290911,,,D*71
$GPRMC,173205.000,A,3748.4821,N,12218.0235,W,1.82,209.48,290911,,,D*7E
$GPRMC,173206.000,A,3748.4813,N,12218.0240,W,2.21,205.30,290911,,,D*77
$GPRMC,173207.000,A,3748.4805,N,12218.0246,W,1.99,207.97,290911,,,D*78
$GPRMC,173208.000,A,3748.4796,N,12218.0252,W,1.87,204.25,290911,,,D*72
$GPRMC,173209.000,A,3748.4786,N,12218.0258,W,1.83,187.15,290911,,,D*77
$GPRMC,173210.000,A,3748.4776,N,12218.0262,W,1.68,192.61,290911,,,D*7B
$GPRMC,173211.000,A,3748.4767,N,12218.0268,W,1.47,205.21,290911,,,D*74
$GPRMC,173212.000,A,3748.4762,N,12218.0271,W,2.11,208.18,290911,,,D*7D
$GPRMC,173213.000,A,3748.4755,N,12218.0275,W,1.86,205.09,290911,,,D*7C
$GPRMC,173214.000,A,3748.4748,N,12218.0281,W,1.86,211.47,290911,,,D*73
$GPRMC,173215.000,A,3748.4743,N,12218.0286,W,1.78,210.76,290911,,,D*7C
$GPRMC,173216.000,A,3748.4735,N,12218.0292,W,1.53,203.07,290911,,,D*76
$GPRMC,173217.000,A,3748.4732,N,12218.0301,W,1.64,197.91,290911,,,D*7E
$GPRMC,173218.000,A,3748.4723,N,12218.0312,W,2.12,195.86,290911,,,D*75
$GPRMC,173219.000,A,3748.4716,N,12218.0321,W,2.25,208.40,290911,,,D*7B
$GPRMC,173220.000,A,3748.4709,N,12218.0333,W,2.28,209.20,290911,,,D*76
$GPRMC,173221.000,A,3748.4699,N,12218.0341,W,2.44,200.01,290911,,,D*7A
$GPRMC,173222.000,A,3748.4694,N,12218.0348,W,2.51,208.52,290911,,,D*77
$GPRMC,173223.000,A,3748.4682,N,12218.0356,W,2.22,194.41,290911,,,D*7E
$GPRMC,173224.000,A,3748.4675,N,12218.0364,W,2.48,201.35,290911,,,D*70
$GPRMC,173225.000,A,3748.4667,N,12218.0369,W,2.52,203.86,290911,,,D*7E
