$ADVER,3080,2.3
$GPRMC,171904.773,A,3748.8023,N,12217.8685,W,0.05,269.24,290911,,,A*7C
$GPGGA,171905.773,3748.8002,N,12217.8662,W,1,04,2.0,13.5,M,-25.1,M,,0000*53
$GPGSA,A,3,17,28,26,15,,,,,,,,,2.2,2.0,1.0*3D
$GPRMC,171905.773,A,3748.8002,N,12217.8662,W,0.37,17.42,290911,,,A*4D
$GPVTG,17.42,T,,M,0.37,N,0.7,K,A*3E
$GPGGA,171906.773,3748.8009,N,12217.8667,W,1,04,2.0,16.4,M,-25.1,M,,0000*5A
$GPGSA,A,3,17,28,26,15,,,,,,,,,2.2,2.0,1.0*3D
$GPRMC,171906.773,A,3748.8009,N,12217.8667,W,0.06,246.39,290911,,,A*78
$GPVTG,246.39,T,,M,0.06,N,0.1,K,A*00
$GPGGA,171907.773,3748.8017,N,12217.8676,W,1,04,2.0,20.7,M,-25.1,M,,0000*52
$GPGSA,A,3,17,28,26,15,,,,,,,,,2.2,2.0,1.0*3D
$GPRMC,171907.773,A,3748.8017,N,12217.8676,W,0.07,235.32,290911,,,A*78
$GPVTG,235.32,T,,M,0.07,N,0.1,K,A*0E
$GPGGA,171908.000,3748.8021,N,12217.8681,W,1,04,2.0,23.1,M,-25.1,M,,0000*56
$GPGSA,A,3,17,28,26,15,,,,,,,,,2.2,2.0,1.0*3D
$GPGSV,3,1,12,17,73,181,42,28,58,037,43,26,48,240,40,15,33,291,39*7E
$GPGSV,3,2,12,27,24,314,37,01,22,064,34,08,38,119,30,24,15,057,29*7C
$GPGSV,3,3,12,11,14,048,27,07,12,128,25,04,06,168,23,09,05,312,*7E
$GPRMC,171908.000,A,3748.8021,N,12217.8681,W,0.18,347.31,290911,,,A*70
$GPVTG,347.31,T,,M,0.18,N,0.3,K,A*05
$GPGGA,171909.000,3748.8030,N,12217.8690,W,1,04,2.0,27.9,M,-25.1,M,,0000*5B
$GPGSA,A,3,17,28,26,15,,,,,,,,,2.2,2.0,1.0*3D
$GPRMC,171909.000,A,3748.8030,N,12217.8690,W,0.05,233.67,290911,,,A*7C
$GPVTG,233.67,T,,M,0.05,N,0.1,K,A*0A
$GPGGA,171910.000,3748.8030,N,12217.8691,W,1,04,2.0,28.2,M,-25.1,M,,0000*56
$GPGSA,A,3,17,28,26,15,,,,,,,,,2.2,2.0,1.0*3D
$GPRMC,171910.000,A,3748.8030,N,12217.8691,W,0.06,233.33,290911,,,A*77
$GPVTG,233.33,T,,M,0.06,N,0.1,K,A*08
$GPGGA,171911.000,3748.8034,N,12217.8696,W,1,04,2.0,30.5,M,-25.1,M,,0000*5A
$GPGSA,A,3,17,28,26,15,,,,,,,,,2.2,2.0,1.0*3D
$GPRMC,171911.000,A,3748.8034,N,12217.8696,W,0.04,222.68,290911,,,A*79
$GPVTG,222.68,T,,M,0.04,N,0.1,K,A*04
$GPGGA,171912.000,3748.8035,N,12217.8697,W,1,04,2.0,30.9,M,-25.1,M,,0000*55
$GPGSA,A,3,17,28,26,15,,,,,,,,,2.2,2.0,1.0*3D
$GPRMC,171912.000,A,3748.8035,N,12217.8697,W,0.07,228.50,290911,,,A*78
$GPVTG,228.50,T,,M,0.07,N,0.1,K,A*06
$GPGGA,171913.000,3748.8037,N,12217.8701,W,1,04,2.0,32.4,M,-25.1,M,,0000*57
$GPGSA,A,3,17,28,26,15,,,,,,,,,2.2,2.0,1.0*3D
$GPGSV,3,1,12,17,73,181,42,28,58,037,44,26,48,240,40,15,33,291,39*79
$GPGSV,3,2,12,27,24,314,37,01,22,064,34,08,38,119,30,24,15,057,28*7D
$GPGSV,3,3,12,11,14,048,27,07,12,128,25,04,06,168,22,09,05,312,*7F
$GPRMC,171913.000,A,3748.8037,N,12217.8701,W,0.06,212.69,290911,,,A*77
$GPVTG,212.69,T,,M,0.06,N,0.1,K,A*04
$GPGGA,171914.000,3748.8036,N,12217.8700,W,1,04,2.0,32.0,M,-25.1,M,,0000*54
$GPGSA,A,3,17,28,26,15,,,,,,,,,2.2,2.0,1.0*3D
$GPRMC,171914.000,A,3748.8036,N,12217.8700,W,0.06,227.63,290911,,,A*7C
$GPVTG,227.63,T,,M,0.06,N,0.1,K,A*08
$GPGGA,171915.000,3748.8037,N,12217.8701,W,1,04,2.0,32.6,M,-25.1,M,,0000*53
$GPGSA,A,3,17,28,26,15,,,,,,,,,2.2,2.0,1.0*3D
$GPRMC,171915.000,A,3748.8037,N,12217.8701,W,0.06,223.72,290911,,,A*79
$GPVTG,223.72,T,,M,0.06,N,0.1,K,A*0C
$GPGGA,171916.000,3748.8038,N,12217.8703,W,1,04,2.0,33.3,M,-25.1,M,,0000*59
$GPGSA,A,3,17,28,26,15,,,,,,,,,2.2,2.0,1.0*3D
$GPRMC,171916.000,A,3748.8038,N,12217.8703,W,0.05,231.46,290911,,,A*70
$GPVTG,231.46,T,,M,0.05,N,0.1,K,A*0B
$GPGGA,171917.000,3748.8039,N,12217.8705,W,1,04,2.0,33.9,M,-25.1,M,,0000*55
$GPGSA,A,3,17,28,26,15,,,,,,,,,2.2,2.0,1.0*3D
$GPRMC,171917.000,A,3748.8039,N,12217.8705,W,0.07,210.31,290911,,,A*77
$GPVTG,210.31,T,,M,0.07,N,0.1,K,A*0A
$GPGGA,171918.000,3748.8041,N,12217.8706,W,1,04,2.0,34.7,M,-25.1,M,,0000*5F
$GPGSA,A,3,17,28,26,15,,,,,,,,,2.2,2.0,1.0*3D
$GPGSV,3,1,12,17,74,181,42,28,58,037,44,26,48,239,40,08,38,119,29*75
$GPGSV,3,2,12,15,33,291,39,27,24,314,37,01,22,064,34,24,15,056,27*7E
$GPGSV,3,3,12,11,14,048,25,07,12,128,25,04,06,168,21,09,05,312,*7E
$GPVTG,234.47,T,,M,0.07,N,0.1,K,A*0D
$GPGGA,171919.000,3748.8042,N,12217.8708,W,1,04,2.0,35.5,M,-25.1,M,,0000*50
$GPGSA,A,3,17,28,26,15,,,,,,,,,2.2,2.0,1.0*3D
$GPRMC,171919.000,A,3748.8042,N,12217.8708,W,0.07,224.89,290911,,,A*7C
$GPVTG,224.89,T,,M,0.07,N,0.1,K,A*0E
$GPGGA,171920.000,3748.8044,N,12217.8710,W,1,04,2.0,36.4,M,-25.1,M,,0000*57
$GPGSA,A,3,17,28,26,15,,,,,,,,,2.2,2.0,1.0*3D
$GPRMC,171920.000,A,3748.8044,N,12217.8710,W,0.06,216.14,290911,,,A*7D
$GPVTG,216.14,T,,M,0.06,N,0.1,K,A*0A
$GPGGA,171921.000,3748.8045,N,12217.8712,W,1,04,2.0,37.1,M,-25.1,M,,0000*51
$GPGSA,A,3,17,28,26,15,,,,,,,,,2.2,2.0,1.0*3D
$GPRMC,171921.000,A,3748.8045,N,12217.8712,W,0.08,237.39,290911,,,A*7D
$GPVTG,237.39,T,,M,0.08,N,0.2,K,A*0B
$GPGGA,171922.000,3748.8046,N,12217.8713,W,1,04,2.0,37.8,M,-25.1,M,,0000*59
$GPGSA,A,3,17,28,26,15,,,,,,,,,2.2,2.0,1.0*3D
$GPRMC,171922.000,A,3748.8046,N,12217.8713,W,0.06,208.00,290911,,,A*74
$GPVTG,208.00,T,,M,0.06,N,0.1,K,A*00
$GPGGA,171923.000,3748.8047,N,12217.8715,W,1,04,2.0,38.4,M,-25.1,M,,0000*5C
$GPGSA,A,3,17,28,26,15,,,,,,,,,2.2,2.0,1.0*3D
$GPGSV,3,1,12,17,74,181,42,28,58,037,43,26,48,239,41,08,38,119,21*7B
$GPGSV,3,2,12,15,33,291,39,27,24,314,38,01,22,064,33,24,15,056,23*72
$GPGSV,3,3,12,11,14,048,26,07,12,128,26,04,06,168,14,09,05,312,*78
$GPRMC,171923.000,A,3748.8047,N,12217.8715,W,0.07,236.48,290911,,,A*72
$GPVTG,236.48,T,,M,0.07,N,0.1,K,A*00
$GPGGA,171924.000,3748.8048,N,12217.8716,W,1,04,2.0,39.0,M,-25.1,M,,0000*52
$GPGSA,A,3,17,28,26,15,,,,,,,,,2.2,2.0,1.0*3D
$GPRMC,171924.000,A,3748.8048,N,12217.8716,W,0.08,220.80,290911,,,A*75
$GPVTG,220.80,T,,M,0.08,N,0.2,K,A*0F
$GPGGA,171925.000,3748.8049,N,12217.8718,W,1,04,2.0,39.6,M,-25.1,M,,0000*5A
$GPGSA,A,3,17,28,26,15,,,,,,,,,2.2,2.0,1.0*3D
$GPRMC,171925.000,A,3748.8049,N,12217.8718,W,0.07,218.13,290911,,,A*75
$GPVTG,218.13,T,,M,0.07,N,0.1,K,A*02
$GPGGA,171926.000,3748.8050,N,12217.8719,W,1,04,2.0,40.1,M,-25.1,M,,0000*59
$GPGSA,A,3,17,28,26,15,,,,,,,,,2.2,2.0,1.0*3D
$GPRMC,171926.000,A,3748.8050,N,12217.8719,W,0.06,211.78,290911,,,A*7A
$GPVTG,211.78,T,,M,0.06,N,0.1,K,A*07
$GPGGA,171927.000,3748.8050,N,12217.8720,W,1,04,2.0,40.6,M,-25.1,M,,0000*55
$GPGSA,A,3,17,28,26,15,,,,,,,,,2.2,2.0,1.0*3D
$GPRMC,171927.000,A,3748.8050,N,12217.8720,W,0.13,212.90,290911,,,A*70
$GPVTG,212.90,T,,M,0.13,N,0.2,K,A*05
$GPGGA,171928.000,3748.8051,N,12217.8721,W,1,04,2.0,41.0,M,-25.1,M,,0000*5D
$GPGSA,A,3,17,28,26,15,,,,,,,,,2.2,2.0,1.0*3D
$GPGSV,3,1,12,17,74,181,42,28,58,037,39,26,48,239,41,08,38,119,28*7F
$GPGSV,3,2,12,15,33,291,39,27,24,314,38,01,22,064,31,24,15,056,17*77
$GPGSV,3,3,12,11,14,048,24,07,12,128,31,04,06,168,15,09,05,312,*7D
$GPRMC,171928.000,A,3748.8051,N,12217.8721,W,0.13,210.76,290911,,,A*75
$GPVTG,210.76,T,,M,0.13,N,0.2,K,A*0F
$GPGGA,171929.000,3748.8052,N,12217.8722,W,1,04,2.0,41.4,M,-25.1,M,,0000*58
$GPGSA,A,3,17,28,26,15,,,,,,,,,2.2,2.0,1.0*3D
$GPRMC,171929.000,A,3748.8052,N,12217.8722,W,0.09,222.90,290911,,,A*76
$GPVTG,222.90,T,,M,0.09,N,0.2,K,A*0D
$GPGGA,171930.000,3748.8053,N,12217.8727,W,1,04,2.0,43.1,M,-25.1,M,,0000*53
$GPGSA,A,3,17,28,26,15,,,,,,,,,2.2,2.0,1.0*3D
$GPRMC,171930.000,A,3748.8053,N,12217.8727,W,0.16,200.77,290911,,,A*7D
$GPVTG,200.77,T,,M,0.16,N,0.3,K,A*0B
$GPGGA,171931.000,3748.8054,N,12217.8729,W,1,04,2.0,43.9,M,-25.1,M,,0000*53
$GPGSA,A,3,17,28,26,15,,,,,,,,,2.2,2.0,1.0*3D
$GPRMC,171931.000,A,3748.8054,N,12217.8729,W,0.06,196.39,290911,,,A*72
$GPVTG,196.39,T,,M,0.06,N,0.1,K,A*0E
$GPGGA,171932.000,3748.8054,N,12217.8726,W,1,04,2.0,43.2,M,-25.1,M,,0000*54
$GPGSA,A,3,17,28,26,15,,,,,,,,,2.2,2.0,1.0*3D
$GPRMC,171932.000,A,3748.8054,N,12217.8726,W,0.08,147.42,290911,,,A*70
$GPVTG,147.42,T,,M,0.08,N,0.2,K,A*03
$GPGGA,171933.000,3748.8053,N,12217.8720,W,1,04,2.0,41.6,M,-25.1,M,,0000*52
$GPGSA,A,3,17,28,26,15,,,,,,,,,2.2,2.0,1.0*3D
$GPGSV,3,1,12,17,74,181,33,28,58,037,25,26,48,239,40,08,38,119,21*7C
$GPGSV,3,2,12,15,33,291,36,27,24,314,31,01,22,064,22,24,15,056,29*7E
$GPGSV,3,3,12,11,14,048,30,07,12,128,24,04,06,168,26,09,05,312,*7C
$GPVTG,168.71,T,,M,0.13,N,0.2,K,A*04
$GPGGA,171934.000,3748.8053,N,12217.8714,W,1,04,2.0,40.4,M,-25.1,M,,0000*51
$GPGSA,A,3,17,28,26,15,,,,,,,,,2.2,2.0,1.0*3D
$GPRMC,171934.000,A,3748.8053,N,12217.8714,W,0.20,69.53,290911,,,A*47
$GPVTG,69.53,T,,M,0.20,N,0.4,K,A*32
$GPGGA,171935.000,3748.8065,N,12217.8725,W,1,04,2.0,45.8,M,-25.1,M,,0000*5E
$GPGSA,A,3,17,28,26,15,,,,,,,,,2.2,2.0,1.0*3D
$GPRMC,171935.000,A,3748.8065,N,12217.8725,W,0.64,338.82,290911,,,A*7A
$GPVTG,338.82,T,,M,0.64,N,1.2,K,A*0E
$GPGGA,171936.000,3748.8073,N,12217.8733,W,1,04,2.0,49.1,M,-25.1,M,,0000*58
$GPGSA,A,3,17,28,26,15,,,,,,,,,2.2,2.0,1.0*3D
$GPRMC,171936.000,A,3748.8073,N,12217.8733,W,0.93,341.69,290911,,,A*7A
$GPVTG,341.69,T,,M,0.93,N,1.7,K,A*08
$GPGGA,171937.000,3748.8082,N,12217.8742,W,1,04,2.0,51.8,M,-25.1,M,,0000*51
$GPGSA,A,3,17,28,26,15,,,,,,,,,2.2,2.0,1.0*3D
$GPRMC,171937.000,A,3748.8082,N,12217.8742,W,1.33,11.21,290911,,,A*42
$GPVTG,11.21,T,,M,1.33,N,2.5,K,A*38
$GPGGA,171938.000,3748.8082,N,12217.8736,W,1,04,2.0,51.6,M,-25.1,M,,0000*53
$GPGSA,A,3,17,28,26,15,,,,,,,,,2.2,2.0,1.0*3D
$GPGSV,3,1,12,17,74,181,34,28,58,037,20,26,48,239,26,08,38,119,17*7B
$GPGSV,3,2,12,15,33,291,26,27,24,314,22,01,22,064,19,24,15,056,26*7A
$GPGSV,3,3,12,11,14,048,28,07,12,128,20,04,06,168,21,09,05,312,*76
$GPRMC,171938.000,A,3748.8082,N,12217.8736,W,1.71,44.35,290911,,,A*4D
$GPVTG,44.35,T,,M,1.71,N,3.2,K,A*3D
$GPGGA,171939.000,3748.8076,N,12217.8733,W,1,04,2.0,51.5,M,-25.1,M,,0000*5F
$GPGSA,A,3,17,28,26,15,,,,,,,,,2.2,2.0,1.0*3D
$GPRMC,171939.000,A,3748.8076,N,12217.8733,W,0.35,119.41,290911,,,A*79
$GPVTG,119.41,T,,M,0.35,N,0.7,K,A*00
$GPGGA,171940.000,3748.8066,N,12217.8737,W,1,04,2.0,52.4,M,-25.1,M,,0000*56
$GPGSA,A,3,17,28,26,15,,,,,,,,,2.2,2.0,1.0*3D
$GPRMC,171940.000,A,3748.8066,N,12217.8737,W,0.52,171.99,290911,,,A*78
$GPVTG,171.99,T,,M,0.52,N,1.0,K,A*0C
$GPGGA,171941.000,3748.8055,N,12217.8744,W,1,04,2.0,53.5,M,-25.1,M,,0000*53
$GPGSA,A,3,17,28,26,15,,,,,,,,,2.2,2.0,1.0*3D
$GPRMC,171941.000,A,3748.8055,N,12217.8744,W,0.61,126.33,290911,,,A*7F
$GPVTG,126.33,T,,M,0.61,N,1.1,K,A*0F
$GPGGA,171942.000,3748.8049,N,12217.8746,W,1,04,2.0,53.9,M,-25.1,M,,0000*53
$GPGSA,A,3,17,28,26,15,,,,,,,,,2.2,2.0,1.0*3D
$GPRMC,171942.000,A,3748.8049,N,12217.8746,W,0.47,168.72,290911,,,A*78
$GPVTG,168.72,T,,M,0.47,N,0.9,K,A*0D
$GPGGA,171943.000,3748.8041,N,12217.8739,W,1,04,2.0,52.2,M,-25.1,M,,0000*58
$GPGSA,A,3,17,28,26,15,,,,,,,,,2.2,2.0,1.0*3D
$GPGSV,3,1,12,17,74,181,27,28,58,037,24,26,48,239,31,08,38,119,20*7F
$GPGSV,3,2,12,15,33,291,36,27,24,314,28,01,22,064,13,24,15,056,28*75
$GPGSV,3,3,12,11,14,048,27,07,12,128,22,04,06,168,,09,05,312,*78
$GPRMC,171943.000,A,3748.8041,N,12217.8739,W,0.76,173.75,290911,,,A*76
$GPVTG,173.75,T,,M,0.76,N,1.4,K,A*0E
$GPGGA,171944.000,3748.8034,N,12217.8736,W,1,04,2.0,50.6,M,-25.1,M,,0000*54
$GPGSA,A,3,17,28,26,15,,,,,,,,,2.2,2.0,1.0*3D
$GPRMC,171944.000,A,3748.8034,N,12217.8736,W,0.53,214.29,290911,,,A*70
$GPVTG,214.29,T,,M,0.53,N,1.0,K,A*06
$GPGGA,171945.000,3748.8031,N,12217.8729,W,1,04,2.0,50.5,M,-25.1,M,,0000*5D
$GPGSA,A,3,17,28,26,15,,,,,,,,,2.2,2.0,1.0*3D
$GPRMC,171945.000,A,3748.8031,N,12217.8729,W,0.32,237.67,290911,,,A*76
$GPVTG,237.67,T,,M,0.32,N,0.6,K,A*0D
$GPGGA,171946.000,3748.8029,N,12217.8722,W,1,04,2.0,50.0,M,-25.1,M,,0000*59
$GPGSA,A,3,17,28,26,15,,,,,,,,,2.2,2.0,1.0*3D
$GPRMC,171946.000,A,3748.8029,N,12217.8722,W,0.29,126.70,290911,,,A*78
$GPVTG,126.70,T,,M,0.29,N,0.5,K,A*01
$GPGGA,171947.000,3748.8026,N,12217.8718,W,1,04,2.0,46.7,M,-25.1,M,,0000*5E
$GPGSA,A,3,17,28,26,15,,,,,,,,,2.2,2.0,1.0*3D
$GPRMC,171947.000,A,3748.8026,N,12217.8718,W,0.67,95.90,290911,,,A*42
$GPVTG,95.90,T,,M,0.67,N,1.2,K,A*3A
$GPGGA,171948.000,3748.8037,N,12217.8717,W,1,04,2.0,46.3,M,-25.1,M,,0000*5A
$GPGSA,A,3,17,28,26,15,,,,,,,,,2.2,2.0,1.0*3D
$GPGSV,3,1,12,17,74,181,34,28,58,037,22,26,48,239,33,08,38,119,18*72
$GPGSV,3,2,12,15,33,291,31,27,24,314,24,01,22,064,23,24,15,056,*77
$GPGSV,3,3,12,11,14,048,22,07,12,128,24,04,06,168,25,09,05,312,*7C
$GPRMC,171948.000,A,3748.8037,N,12217.8717,W,1.30,39.13,290911,,,A*4C
$GPGGA,171949.000,3748.8039,N,12217.8717,W,1,04,2.0,45.7,M,-25.1,M,,0000*52
$GPGSA,A,3,17,28,26,15,,,,,,,,,2.2,2.0,1.0*3D
$GPRMC,171949.000,A,3748.8039,N,12217.8717,W,0.51,56.14,290911,,,A*4B
$GPVTG,56.14,T,,M,0.51,N,0.9,K,A*36
$GPGGA,171950.000,3748.8037,N,12217.8721,W,1,04,2.0,45.2,M,-25.1,M,,0000*54
$GPGSA,A,3,17,28,26,15,,,,,,,,,2.2,2.0,1.0*3D
$GPRMC,171950.000,A,3748.8037,N,12217.8721,W,0.39,219.86,290911,,,A*74
$GPVTG,219.86,T,,M,0.39,N,0.7,K,A*04
$GPGGA,171951.000,3748.8037,N,12217.8720,W,1,04,2.0,44.1,M,-25.1,M,,0000*56
$GPGSA,A,3,17,28,26,15,,,,,,,,,2.2,2.0,1.0*3D
$GPRMC,171951.000,A,3748.8037,N,12217.8720,W,0.21,252.07,290911,,,A*7B
$GPVTG,252.07,T,,M,0.21,N,0.4,K,A*08
$GPGGA,171952.000,3748.8036,N,12217.8719,W,1,04,2.0,43.2,M,-25.1,M,,0000*5A
$GPGSA,A,3,17,28,26,15,,,,,,,,,2.2,2.0,1.0*3D
$GPRMC,171952.000,A,3748.8036,N,12217.8719,W,0.04,87.45,290911,,,A*48
$GPVTG,87.45,T,,M,0.04,N,0.1,K,A*36
$GPGGA,171953.000,3748.8034,N,12217.8716,W,1,04,2.0,42.4,M,-25.1,M,,0000*51
$GPGSA,A,3,17,28,26,15,,,,,,,,,2.2,2.0,1.0*3D
$GPGSV,3,1,12,17,74,181,36,28,58,037,29,26,48,239,34,08,38,119,23*74
$GPGSV,3,2,12,15,33,291,32,27,24,314,21,01,22,064,20,24,15,056,25*75
$GPGSV,3,3,12,11,14,048,25,07,12,128,29,04,06,168,20,09,05,312,*73
$GPRMC,171953.000,A,3748.8034,N,12217.8716,W,0.11,167.32,290911,,,A*7F
$GPVTG,167.32,T,,M,0.11,N,0.2,K,A*0E
$GPGGA,171954.000,3748.8033,N,12217.8715,W,1,04,2.0,41.7,M,-25.1,M,,0000*52
$GPGSA,A,3,17,28,26,15,,,,,,,,,2.2,2.0,1.0*3D
$GPRMC,171954.000,A,3748.8033,N,12217.8715,W,0.06,163.87,290911,,,A*70
$GPVTG,163.87,T,,M,0.06,N,0.1,K,A*01
$GPGGA,171955.000,3748.8032,N,12217.8715,W,1,04,2.0,41.3,M,-25.1,M,,0000*56
$GPGSA,A,3,17,28,26,15,,,,,,,,,2.2,2.0,1.0*3D
$GPRMC,171955.000,A,3748.8032,N,12217.8715,W,0.09,148.01,290911,,,A*78
$GPVTG,148.01,T,,M,0.09,N,0.2,K,A*0A
$GPGGA,171956.000,3748.8031,N,12217.8712,W,1,04,2.0,40.5,M,-25.1,M,,0000*56
$GPGSA,A,3,17,28,26,15,,,,,,,,,2.2,2.0,1.0*3D
$GPRMC,171956.000,A,3748.8031,N,12217.8712,W,0.17,204.19,290911,,,A*72
$GPVTG,204.19,T,,M,0.17,N,0.3,K,A*06
$GPGGA,171957.000,3748.8029,N,12217.8716,W,1,04,2.0,40.6,M,-25.1,M,,0000*59
$GPGSA,A,3,17,28,26,15,,,,,,,,,2.2,2.0,1.0*3D
$GPRMC,171957.000,A,3748.8029,N,12217.8716,W,0.62,208.74,290911,,,A*7B
$GPVTG,208.74,T,,M,0.62,N,1.1,K,A*00
$GPGGA,171958.000,3748.8029,N,12217.8713,W,1,04,2.0,39.7,M,-25.1,M,,0000*5C
$GPGSA,A,3,17,28,26,15,,,,,,,,,2.2,2.0,1.0*3D
$GPGSV,3,1,12,17,74,181,33,28,58,037,26,26,48,239,34,08,38,119,21*7C
$GPGSV,3,2,12,15,33,291,32,27,24,314,25,01,22,064,23,24,15,056,23*74
$GPGSV,3,3,12,11,14,048,28,07,12,128,23,04,06,168,19,09,05,312,*7E
$GPRMC,171958.000,A,3748.8029,N,12217.8713,W,0.29,193.21,290911,,,A*7F
$GPVTG,193.21,T,,M,0.29,N,0.5,K,A*0B
$GPGGA,171959.000,3748.8028,N,12217.8710,W,1,04,2.0,39.2,M,-25.1,M,,0000*5A
$GPGSA,A,3,17,28,26,15,,,,,,,,,2.2,2.0,1.0*3D
$GPRMC,171959.000,A,3748.8028,N,12217.8710,W,0.80,8.78,290911,,,A*70
$GPVTG,8.78,T,,M,0.80,N,1.5,K,A*06
$GPGGA,172000.000,3748.8024,N,12217.8713,W,1,04,2.0,38.7,M,-25.1,M,,0000*57
$GPGSA,A,3,17,28,26,15,,,,,,,,,2.2,2.0,1.0*3D
$GPRMC,172000.000,A,3748.8024,N,12217.8713,W,0.91,345.70,290911,,,A*7B
$GPVTG,345.70,T,,M,0.91,N,1.7,K,A*06
$GPGGA,172001.000,3748.8020,N,12217.8714,W,1,04,2.0,38.3,M,-25.1,M,,0000*51
$GPGSA,A,3,17,28,26,15,,,,,,,,,2.2,2.0,1.0*3D
$GPRMC,172001.000,A,3748.8020,N,12217.8714,W,0.26,226.53,290911,,,A*70
$GPVTG,226.53,T,,M,0.26,N,0.5,K,A*0C
$GPGGA,172002.000,3748.8018,N,12217.8714,W,1,03,3.5,37.9,M,-25.1,M,,0000*5F
$GPGSA,A,2,17,26,15,,,,,,,,,,3.7,3.5,1.0*36
$GPRMC,172002.000,A,3748.8018,N,12217.8714,W,0.19,217.48,290911,,,A*7C
$GPVTG,217.48,T,,M,0.19,N,0.4,K,N*06
$GPGGA,172003.000,3748.8017,N,12217.8713,W,1,03,3.5,37.5,M,-25.1,M,,0000*5A
$GPGSA,A,2,17,26,15,,,,,,,,,,3.7,3.5,1.0*36
$GPGSV,3,1,12,17,74,181,34,28,58,037,,26,48,239,41,08,38,119,29*75
$GPGSV,3,2,12,15,33,291,37,27,24,314,31,01,22,064,22,24,15,056,22*74
$GPGSV,3,3,12,11,14,048,22,07,12,128,32,04,06,168,19,09,05,312,*74
$GPRMC,172003.000,A,3748.8017,N,12217.8713,W,0.17,217.66,290911,,,A*77
$GPGGA,172004.000,3748.8016,N,12217.8714,W,1,03,3.5,37.1,M,-25.1,M,,0000*5F
$GPGSA,A,2,17,26,15,,,,,,,,,,3.7,3.5,1.0*36
$GPRMC,172004.000,A,3748.8016,N,12217.8714,W,0.19,228.81,290911,,,A*7D
$GPVTG,228.81,T,,M,0.19,N,0.3,K,N*08
$GPGGA,172005.000,3748.8015,N,12217.8714,W,1,03,3.5,36.8,M,-25.1,M,,0000*55
$GPGSA,A,2,17,26,15,,,,,,,,,,3.7,3.5,1.0*36
$GPRMC,172005.000,A,3748.8015,N,12217.8714,W,0.15,223.10,290911,,,A*70
$GPVTG,223.10,T,,M,0.15,N,0.3,K,N*07
$GPGGA,172006.000,3748.8015,N,12217.8715,W,1,03,3.5,36.6,M,-25.1,M,,0000*59
$GPGSA,A,2,17,26,15,,,,,,,,,,3.7,3.5,1.0*36
$GPRMC,172006.000,A,3748.8015,N,12217.8715,W,0.17,226.40,290911,,,A*70
$GPVTG,226.40,T,,M,0.17,N,0.3,K,N*05
$GPGGA,172007.000,3748.8015,N,12217.8716,W,1,03,3.5,36.4,M,-25.1,M,,0000*59
$GPGSA,A,2,17,26,15,,,,,,,,,,3.7,3.5,1.0*36
$GPRMC,172007.000,A,3748.8015,N,12217.8716,W,0.17,241.34,290911,,,A*70
$GPVTG,241.34,T,,M,0.17,N,0.3,K,N*07
$GPGGA,172008.000,3748.8015,N,12217.8717,W,1,03,3.5,36.4,M,-25.1,M,,0000*57
$GPGSA,A,2,17,26,15,,,,,,,,,,3.7,3.5,1.0*36
$GPGSV,3,1,12,17,74,181,35,28,58,037,,26,48,239,41,08,38,119,25*78
$GPGSV,3,2,12,15,33,291,37,27,24,314,32,01,22,064,21,24,15,056,21*77
$GPGSV,3,3,12,11,14,048,22,07,12,128,27,04,06,168,17,09,05,312,*7E
$GPRMC,172008.000,A,3748.8015,N,12217.8717,W,0.20,225.45,290911,,,A*7E
$GPVTG,225.45,T,,M,0.20,N,0.4,K,N*00
$GPGGA,172009.000,3748.8015,N,12217.8718,W,1,03,3.5,36.3,M,-25.1,M,,0000*5E
$GPGSA,A,2,17,26,15,,,,,,,,,,3.7,3.5,1.0*36
$GPRMC,172009.000,A,3748.8015,N,12217.8718,W,0.09,223.25,290911,,,A*7B
$GPVTG,223.25,T,,M,0.09,N,0.2,K,N*0D
$GPGGA,172010.000,3748.8012,N,12217.8732,W,1,04,2.0,37.9,M,-25.1,M,,0000*51
$GPGSA,A,3,17,28,26,15,,,,,,,,,2.2,2.0,1.0*3D
$GPRMC,172010.000,A,3748.8012,N,12217.8732,W,0.57,248.27,290911,,,A*78
$GPVTG,248.27,T,,M,0.57,N,1.1,K,A*04
$GPGGA,172011.000,3748.8008,N,12217.8747,W,1,04,2.0,39.9,M,-25.1,M,,0000*57
$GPGSA,A,3,17,28,26,15,,,,,,,,,2.2,2.0,1.0*3D
$GPRMC,172011.000,A,3748.8008,N,12217.8747,W,0.23,287.21,290911,,,A*76
$GPVTG,287.21,T,,M,0.23,N,0.4,K,A*06
$GPGGA,172012.000,3748.8011,N,12217.8737,W,1,04,2.0,38.4,M,-25.1,M,,0000*57
$GPGSA,A,3,17,28,26,15,,,,,,,,,2.2,2.0,1.0*3D
$GPRMC,172012.000,A,3748.8011,N,12217.8737,W,0.23,41.85,290911,,,A*4C
$GPVTG,41.85,T,,M,0.23,N,0.4,K,A*30
$GPGGA,172013.000,3748.8013,N,12217.8729,W,1,04,2.0,36.9,M,-25.1,M,,0000*58
$GPGSA,A,3,17,28,26,15,,,,,,,,,2.2,2.0,1.0*3D
$GPGSV,3,1,12,17,74,181,27,28,58,037,26,26,48,239,32,08,38,119,12*7F
$GPGSV,3,2,12,15,33,291,36,27,24,314,32,01,22,064,29,24,15,056,29*76
$GPGSV,3,3,12,11,14,048,22,07,12,128,26,04,06,168,27,09,05,312,*7C
$GPRMC,172013.000,A,3748.8013,N,12217.8729,W,0.09,23.33,290911,,,A*41
$GPVTG,23.33,T,,M,0.09,N,0.2,K,A*37
$GPGGA,172014.000,3748.8018,N,12217.8711,W,1,04,2.0,33.9,M,-25.1,M,,0000*5A
$GPGSA,A,3,17,28,26,15,,,,,,,,,2.2,2.0,1.0*3D
$GPRMC,172014.000,A,3748.8018,N,12217.8711,W,0.31,42.37,290911,,,A*4E
$GPVTG,42.37,T,,M,0.31,N,0.6,K,A*3B
$GPGGA,172015.000,3748.8020,N,12217.8701,W,1,04,2.0,32.0,M,-25.1,M,,0000*59
$GPGSA,A,3,17,28,26,15,,,,,,,,,2.2,2.0,1.0*3D
$GPRMC,172015.000,A,3748.8020,N,12217.8701,W,0.24,39.12,290911,,,A*4A
$GPVTG,39.12,T,,M,0.24,N,0.4,K,A*36
$GPGGA,172016.000,3748.8024,N,12217.8684,W,1,04,2.0,28.9,M,-25.1,M,,0000*50
$GPGSA,A,3,17,28,26,15,,,,,,,,,2.2,2.0,1.0*3D
$GPRMC,172016.000,A,3748.8024,N,12217.8684,W,0.20,42.69,290911,,,A*45
$GPVTG,42.69,T,,M,0.20,N,0.4,K,A*32
$GPGGA,172017.000,3748.8024,N,12217.8678,W,1,04,2.0,27.3,M,-25.1,M,,0000*57
$GPGSA,A,3,17,28,26,15,,,,,,,,,2.2,2.0,1.0*3D
$GPRMC,172017.000,A,3748.8024,N,12217.8678,W,0.20,33.34,290911,,,A*49
$GPVTG,33.34,T,,M,0.20,N,0.4,K,A*3C
$GPGGA,172018.000,3748.8027,N,12217.8666,W,1,04,2.0,25.0,M,-25.1,M,,0000*55
$GPGSA,A,3,17,28,26,15,,,,,,,,,2.2,2.0,1.0*3D
$GPGSV,3,1,12,17,74,180,29,28,57,037,26,26,48,239,33,08,38,119,*7D
$GPGSV,3,2,12,15,33,290,33,27,25,314,31,24,15,056,28,11,13,048,26*73
$GPGSV,3,3,12,07,11,128,25,04,07,168,26,09,06,312,25,48,44,197,38*79
$GPRMC,172018.000,A,3748.8027,N,12217.8666,W,0.62,42.60,290911,,,A*4B
$GPVTG,42.60,T,,M,0.62,N,1.1,K,A*39
$GPGGA,172019.000,3748.8026,N,12217.8662,W,1,04,2.0,23.8,M,-25.1,M,,0000*5F
$GPGSA,A,3,17,28,26,15,,,,,,,,,2.2,2.0,1.0*3D
$GPRMC,172019.000,A,3748.8026,N,12217.8662,W,0.20,38.63,290911,,,A*47
$GPVTG,38.63,T,,M,0.20,N,0.4,K,A*35
$GPGGA,172020.000,3748.8025,N,12217.8659,W,1,04,2.0,22.7,M,-25.1,M,,0000*50
$GPGSA,A,3,17,28,26,15,,,,,,,,,2.2,2.0,1.0*3D
$GPRMC,172020.000,A,3748.8025,N,12217.8659,W,0.10,81.05,290911,,,A*47
$GPVTG,81.05,T,,M,0.10,N,0.2,K,A*32
$GPGGA,172021.000,3748.8026,N,12217.8652,W,1,04,2.0,21.3,M,-25.1,M,,0000*5E
$GPGSA,A,3,17,28,26,15,,,,,,,,,2.2,2.0,1.0*3D
$GPRMC,172021.000,A,3748.8026,N,12217.8652,W,0.11,220.48,290911,,,A*7F
$GPVTG,220.48,T,,M,0.11,N,0.2,K,A*03
$GPGGA,172022.000,3748.8027,N,12217.8646,W,1,04,2.0,19.9,M,-25.1,M,,0000*58
$GPGSA,A,3,17,28,26,15,,,,,,,,,2.2,2.0,1.0*3D
$GPRMC,172022.000,A,3748.8027,N,12217.8646,W,0.11,50.05,290911,,,A*44
$GPVTG,50.05,T,,M,0.11,N,0.2,K,A*3F
$GPGGA,172023.000,3748.8029,N,12217.8640,W,1,04,2.0,18.8,M,-25.1,M,,0000*51
$GPGSA,A,3,17,28,26,15,,,,,,,,,2.2,2.0,1.0*3D
$GPGSV,3,1,12,17,74,180,29,28,57,037,26,26,48,239,32,08,38,119,*7C
$GPGSV,3,2,12,15,33,290,33,27,25,314,32,24,15,056,24,11,13,048,34*7F
$GPGSV,3,3,12,07,11,128,21,04,07,168,27,09,06,312,23,48,44,197,37*75
$GPRMC,172023.000,A,3748.8029,N,12217.8640,W,0.13,28.69,290911,,,A*4A
$GPVTG,28.69,T,,M,0.13,N,0.2,K,A*38
$GPGGA,172024.000,3748.8029,N,12217.8636,W,1,04,2.0,17.8,M,-25.1,M,,0000*58
$GPGSA,A,3,17,28,26,15,,,,,,,,,2.2,2.0,1.0*3D
$GPRMC,172024.000,A,3748.8029,N,12217.8636,W,0.07,47.08,290911,,,A*47
$GPVTG,47.08,T,,M,0.07,N,0.1,K,A*30
$GPGGA,172025.000,3748.8032,N,12217.8629,W,1,04,2.0,16.5,M,-25.1,M,,0000*51
$GPGSA,A,3,17,28,26,15,,,,,,,,,2.2,2.0,1.0*3D
$GPRMC,172025.000,A,3748.8032,N,12217.8629,W,0.44,40.12,290911,,,A*49
$GPVTG,40.12,T,,M,0.44,N,0.8,K,A*32
$GPGGA,172026.000,3748.8034,N,12217.8621,W,1,04,2.0,15.1,M,-25.1,M,,0000*5B
$GPGSA,A,3,17,28,26,15,,,,,,,,,2.2,2.0,1.0*3D
$GPRMC,172026.000,A,3748.8034,N,12217.8621,W,0.26,36.03,290911,,,A*41
$GPVTG,36.03,T,,M,0.26,N,0.5,K,A*3A
$GPGGA,172027.000,3748.8035,N,12217.8616,W,1,04,2.0,14.0,M,-25.1,M,,0000*5F
$GPGSA,A,3,17,28,26,15,,,,,,,,,2.2,2.0,1.0*3D
$GPRMC,172027.000,A,3748.8035,N,12217.8616,W,0.16,42.96,290911,,,A*49
$GPVTG,42.96,T,,M,0.16,N,0.3,K,A*30
$GPGGA,172028.000,3748.8036,N,12217.8611,W,1,04,2.0,12.9,M,-25.1,M,,0000*5B
$GPGSA,A,3,17,28,26,15,,,,,,,,,2.2,2.0,1.0*3D
$GPGSV,3,1,12,17,74,180,30,28,57,037,26,26,48,239,31,08,38,119,21*74
$GPGSV,3,2,12,15,33,290,33,27,25,314,32,24,15,056,24,11,13,048,34*7F
$GPGSV,3,3,12,07,11,128,21,04,07,168,27,09,06,312,19,48,44,197,38*73
$GPRMC,172028.000,A,3748.8036,N,12217.8611,W,0.11,41.23,290911,,,A*48
$GPVTG,41.23,T,,M,0.11,N,0.2,K,A*3B
$GPGGA,172029.000,3748.8037,N,12217.8608,W,1,04,2.0,12.0,M,-25.1,M,,0000*5A
$GPGSA,A,3,17,28,26,15,,,,,,,,,2.2,2.0,1.0*3D
$GPRMC,172029.000,A,3748.8037,N,12217.8608,W,0.03,18.54,290911,,,A*4F
$GPVTG,18.54,T,,M,0.03,N,0.1,K,A*37
$GPGGA,172030.000,3748.8036,N,12217.8607,W,1,04,2.0,11.4,M,-25.1,M,,0000*5B
$GPGSA,A,3,17,28,26,15,,,,,,,,,2.2,2.0,1.0*3D
$GPRMC,172030.000,A,3748.8036,N,12217.8607,W,0.09,209.65,290911,,,A*73
$GPVTG,209.65,T,,M,0.09,N,0.2,K,A*0E
$GPGGA,172031.000,3748.8034,N,12217.8607,W,1,04,2.0,10.9,M,-25.1,M,,0000*54
$GPGSA,A,3,17,28,26,15,,,,,,,,,2.2,2.0,1.0*3D
$GPRMC,172031.000,A,3748.8034,N,12217.8607,W,0.34,230.84,290911,,,A*7B
$GPVTG,230.84,T,,M,0.34,N,0.6,K,A*01
$GPGGA,172032.000,3748.8034,N,12217.8613,W,1,04,2.0,11.7,M,-25.1,M,,0000*5D
$GPGSA,A,3,17,28,26,15,,,,,,,,,2.2,2.0,1.0*3D
$GPRMC,172032.000,A,3748.8034,N,12217.8613,W,1.06,191.34,290911,,,A*7E
$GPVTG,191.34,T,,M,1.06,N,2.0,K,A*06
$GPGGA,172033.000,3748.8038,N,12217.8619,W,1,04,2.0,12.5,M,-25.1,M,,0000*5B
$GPGSA,A,3,17,28,26,15,,,,,,,,,2.2,2.0,1.0*3D
$GPGSV,3,1,12,17,74,180,28,28,57,037,26,26,48,239,37,08,38,119,27*7D
$GPGSV,3,2,12,15,33,290,33,27,25,314,25,24,15,056,29,11,13,048,26*77
$GPGSV,3,3,12,07,11,128,30,04,07,168,27,09,06,312,28,48,44,197,40*7E
$GPRMC,172033.000,A,3748.8038,N,12217.8619,W,1.15,7.96,290911,,,A*7D
$GPGGA,172034.000,3748.8038,N,12217.8621,W,1,04,2.0,11.6,M,-25.1,M,,0000*57
$GPGSA,A,3,17,28,26,15,,,,,,,,,2.2,2.0,1.0*3D
$GPRMC,172034.000,A,3748.8038,N,12217.8621,W,0.73,355.12,290911,,,A*78
$GPVTG,355.12,T,,M,0.73,N,1.3,K,A*0B
$GPGGA,172035.000,3748.8032,N,12217.8626,W,1,04,2.0,11.5,M,-25.1,M,,0000*58
$GPGSA,A,3,17,28,26,15,,,,,,,,,2.2,2.0,1.0*3D
$GPRMC,172035.000,A,3748.8032,N,12217.8626,W,0.27,238.60,290911,,,A*7A
$GPVTG,238.60,T,,M,0.27,N,0.5,K,A*02
$GPGGA,172036.000,3748.8025,N,12217.8628,W,1,04,2.0,11.1,M,-25.1,M,,0000*57
$GPGSA,A,3,17,28,26,15,,,,,,,,,2.2,2.0,1.0*3D
$GPRMC,172036.000,A,3748.8025,N,12217.8628,W,0.25,197.23,290911,,,A*72
$GPVTG,197.23,T,,M,0.25,N,0.5,K,A*01
$GPGGA,172037.000,3748.8015,N,12217.8633,W,1,04,2.0,11.0,M,-25.1,M,,0000*5E
$GPGSA,A,3,17,28,26,15,,,,,,,,,2.2,2.0,1.0*3D
$GPRMC,172037.000,A,3748.8015,N,12217.8633,W,0.87,215.30,290911,,,A*79
$GPVTG,215.30,T,,M,0.87,N,1.6,K,A*00
$GPGGA,172038.000,3748.8004,N,12217.8640,W,1,04,2.0,11.4,M,-25.1,M,,0000*51
$GPGSA,A,3,17,28,26,15,,,,,,,,,2.2,2.0,1.0*3D
$GPGSV,3,1,12,17,74,180,29,28,57,037,25,26,48,239,38,08,38,119,28*7F
$GPGSV,3,2,12,15,33,290,30,27,25,314,25,24,15,056,30,11,13,048,26*7C
$GPGSV,3,3,12,07,11,128,28,04,07,168,23,09,06,312,29,48,44,197,42*70
$GPRMC,172038.000,A,3748.8004,N,12217.8640,W,0.82,210.28,290911,,,A*7B
$GPVTG,210.28,T,,M,0.82,N,1.5,K,A*0A
$GPGGA,172039.000,3748.7994,N,12217.8646,W,1,04,2.0,12.1,M,-25.1,M,,0000*5F
$GPGSA,A,3,17,28,26,15,,,,,,,,,2.2,2.0,1.0*3D
$GPRMC,172039.000,A,3748.7994,N,12217.8646,W,0.66,199.96,290911,,,A*7E
$GPVTG,199.96,T,,M,0.66,N,1.2,K,A*00
$GPGGA,172040.000,3748.7985,N,12217.8654,W,1,04,2.0,14.5,M,-25.1,M,,0000*50
$GPGSA,A,3,17,28,26,15,,,,,,,,,2.2,2.0,1.0*3D
$GPRMC,172040.000,A,3748.7985,N,12217.8654,W,0.56,200.13,290911,,,A*7E
$GPVTG,200.13,T,,M,0.56,N,1.0,K,A*0F
$GPGGA,172041.000,3748.7977,N,12217.8660,W,1,04,2.0,16.0,M,-25.1,M,,0000*5C
$GPGSA,A,3,17,28,26,15,,,,,,,,,2.2,2.0,1.0*3D
$GPRMC,172041.000,A,3748.7977,N,12217.8660,W,0.52,199.57,290911,,,A*72
$GPVTG,199.57,T,,M,0.52,N,1.0,K,A*08
$GPGGA,172042.000,3748.7970,N,12217.8667,W,1,04,2.0,17.9,M,-25.1,M,,0000*57
$GPGSA,A,3,17,28,26,15,,,,,,,,,2.2,2.0,1.0*3D
$GPRMC,172042.000,A,3748.7970,N,12217.8667,W,1.05,213.33,290911,,,A*71
$GPVTG,213.33,T,,M,1.05,N,1.9,K,A*01
$GPGGA,172043.000,3748.7965,N,12217.8666,W,1,03,3.5,18.8,M,-25.1,M,,0000*5E
$GPGSA,A,2,17,26,15,,,,,,,,,,3.6,3.5,1.0*37
$GPGSV,3,1,12,17,74,180,29,28,57,038,17,26,47,239,38,08,38,119,28*7E
$GPGSV,3,2,12,15,33,290,30,27,25,314,26,24,15,056,30,11,13,048,29*70
$GPGSV,3,3,12,07,11,128,28,04,07,168,18,09,06,312,27,48,44,197,42*76
$GPRMC,172043.000,A,3748.7965,N,12217.8666,W,1.04,215.12,290911,,,A*71
$GPVTG,215.12,T,,M,1.04,N,1.9,K,A*05
$GPGGA,172044.000,3748.7962,N,12217.8666,W,1,03,3.5,19.4,M,-25.1,M,,0000*53
$GPGSA,A,2,17,26,15,,,,,,,,,,3.6,3.5,1.0*37
$GPRMC,172044.000,A,3748.7962,N,12217.8666,W,0.58,213.40,290911,,,A*78
$GPVTG,213.40,T,,M,0.58,N,1.1,K,A*04
$GPGGA,172045.000,3748.7961,N,12217.8664,W,1,03,3.5,20.3,M,-25.1,M,,0000*5E
$GPGSA,A,2,17,26,15,,,,,,,,,,3.6,3.5,1.0*37
$GPRMC,172045.000,A,3748.7961,N,12217.8664,W,0.23,195.39,290911,,,A*77
$GPVTG,195.39,T,,M,0.23,N,0.4,K,N*00
$GPGGA,172046.000,3748.7960,N,12217.8662,W,1,03,3.5,21.4,M,-25.1,M,,0000*5C
$GPGSA,A,2,17,26,15,,,,,,,,,,3.6,3.5,1.0*37
$GPRMC,172046.000,A,3748.7960,N,12217.8662,W,0.12,121.86,290911,,,A*7A
$GPVTG,121.86,T,,M,0.12,N,0.2,K,N*0F
$GPGGA,172047.000,3748.7961,N,12217.8659,W,1,03,3.5,22.6,M,-25.1,M,,0000*55
$GPGSA,A,2,17,26,15,,,,,,,,,,3.6,3.5,1.0*37
$GPRMC,172047.000,A,3748.7961,N,12217.8659,W,0.22,91.68,290911,,,A*4B
$GPVTG,91.68,T,,M,0.22,N,0.4,K,N*30
$GPGGA,172048.000,3748.7962,N,12217.8655,W,1,03,3.5,23.6,M,-25.1,M,,0000*54
$GPGSA,A,2,17,26,15,,,,,,,,,,3.6,3.5,1.0*37
$GPGSV,3,1,12,17,74,180,28,28,57,038,,26,47,239,39,08,38,120,28*72
$GPGSV,3,2,12,15,33,290,31,27,25,314,28,24,15,056,31,11,13,048,29*7E
$GPGSV,3,3,12,07,11,128,27,04,07,168,17,09,06,312,31,48,44,197,41*72
$GPRMC,172048.000,A,3748.7962,N,12217.8655,W,0.25,80.81,290911,,,A*4B
$GPVTG,80.81,T,,M,0.25,N,0.5,K,N*31
$GPGGA,172049.000,3748.7964,N,12217.8651,W,1,03,3.5,24.6,M,-25.1,M,,0000*50
$GPGSA,A,2,17,26,15,,,,,,,,,,3.6,3.5,1.0*37
$GPRMC,172049.000,A,3748.7964,N,12217.8651,W,0.28,72.08,290911,,,A*49
$GPVTG,72.08,T,,M,0.28,N,0.5,K,N*30
$GPGGA,172050.000,3748.7966,N,12217.8648,W,1,03,3.5,25.4,M,-25.1,M,,0000*51
$GPGSA,A,2,17,26,15,,,,,,,,,,3.6,3.5,1.0*37
$GPRMC,172050.000,A,3748.7966,N,12217.8648,W,0.28,59.50,290911,,,A*4F
$GPVTG,59.50,T,,M,0.28,N,0.5,K,N*34
$GPGGA,172051.000,3748.7967,N,12217.8644,W,1,03,3.5,26.1,M,-25.1,M,,0000*5B
$GPGSA,A,2,17,26,15,,,,,,,,,,3.6,3.5,1.0*37
$GPRMC,172051.000,A,3748.7967,N,12217.8644,W,0.08,108.64,290911,,,A*73
$GPVTG,108.64,T,,M,0.08,N,0.2,K,A*0C
$GPGGA,172052.000,3748.7977,N,12217.8620,W,1,04,2.0,24.5,M,-25.1,M,,0000*5E
$GPGSA,A,3,17,28,26,15,,,,,,,,,2.2,2.0,1.0*3D
$GPRMC,172052.000,A,3748.7977,N,12217.8620,W,0.21,27.85,290911,,,A*4B
$GPVTG,27.85,T,,M,0.21,N,0.4,K,A*32
$GPGGA,172053.000,3748.7972,N,12217.8636,W,1,04,2.0,26.4,M,-25.1,M,,0000*5E
$GPGSA,A,3,17,28,26,15,,,,,,,,,2.2,2.0,1.0*3D
$GPGSV,3,1,12,17,74,180,28,28,57,038,21,26,47,239,35,08,38,120,28*7D
$GPGSV,3,2,12,15,33,290,31,27,25,314,29,24,15,056,31,11,13,048,28*7E
$GPGSV,3,3,12,07,11,128,28,04,07,168,22,09,06,312,27,48,44,197,42*7F
$GPRMC,172053.000,A,3748.7972,N,12217.8636,W,0.87,217.72,290911,,,A*7D
$GPVTG,217.72,T,,M,0.87,N,1.6,K,A*04
$GPGGA,172054.000,3748.7970,N,12217.8649,W,1,04,2.0,27.0,M,-25.1,M,,0000*56
$GPGSA,A,3,17,28,26,15,,,,,,,,,2.2,2.0,1.0*3D
$GPRMC,172054.000,A,3748.7970,N,12217.8649,W,0.64,262.42,290911,,,A*7C
$GPVTG,262.42,T,,M,0.64,N,1.2,K,A*0C
$GPGGA,172055.000,3748.7970,N,12217.8658,W,1,04,2.0,27.3,M,-25.1,M,,0000*54
$GPGSA,A,3,17,28,26,15,,,,,,,,,2.2,2.0,1.0*3D
$GPRMC,172055.000,A,3748.7970,N,12217.8658,W,0.48,280.90,290911,,,A*70
$GPVTG,280.90,T,,M,0.48,N,0.9,K,A*0B
$GPGGA,172056.000,3748.7976,N,12217.8670,W,1,04,2.0,27.5,M,-25.1,M,,0000*5D
$GPGSA,A,3,17,28,26,15,,,,,,,,,2.2,2.0,1.0*3D
$GPRMC,172056.000,A,3748.7976,N,12217.8670,W,1.60,327.62,290911,,,A*75
$GPVTG,327.62,T,,M,1.60,N,3.0,K,A*0B
$GPGGA,172057.000,3748.7977,N,12217.8692,W,1,04,2.0,28.9,M,-25.1,M,,0000*52
$GPGSA,A,3,17,28,26,15,,,,,,,,,2.2,2.0,1.0*3D
$GPRMC,172057.000,A,3748.7977,N,12217.8692,W,0.79,316.55,290911,,,A*76
$GPVTG,316.55,T,,M,0.79,N,1.5,K,A*03
$GPGGA,172058.000,3748.7985,N,12217.8694,W,1,04,2.0,28.1,M,-25.1,M,,0000*5E
$GPGSA,A,3,17,28,26,15,,,,,,,,,2.2,2.0,1.0*3D
$GPGSV,3,1,12,17,74,180,28,28,57,038,24,26,47,239,31,08,38,120,26*72
$GPGSV,3,2,12,15,33,290,33,27,25,314,29,24,15,056,31,11,13,048,22*76
$GPGSV,3,3,12,07,11,128,28,04,07,168,23,09,06,312,32,48,44,197,32*7D
$GPRMC,172058.000,A,3748.7985,N,12217.8694,W,0.44,324.95,290911,,,A*71
$GPVTG,324.95,T,,M,0.44,N,0.8,K,A*0C
$GPGGA,172059.000,3748.7986,N,12217.8703,W,1,04,2.0,30.4,M,-25.1,M,,0000*5F
$GPGSA,A,3,17,28,26,15,,,,,,,,,2.2,2.0,1.0*3D
$GPRMC,172059.000,A,3748.7986,N,12217.8703,W,0.43,0.40,290911,,,A*76
$GPVTG,0.40,T,,M,0.43,N,0.8,K,A*06
$GPGGA,172100.000,3748.7983,N,12217.8718,W,1,04,2.0,33.0,M,-25.1,M,,0000*5A
$GPGSA,A,3,17,28,26,15,,,,,,,,,2.2,2.0,1.0*3D
$GPRMC,172100.000,A,3748.7983,N,12217.8718,W,0.31,330.63,290911,,,A*70
$GPVTG,330.63,T,,M,0.31,N,0.6,K,A*0C
$GPGGA,172101.000,3748.7992,N,12217.8726,W,1,04,2.0,34.4,M,-25.1,M,,0000*55
$GPGSA,A,3,17,28,26,15,,,,,,,,,2.2,2.0,1.0*3D
$GPRMC,172101.000,A,3748.7992,N,12217.8726,W,0.47,301.48,290911,,,A*76
$GPVTG,301.48,T,,M,0.47,N,0.9,K,A*09
$GPGGA,172102.000,3748.7998,N,12217.8732,W,1,03,3.5,35.3,M,-25.1,M,,0000*5C
$GPGSA,A,2,17,26,15,,,,,,,,,,3.6,3.5,1.0*37
$GPRMC,172102.000,A,3748.7998,N,12217.8732,W,0.52,304.80,290911,,,A*7F
$GPVTG,304.80,T,,M,0.52,N,1.0,K,N*0B
$GPGGA,172103.000,3748.8004,N,12217.8738,W,1,03,3.5,35.8,M,-25.1,M,,0000*5F
$GPGSA,A,2,17,26,15,,,,,,,,,,3.6,3.5,1.0*37
$GPGSV,3,1,12,17,74,180,28,28,57,038,09,26,47,239,32,08,38,120,25*7D
$GPGSV,3,2,12,15,33,290,30,27,25,314,28,24,15,056,15,11,13,048,18*7B
$GPGSV,3,3,12,07,11,128,32,04,07,168,24,09,06,312,21,48,44,197,31*70
$GPRMC,172103.000,A,3748.8004,N,12217.8738,W,0.58,296.44,290911,,,A*7F
$GPGGA,172104.000,3748.8013,N,12217.8736,W,1,04,2.0,36.9,M,-25.1,M,,0000*51
$GPGSA,A,3,17,28,26,15,,,,,,,,,2.2,2.0,1.0*3D
$GPRMC,172104.000,A,3748.8013,N,12217.8736,W,1.18,23.10,290911,,,A*48
$GPVTG,23.10,T,,M,1.18,N,2.2,K,A*35
$GPGGA,172105.000,3748.8022,N,12217.8732,W,1,04,2.0,37.0,M,-25.1,M,,0000*5E
$GPGSA,A,3,17,28,26,15,,,,,,,,,2.2,2.0,1.0*3D
$GPRMC,172105.000,A,3748.8022,N,12217.8732,W,0.57,281.41,290911,,,A*7B
$GPVTG,281.41,T,,M,0.57,N,1.0,K,A*00
$GPGGA,172106.000,3748.8027,N,12217.8730,W,1,04,2.0,37.2,M,-25.1,M,,0000*58
$GPGSA,A,3,17,28,26,15,,,,,,,,,2.2,2.0,1.0*3D
$GPRMC,172106.000,A,3748.8027,N,12217.8730,W,0.42,337.91,290911,,,A*7A
$GPVTG,337.91,T,,M,0.42,N,0.8,K,A*0C
$GPGGA,172107.000,3748.8031,N,12217.8727,W,1,04,2.0,37.4,M,-25.1,M,,0000*5E
$GPGSA,A,3,17,28,26,15,,,,,,,,,2.2,2.0,1.0*3D
$GPRMC,172107.000,A,3748.8031,N,12217.8727,W,0.35,7.63,290911,,,A*77
$GPVTG,7.63,T,,M,0.35,N,0.6,K,A*0F
$GPGGA,172108.000,3748.8034,N,12217.8725,W,1,04,2.0,37.6,M,-25.1,M,,0000*54
$GPGSA,A,3,17,28,26,15,,,,,,,,,2.2,2.0,1.0*3D
$GPGSV,3,1,12,17,74,180,38,28,57,038,36,26,47,239,39,08,38,120,37*78
$GPGSV,3,2,12,15,33,290,33,27,25,314,28,24,15,056,37,11,13,048,36*74
$GPGSV,3,3,12,07,11,128,33,04,07,168,27,09,06,312,27,48,44,197,40*72
$GPRMC,172108.000,A,3748.8034,N,12217.8725,W,0.17,191.44,290911,,,A*74
$GPVTG,191.44,T,,M,0.17,N,0.3,K,A*01
$GPGGA,172109.000,3748.8036,N,12217.8724,W,1,04,2.0,37.8,M,-25.1,M,,0000*58
$GPGSA,A,3,17,28,26,15,,,,,,,,,2.2,2.0,1.0*3D
$GPRMC,172109.000,A,3748.8036,N,12217.8724,W,0.19,324.81,290911,,,A*7D
$GPVTG,324.81,T,,M,0.19,N,0.4,K,A*0D
$GPGGA,172110.000,3748.8038,N,12217.8723,W,1,04,2.0,38.0,M,-25.1,M,,0000*5E
$GPGSA,A,3,17,28,26,15,,,,,,,,,2.2,2.0,1.0*3D
$GPRMC,172110.000,A,3748.8038,N,12217.8723,W,0.10,198.00,290911,,,A*79
$GPVTG,198.00,T,,M,0.10,N,0.2,K,A*0E
$GPGGA,172111.000,3748.8041,N,12217.8721,W,1,04,2.0,38.4,M,-25.1,M,,0000*57
$GPGSA,A,3,17,28,26,15,,,,,,,,,2.2,2.0,1.0*3D
$GPRMC,172111.000,A,3748.8041,N,12217.8721,W,0.34,338.01,290911,,,A*7B
$GPVTG,338.01,T,,M,0.34,N,0.6,K,A*05
$GPGGA,172112.000,3748.8042,N,12217.8720,W,1,04,2.0,39.4,M,-25.1,M,,0000*57
$GPGSA,A,3,17,28,26,15,,,,,,,,,2.2,2.0,1.0*3D
$GPRMC,172112.000,A,3748.8042,N,12217.8720,W,0.43,71.06,290911,,,A*43
$GPVTG,71.06,T,,M,0.43,N,0.8,K,A*32
$GPGGA,172113.000,3748.8044,N,12217.8725,W,1,04,2.0,39.7,M,-25.1,M,,0000*56
$GPGSA,A,3,17,28,26,15,,,,,,,,,2.2,2.0,1.0*3D
$GPGSV,3,1,12,17,74,180,31,28,57,038,25,26,47,238,37,08,37,120,33*77
$GPGSV,3,2,12,15,33,290,33,27,25,314,31,24,15,056,28,11,13,048,27*72
$GPGSV,3,3,12,07,11,128,32,04,07,168,30,09,06,313,33,48,44,197,32*74
$GPRMC,172113.000,A,3748.8044,N,12217.8725,W,1.29,357.88,290911,,,A*7D
$GPVTG,357.88,T,,M,1.29,N,2.4,K,A*00
$GPGGA,172114.000,3748.8045,N,12217.8724,W,1,04,2.0,39.8,M,-25.1,M,,0000*5E
$GPGSA,A,3,17,28,26,15,,,,,,,,,2.2,2.0,1.0*3D
$GPRMC,172114.000,A,3748.8045,N,12217.8724,W,0.53,31.29,290911,,,A*4E
$GPVTG,31.29,T,,M,0.53,N,1.0,K,A*33
$GPGGA,172115.000,3748.8046,N,12217.8723,W,1,04,2.0,39.5,M,-25.1,M,,0000*56
$GPGSA,A,3,17,28,26,15,,,,,,,,,2.2,2.0,1.0*3D
$GPRMC,172115.000,A,3748.8046,N,12217.8723,W,0.50,327.76,290911,,,A*76
$GPVTG,327.76,T,,M,0.50,N,0.9,K,A*06
$GPGGA,172116.000,3748.8045,N,12217.8723,W,1,04,2.0,38.3,M,-25.1,M,,0000*51
$GPGSA,A,3,17,28,26,15,,,,,,,,,2.2,2.0,1.0*3D
$GPRMC,172116.000,A,3748.8045,N,12217.8723,W,0.56,254.10,290911,,,A*75
$GPVTG,254.10,T,,M,0.56,N,1.0,K,A*0D
$GPGGA,172117.000,3748.8045,N,12217.8725,W,1,04,2.0,40.6,M,-25.1,M,,0000*5C
$GPGSA,A,3,17,28,26,15,,,,,,,,,2.2,2.0,1.0*3D
$GPRMC,172117.000,A,3748.8045,N,12217.8725,W,0.33,73.09,290911,,,A*4E
$GPVTG,73.09,T,,M,0.33,N,0.6,K,A*36
$GPGGA,172118.000,3748.8042,N,12217.8725,W,1,04,2.0,40.4,M,-25.1,M,,0000*56
$GPGSA,A,3,17,28,26,15,,,,,,,,,2.2,2.0,1.0*3D
$GPGSV,3,1,12,17,74,180,36,28,57,038,38,26,47,238,31,08,37,120,37*7E
$GPGSV,3,2,12,15,33,290,29,27,25,314,28,24,15,056,34,11,13,048,39*73
$GPGSV,3,3,12,07,11,128,24,04,07,168,24,09,06,313,26,48,44,197,39*79
$GPRMC,172118.000,A,3748.8042,N,12217.8725,W,0.51,190.50,290911,,,A*72
$GPGGA,172119.000,3748.8045,N,12217.8726,W,1,04,2.0,39.8,M,-25.1,M,,0000*51
$GPGSA,A,3,17,28,26,15,,,,,,,,,2.2,2.0,1.0*3D
$GPRMC,172119.000,A,3748.8045,N,12217.8726,W,0.25,326.43,290911,,,A*79
$GPVTG,326.43,T,,M,0.25,N,0.5,K,A*0F
$GPGGA,172120.000,3748.8047,N,12217.8725,W,1,04,2.0,39.8,M,-25.1,M,,0000*5A
$GPGSA,A,3,17,28,26,15,,,,,,,,,2.2,2.0,1.0*3D
$GPRMC,172120.000,A,3748.8047,N,12217.8725,W,0.38,22.36,290911,,,A*4B
$GPVTG,22.36,T,,M,0.38,N,0.7,K,A*34
$GPGGA,172121.000,3748.8049,N,12217.8724,W,1,04,2.0,39.6,M,-25.1,M,,0000*5A
$GPGSA,A,3,17,28,26,15,,,,,,,,,2.2,2.0,1.0*3D
$GPRMC,172121.000,A,3748.8049,N,12217.8724,W,0.22,98.54,290911,,,A*4B
$GPVTG,98.54,T,,M,0.22,N,0.4,K,A*39
$GPGGA,172122.000,3748.8053,N,12217.8726,W,1,04,2.0,38.9,M,-25.1,M,,0000*5E
$GPGSA,A,3,17,28,26,15,,,,,,,,,2.2,2.0,1.0*3D
$GPRMC,172122.000,A,3748.8053,N,12217.8726,W,1.43,313.76,290911,,,A*77
$GPVTG,313.76,T,,M,1.43,N,2.6,K,A*0F
$GPGGA,172123.000,3748.8058,N,12217.8731,W,1,04,2.0,39.0,M,-25.1,M,,0000*5A
$GPGSA,A,3,17,28,26,15,,,,,,,,,2.2,2.0,1.0*3D
$GPGSV,3,1,12,17,74,180,29,28,57,038,30,26,47,238,25,08,37,120,26*7D
$GPGSV,3,2,12,15,33,290,21,27,25,314,20,24,15,056,29,11,13,048,31*77
$GPGSV,3,3,12,07,11,128,26,04,07,168,19,09,06,313,19,48,44,197,35*75
$GPRMC,172123.000,A,3748.8058,N,12217.8731,W,1.30,305.95,290911,,,A*75
$GPVTG,305.95,T,,M,1.30,N,2.4,K,A*03
$GPGGA,172124.000,3748.8058,N,12217.8727,W,1,04,2.0,39.5,M,-25.1,M,,0000*5F
$GPGSA,A,3,17,28,26,15,,,,,,,,,2.2,2.0,1.0*3D
$GPRMC,172124.000,A,3748.8058,N,12217.8727,W,0.37,118.09,290911,,,A*78
$GPVTG,118.09,T,,M,0.37,N,0.7,K,A*0F
$GPGGA,172125.000,3748.8049,N,12217.8717,W,1,04,2.0,38.9,M,-25.1,M,,0000*50
$GPGSA,A,3,17,28,26,15,,,,,,,,,2.2,2.0,1.0*3D
$GPRMC,172125.000,A,3748.8049,N,12217.8717,W,1.51,162.79,290911,,,A*71
$GPVTG,162.79,T,,M,1.51,N,2.8,K,A*09
$GPGGA,172126.000,3748.8043,N,12217.8710,W,1,04,2.0,38.1,M,-25.1,M,,0000*56
$GPGSA,A,3,17,28,26,15,,,,,,,,,2.2,2.0,1.0*3D
$GPRMC,172126.000,A,3748.8043,N,12217.8710,W,0.67,188.85,290911,,,A*7C
$GPVTG,188.85,T,,M,0.67,N,1.2,K,A*03
$GPGGA,172127.000,3748.8039,N,12217.8706,W,1,04,2.0,37.6,M,-25.1,M,,0000*55
$GPGSA,A,3,17,28,26,15,,,,,,,,,2.2,2.0,1.0*3D
$GPRMC,172127.000,A,3748.8039,N,12217.8706,W,0.41,210.31,290911,,,A*7E
$GPVTG,210.31,T,,M,0.41,N,0.8,K,A*01
$GPGGA,172128.000,3748.8037,N,12217.8697,W,1,04,2.0,36.6,M,-25.1,M,,0000*5C
$GPGSA,A,3,17,28,26,15,,,,,,,,,2.2,2.0,1.0*3D
$GPGSV,3,1,12,17,74,180,38,28,57,038,22,26,47,238,41,08,37,120,36*7D
$GPGSV,3,2,12,15,33,290,32,27,25,314,21,24,15,056,29,11,13,048,28*7C
$GPGSV,3,3,12,07,11,128,30,04,07,168,29,09,06,313,23,48,44,197,41*7B
$GPRMC,172128.000,A,3748.8037,N,12217.8697,W,0.06,50.60,290911,,,A*47
$GPVTG,50.60,T,,M,0.06,N,0.1,K,A*39
$GPGGA,172129.000,3748.8035,N,12217.8692,W,1,04,2.0,36.0,M,-25.1,M,,0000*5C
$GPGSA,A,3,17,28,26,15,,,,,,,,,2.2,2.0,1.0*3D
$GPRMC,172129.000,A,3748.8035,N,12217.8692,W,0.30,139.13,290911,,,A*7E
$GPVTG,139.13,T,,M,0.30,N,0.6,K,A*01
$GPGGA,172130.000,3748.8029,N,12217.8699,W,1,04,2.0,37.2,M,-25.1,M,,0000*51
$GPGSA,A,3,17,28,26,15,,,,,,,,,2.2,2.0,1.0*3D
$GPRMC,172130.000,A,3748.8029,N,12217.8699,W,0.47,225.18,290911,,,A*75
$GPVTG,225.18,T,,M,0.47,N,0.9,K,A*0B
$GPGGA,172131.000,3748.8026,N,12217.8703,W,1,04,2.0,37.8,M,-25.1,M,,0000*57
$GPGSA,A,3,17,28,26,15,,,,,,,,,2.2,2.0,1.0*3D
$GPRMC,172131.000,A,3748.8026,N,12217.8703,W,0.42,195.32,290911,,,A*7C
$GPVTG,195.32,T,,M,0.42,N,0.8,K,A*0F
$GPGGA,172132.000,3748.8023,N,12217.8705,W,1,04,2.0,38.3,M,-25.1,M,,0000*53
$GPGSA,A,3,17,28,26,15,,,,,,,,,2.2,2.0,1.0*3D
$GPRMC,172132.000,A,3748.8023,N,12217.8705,W,0.23,188.84,290911,,,A*7A
$GPVTG,188.84,T,,M,0.23,N,0.4,K,A*05
$GPGGA,172133.000,3748.8027,N,12217.8715,W,1,04,2.0,39.7,M,-25.1,M,,0000*52
$GPGSA,A,3,17,28,26,15,,,,,,,,,2.2,2.0,1.0*3D
$GPGSV,3,1,12,17,74,180,37,28,57,038,28,26,47,238,39,08,37,120,37*76
$GPGSV,3,2,12,15,33,290,22,27,25,314,22,24,15,056,29,11,13,048,33*74
$GPGSV,3,3,12,07,11,128,30,04,07,168,30,09,06,313,22,48,44,197,42*71
$GPRMC,172133.000,A,3748.8027,N,12217.8715,W,0.24,290.96,290911,,,A*70
$GPGGA,172134.000,3748.8026,N,12217.8715,W,1,04,2.0,39.8,M,-25.1,M,,0000*5B
$GPGSA,A,3,17,28,26,15,,,,,,,,,2.2,2.0,1.0*3D
$GPRMC,172134.000,A,3748.8026,N,12217.8715,W,0.47,300.11,290911,,,A*74
$GPVTG,300.11,T,,M,0.47,N,0.9,K,A*04
$GPGGA,172135.000,3748.8027,N,12217.8718,W,1,04,2.0,40.3,M,-25.1,M,,0000*53
$GPGSA,A,3,17,28,26,15,,,,,,,,,2.2,2.0,1.0*3D
$GPRMC,172135.000,A,3748.8027,N,12217.8718,W,0.25,301.85,290911,,,A*71
$GPVTG,301.85,T,,M,0.25,N,0.5,K,A*00
$GPGGA,172136.000,3748.8030,N,12217.8718,W,1,04,2.0,40.4,M,-25.1,M,,0000*51
$GPGSA,A,3,17,28,26,15,,,,,,,,,2.2,2.0,1.0*3D
$GPRMC,172136.000,A,3748.8030,N,12217.8718,W,0.04,163.93,290911,,,A*76
$GPVTG,163.93,T,,M,0.04,N,0.1,K,A*06
$GPGGA,172137.000,3748.8031,N,12217.8725,W,1,04,2.0,41.5,M,-25.1,M,,0000*5F
$GPGSA,A,3,17,28,26,15,,,,,,,,,2.2,2.0,1.0*3D
$GPRMC,172137.000,A,3748.8031,N,12217.8725,W,0.90,306.07,290911,,,A*79
$GPVTG,306.07,T,,M,0.90,N,1.7,K,A*00
$GPGGA,172138.000,3748.8035,N,12217.8732,W,1,04,2.0,42.7,M,-25.1,M,,0000*53
$GPGSA,A,3,17,28,26,15,,,,,,,,,2.2,2.0,1.0*3D
$GPGSV,3,1,12,17,74,180,33,28,57,038,26,26,47,238,32,08,37,120,31*71
$GPGSV,3,2,12,15,33,290,30,27,25,314,24,24,15,056,27,11,13,048,28*75
$GPGSV,3,3,12,07,11,128,23,04,07,168,21,09,06,313,26,48,44,197,33*71
$GPRMC,172138.000,A,3748.8035,N,12217.8732,W,0.71,301.27,290911,,,A*7E
$GPVTG,301.27,T,,M,0.71,N,1.3,K,A*0E
$GPGGA,172139.000,3748.8037,N,12217.8739,W,1,04,2.0,43.3,M,-25.1,M,,0000*5E
$GPGSA,A,3,17,28,26,15,,,,,,,,,2.2,2.0,1.0*3D
$GPRMC,172139.000,A,3748.8037,N,12217.8739,W,0.71,256.63,290911,,,A*75
$GPVTG,256.63,T,,M,0.71,N,1.3,K,A*0D
$GPGGA,172140.000,3748.8038,N,12217.8746,W,1,04,2.0,44.2,M,-25.1,M,,0000*51
$GPGSA,A,3,17,28,26,15,,,,,,,,,2.2,2.0,1.0*3D
$GPRMC,172140.000,A,3748.8038,N,12217.8746,W,0.92,241.09,290911,,,A*7B
$GPVTG,241.09,T,,M,0.92,N,1.7,K,A*0E
$GPGGA,172141.000,3748.8041,N,12217.8744,W,1,04,2.0,44.0,M,-25.1,M,,0000*5E
$GPGSA,A,3,17,28,26,15,,,,,,,,,2.2,2.0,1.0*3D
$GPRMC,172141.000,A,3748.8041,N,12217.8744,W,0.28,316.35,290911,,,A*7B
$GPVTG,316.35,T,,M,0.28,N,0.5,K,A*00
$GPGGA,172142.000,3748.8036,N,12217.8742,W,1,04,2.0,44.5,M,-25.1,M,,0000*5E
$GPGSA,A,3,17,28,26,15,,,,,,,,,2.2,2.0,1.0*3D
$GPRMC,172142.000,A,3748.8036,N,12217.8742,W,0.18,28.49,290911,,,A*48
$GPVTG,28.49,T,,M,0.18,N,0.3,K,A*30
$GPGGA,172143.000,3748.8029,N,12217.8734,W,1,04,2.0,43.2,M,-25.1,M,,0000*50
$GPGSA,A,3,17,28,26,15,,,,,,,,,2.2,2.0,1.0*3D
$GPGSV,3,1,12,17,74,180,27,28,57,038,21,26,47,238,26,08,37,120,25*73
$GPGSV,3,2,12,15,33,290,23,27,25,314,22,24,15,056,31,11,13,048,21*7F
$GPGSV,3,3,12,07,11,128,28,04,07,168,14,09,06,313,25,48,44,197,31*7D
$GPRMC,172143.000,A,3748.8029,N,12217.8734,W,1.07,178.85,290911,,,A*7D
$GPVTG,178.85,T,,M,1.07,N,2.0,K,A*0A
$GPGGA,172144.000,3748.8029,N,12217.8728,W,1,04,2.0,43.2,M,-25.1,M,,0000*5A
$GPGSA,A,3,17,28,26,15,,,,,,,,,2.2,2.0,1.0*3D
$GPRMC,172144.000,A,3748.8029,N,12217.8728,W,0.42,262.20,290911,,,A*70
$GPVTG,262.20,T,,M,0.42,N,0.8,K,A*07
$GPGGA,172145.000,3748.8023,N,12217.8716,W,1,03,2.4,42.4,M,-25.1,M,,0000*58
$GPGSA,A,2,17,28,15,,,,,,,,,,2.6,2.4,1.0*38
$GPRMC,172145.000,A,3748.8023,N,12217.8716,W,1.31,134.30,290911,,,A*72
$GPVTG,134.30,T,,M,1.31,N,2.4,K,N*02
$GPGGA,172146.000,3748.8011,N,12217.8702,W,1,04,2.0,41.6,M,-25.1,M,,0000*5D
$GPGSA,A,3,17,28,26,15,,,,,,,,,2.2,2.0,1.0*3D
$GPRMC,172146.000,A,3748.8011,N,12217.8702,W,1.78,145.82,290911,,,A*77
$GPVTG,145.82,T,,M,1.78,N,3.3,K,A*09
$GPGGA,172147.000,3748.8000,N,12217.8701,W,1,04,2.0,40.9,M,-25.1,M,,0000*51
$GPGSA,A,3,17,28,26,15,,,,,,,,,2.2,2.0,1.0*3D
$GPRMC,172147.000,A,3748.8000,N,12217.8701,W,0.61,171.49,290911,,,A*7C
$GPVTG,171.49,T,,M,0.61,N,1.1,K,A*00
$GPGGA,172148.000,3748.8000,N,12217.8701,W,1,04,2.0,40.8,M,-25.1,M,,0000*5F
$GPGSA,A,3,17,28,26,15,,,,,,,,,2.2,2.0,1.0*3D
$GPGSV,3,1,12,17,74,180,28,28,57,038,20,26,47,238,33,08,37,120,29*75
$GPGSV,3,2,12,15,33,290,30,27,25,314,28,24,15,056,27,11,13,048,28*79
$GPGSV,3,3,12,07,11,128,24,04,07,168,22,09,06,313,30,48,44,197,33*72
$GPRMC,172148.000,A,3748.8000,N,12217.8701,W,0.62,219.35,290911,,,A*76
$GPGGA,172149.000,3748.7999,N,12217.8702,W,1,04,2.0,40.8,M,-25.1,M,,0000*5B
$GPGSA,A,3,17,28,26,15,,,,,,,,,2.2,2.0,1.0*3D
$GPRMC,172149.000,A,3748.7999,N,12217.8702,W,0.72,225.17,290911,,,A*7C
$GPVTG,225.17,T,,M,0.72,N,1.3,K,A*09
$GPGGA,172150.000,3748.8004,N,12217.8713,W,1,04,2.0,41.7,M,-25.1,M,,0000*5F
$GPGSA,A,3,17,28,26,15,,,,,,,,,2.2,2.0,1.0*3D
$GPRMC,172150.000,A,3748.8004,N,12217.8713,W,1.02,314.48,290911,,,A*79
$GPVTG,314.48,T,,M,1.02,N,1.9,K,A*0C
$GPGGA,172151.000,3748.8008,N,12217.8714,W,1,04,2.0,41.9,M,-25.1,M,,0000*5B
$GPGSA,A,3,17,28,26,15,,,,,,,,,2.2,2.0,1.0*3D
$GPRMC,172151.000,A,3748.8008,N,12217.8714,W,0.50,0.46,290911,,,A*7D
$GPVTG,0.46,T,,M,0.50,N,0.9,K,A*03
$GPGGA,172152.000,3748.8009,N,12217.8715,W,1,04,2.0,42.0,M,-25.1,M,,0000*52
$GPGSA,A,3,17,28,26,15,,,,,,,,,2.2,2.0,1.0*3D
$GPRMC,172152.000,A,3748.8009,N,12217.8715,W,0.04,24.74,290911,,,A*48
$GPVTG,24.74,T,,M,0.04,N,0.1,K,A*3D
$GPGGA,172153.000,3748.8011,N,12217.8717,W,1,04,2.0,42.3,M,-25.1,M,,0000*5B
$GPGSA,A,3,17,28,26,15,,,,,,,,,2.2,2.0,1.0*3D
$GPGSV,3,1,11,17,74,180,31,28,57,038,20,26,47,238,30,08,37,120,23*77
$GPGSV,3,2,11,15,33,290,26,27,25,314,21,24,15,056,18,11,13,048,13*70
$GPGSV,3,3,11,07,11,128,11,04,07,168,12,09,06,313,25*43
$GPRMC,172153.000,A,3748.8011,N,12217.8717,W,0.51,24.71,290911,,,A*47
$GPVTG,24.71,T,,M,0.51,N,0.9,K,A*30
$GPGGA,172154.000,3748.8011,N,12217.8723,W,1,04,2.0,43.1,M,-25.1,M,,0000*58
$GPGSA,A,3,17,28,26,15,,,,,,,,,2.2,2.0,1.0*3D
$GPRMC,172154.000,A,3748.8011,N,12217.8723,W,0.13,350.53,290911,,,A*71
$GPVTG,350.53,T,,M,0.13,N,0.2,K,A*0D
$GPGGA,172155.000,3748.8014,N,12217.8722,W,1,04,2.0,43.2,M,-25.1,M,,0000*5E
$GPGSA,A,3,17,28,26,15,,,,,,,,,2.2,2.0,1.0*3D
$GPRMC,172155.000,A,3748.8014,N,12217.8722,W,0.56,27.22,290911,,,A*40
$GPVTG,27.22,T,,M,0.56,N,1.0,K,A*3A
$GPGGA,172156.000,3748.8020,N,12217.8716,W,1,04,2.0,42.8,M,-25.1,M,,0000*56
$GPGSA,A,3,17,28,26,15,,,,,,,,,2.2,2.0,1.0*3D
$GPRMC,172156.000,A,3748.8020,N,12217.8716,W,0.15,7.76,290911,,,A*77
$GPVTG,7.76,T,,M,0.15,N,0.3,K,A*0C
$GPGGA,172157.000,3748.8023,N,12217.8714,W,1,04,2.0,42.6,M,-25.1,M,,0000*58
$GPGSA,A,3,17,28,26,15,,,,,,,,,2.2,2.0,1.0*3D
$GPRMC,172157.000,A,3748.8023,N,12217.8714,W,0.15,253.72,290911,,,A*70
$GPVTG,253.72,T,,M,0.15,N,0.3,K,A*0B
$GPGGA,172158.000,3748.8022,N,12217.8719,W,1,04,2.0,43.1,M,-25.1,M,,0000*5D
$GPGSA,A,3,17,28,26,15,,,,,,,,,2.2,2.0,1.0*3D
$GPGSV,3,1,12,17,74,180,33,28,57,038,20,26,47,238,39,08,37,120,23*7F
$GPGSV,3,2,12,15,33,290,37,27,25,314,30,24,15,056,32,11,13,048,26*7D
$GPRMC,172158.000,A,3748.8022,N,12217.8719,W,0.55,224.10,290911,,,A*73
$GPVTG,224.10,T,,M,0.55,N,1.0,K,A*09
$GPGGA,172159.000,3748.8020,N,12217.8721,W,1,04,2.0,43.5,M,-25.1,M,,0000*51
$GPGSA,A,3,17,28,26,15,,,,,,,,,2.2,2.0,1.0*3D
$GPRMC,172159.000,A,3748.8020,N,12217.8721,W,0.82,128.23,290911,,,A*7E
$GPVTG,128.23,T,,M,0.82,N,1.5,K,A*09
$GPGGA,172200.000,3748.8017,N,12217.8728,W,1,04,2.0,44.7,M,-25.1,M,,0000*56
$GPGSA,A,3,17,28,26,15,,,,,,,,,2.2,2.0,1.0*3D
$GPRMC,172200.000,A,3748.8017,N,12217.8728,W,0.72,353.46,290911,,,A*7E
$GPVTG,353.46,T,,M,0.72,N,1.3,K,A*0D
$GPGGA,172201.000,3748.8015,N,12217.8735,W,1,04,2.0,46.0,M,-25.1,M,,0000*5C
$GPGSA,A,3,17,28,26,15,,,,,,,,,2.2,2.0,1.0*3D
$GPRMC,172201.000,A,3748.8015,N,12217.8735,W,0.50,24.77,290911,,,A*40
$GPVTG,24.77,T,,M,0.50,N,0.9,K,A*37
$GPGGA,172202.000,3748.8011,N,12217.8731,W,1,04,2.0,46.5,M,-25.1,M,,0000*5A
$GPGSA,A,3,17,28,26,15,,,,,,,,,2.2,2.0,1.0*3D
$GPRMC,172202.000,A,3748.8011,N,12217.8731,W,1.67,101.70,290911,,,A*77
$GPVTG,101.70,T,,M,1.67,N,3.1,K,A*08
$GPGGA,172203.000,3748.8007,N,12217.8726,W,1,04,2.0,47.1,M,-25.1,M,,0000*5F
$GPGSA,A,3,17,28,26,15,,,,,,,,,2.2,2.0,1.0*3D
$GPGSV,3,1,12,17,74,180,33,28,57,038,23,26,47,238,38,08,37,120,31*7E
$GPGSV,3,2,12,15,33,290,31,27,25,314,27,24,15,056,23,11,13,048,27*7C
$GPGSV,3,3,12,07,11,128,30,04,07,168,28,09,06,313,27,48,44,197,37*7F
$GPRMC,172203.000,A,3748.8007,N,12217.8726,W,2.20,120.95,290911,,,A*7F
$GPVTG,120.95,T,,M,2.20,N,4.1,K,A*07
$GPGGA,172204.000,3748.7995,N,12217.8723,W,1,04,2.0,48.1,M,-25.1,M,,0000*5F
$GPGSA,A,3,17,28,26,15,,,,,,,,,2.2,2.0,1.0*3D
$GPRMC,172204.000,A,3748.7995,N,12217.8723,W,2.30,136.21,290911,,,A*79
$GPVTG,136.21,T,,M,2.30,N,4.3,K,A*0C
$GPGGA,172205.000,3748.7988,N,12217.8723,W,1,04,2.0,49.3,M,-25.1,M,,0000*51
$GPGSA,A,3,17,28,26,15,,,,,,,,,2.2,2.0,1.0*3D
$GPRMC,172205.000,A,3748.7988,N,12217.8723,W,2.05,123.71,290911,,,A*73
$GPVTG,123.71,T,,M,2.05,N,3.8,K,A*07
$GPGGA,172206.000,3748.7984,N,12217.8728,W,1,04,2.0,51.2,M,-25.1,M,,0000*5D
$GPGSA,A,3,17,28,26,15,,,,,,,,,2.2,2.0,1.0*3D
$GPRMC,172206.000,A,3748.7984,N,12217.8728,W,2.08,122.74,290911,,,A*7E
$GPVTG,122.74,T,,M,2.08,N,3.8,K,A*0E
$GPGGA,172207.000,3748.7984,N,12217.8725,W,1,04,2.0,52.2,M,-25.1,M,,0000*52
$GPGSA,A,3,17,28,26,15,,,,,,,,,2.2,2.0,1.0*3D
$GPRMC,172207.000,A,3748.7984,N,12217.8725,W,2.19,112.36,290911,,,A*77
$GPVTG,112.36,T,,M,2.19,N,4.1,K,A*05
$GPGGA,172208.000,3748.7982,N,12217.8723,W,1,04,2.0,53.2,M,-25.1,M,,0000*5C
$GPGSA,A,3,17,28,26,15,,,,,,,,,2.2,2.0,1.0*3D
$GPGSV,3,1,12,17,74,180,34,28,57,038,23,26,47,238,38,08,37,120,32*7A
$GPGSV,3,2,12,15,33,290,29,27,25,314,26,24,15,056,23,11,13,048,21*72
$GPGSV,3,3,12,07,11,128,30,04,07,168,28,09,06,313,27,48,44,197,37*7F
$GPRMC,172208.000,A,3748.7982,N,12217.8723,W,2.13,125.91,290911,,,A*7B
$GPVTG,125.91,T,,M,2.13,N,3.9,K,A*09
$GPGGA,172209.000,3748.7979,N,12217.8722,W,1,04,2.0,54.4,M,-25.1,M,,0000*59
$GPGSA,A,3,17,28,26,15,,,,,,,,,2.2,2.0,1.0*3D
$GPRMC,172209.000,A,3748.7979,N,12217.8722,W,2.12,112.88,290911,,,A*72
$GPVTG,112.88,T,,M,2.12,N,3.9,K,A*04
$GPGGA,172210.000,3748.7978,N,12217.8718,W,1,04,2.0,55.3,M,-25.1,M,,0000*5F
$GPGSA,A,3,17,28,26,15,,,,,,,,,2.2,2.0,1.0*3D
$GPRMC,172210.000,A,3748.7978,N,12217.8718,W,2.29,109.07,290911,,,A*77
$GPVTG,109.07,T,,M,2.29,N,4.2,K,A*0D
$GPGGA,172211.000,3748.7977,N,12217.8713,W,1,04,2.0,56.0,M,-25.1,M,,0000*5A
$GPGSA,A,3,17,28,26,15,,,,,,,,,2.2,2.0,1.0*3D
$GPRMC,172211.000,A,3748.7977,N,12217.8713,W,2.28,115.12,290911,,,A*7A
$GPVTG,115.12,T,,M,2.28,N,4.2,K,A*05
$GPGGA,172212.000,3748.7978,N,12217.8702,W,1,04,2.0,56.1,M,-25.1,M,,0000*57
$GPGSA,A,3,17,28,26,15,,,,,,,,,2.2,2.0,1.0*3D
$GPRMC,172212.000,A,3748.7978,N,12217.8702,W,2.29,110.20,290911,,,A*73
$GPVTG,110.20,T,,M,2.29,N,4.2,K,A*00
$GPGGA,172213.000,3748.7979,N,12217.8692,W,1,04,2.0,56.3,M,-25.1,M,,0000*5D
$GPGSA,A,3,17,28,26,15,,,,,,,,,2.2,2.0,1.0*3D
$GPGSV,3,1,12,17,75,179,34,28,57,039,23,26,47,238,36,08,37,120,32*72
$GPGSV,3,2,12,15,33,289,30,27,25,314,26,24,15,055,19,11,13,047,20*76
$GPGSV,3,3,12,07,11,128,23,04,07,167,25,09,06,313,24,48,44,197,39*72
$GPVTG,114.47,T,,M,2.20,N,4.1,K,A*0F
$GPGGA,172214.000,3748.7980,N,12217.8679,W,1,04,2.0,56.0,M,-25.1,M,,0000*5A
$GPGSA,A,3,17,28,26,15,,,,,,,,,2.2,2.0,1.0*3D
$GPRMC,172214.000,A,3748.7980,N,12217.8679,W,2.25,123.11,290911,,,A*71
$GPVTG,123.11,T,,M,2.25,N,4.2,K,A*0E
$GPGGA,172215.000,3748.7978,N,12217.8672,W,1,04,2.0,56.0,M,-25.1,M,,0000*57
$GPGSA,A,3,17,28,26,15,,,,,,,,,2.2,2.0,1.0*3D
$GPRMC,172215.000,A,3748.7978,N,12217.8672,W,1.98,138.30,290911,,,A*70
$GPVTG,138.30,T,,M,1.98,N,3.7,K,A*00
$GPGGA,172216.000,3748.7978,N,12217.8661,W,1,04,2.0,55.7,M,-25.1,M,,0000*52
$GPGSA,A,3,17,28,26,15,,,,,,,,,2.2,2.0,1.0*3D
$GPRMC,172216.000,A,3748.7978,N,12217.8661,W,1.79,121.69,290911,,,A*7A
$GPVTG,121.69,T,,M,1.79,N,3.3,K,A*0F
$GPGGA,172217.000,3748.7977,N,12217.8650,W,1,04,2.0,55.5,M,-25.1,M,,0000*5C
$GPGSA,A,3,17,28,26,15,,,,,,,,,2.2,2.0,1.0*3D
$GPRMC,172217.000,A,3748.7977,N,12217.8650,W,2.35,108.08,290911,,,A*71
$GPVTG,108.08,T,,M,2.35,N,4.3,K,A*0F
$GPGGA,172218.000,3748.7973,N,12217.8643,W,1,04,2.0,55.6,M,-25.1,M,,0000*56
$GPGSA,A,3,17,28,26,15,,,,,,,,,2.2,2.0,1.0*3D
$GPGSV,3,1,12,17,75,179,33,28,57,039,29,26,47,238,36,08,37,120,34*79
$GPGSV,3,2,12,15,33,289,31,27,25,314,26,24,15,055,19,11,13,047,21*76
$GPGSV,3,3,12,07,11,128,32,04,07,167,23,09,06,313,24,48,44,197,35*78
$GPRMC,172218.000,A,3748.7973,N,12217.8643,W,1.99,113.72,290911,,,A*7A
$GPVTG,113.72,T,,M,1.99,N,3.7,K,A*0E
$GPGGA,172219.000,3748.7970,N,12217.8632,W,1,04,2.0,55.5,M,-25.1,M,,0000*51
$GPGSA,A,3,17,28,26,15,,,,,,,,,2.2,2.0,1.0*3D
$GPRMC,172219.000,A,3748.7970,N,12217.8632,W,2.55,114.11,290911,,,A*7F
$GPVTG,114.11,T,,M,2.55,N,4.7,K,A*08
$GPGGA,172220.000,3748.7969,N,12217.8630,W,1,04,2.0,56.1,M,-25.1,M,,0000*56
$GPGSA,A,3,17,28,26,15,,,,,,,,,2.2,2.0,1.0*3D
$GPRMC,172220.000,A,3748.7969,N,12217.8630,W,1.70,114.48,290911,,,A*77
$GPVTG,114.48,T,,M,1.70,N,3.2,K,A*02
$GPGGA,172221.000,3748.7967,N,12217.8618,W,1,04,2.0,55.7,M,-25.1,M,,0000*56
$GPGSA,A,3,17,28,26,15,,,,,,,,,2.2,2.0,1.0*3D
$GPRMC,172221.000,A,3748.7967,N,12217.8618,W,2.07,117.62,290911,,,A*7A
$GPVTG,117.62,T,,M,2.07,N,3.8,K,A*00
$GPGGA,172222.000,3748.7965,N,12217.8608,W,1,04,2.0,55.4,M,-25.1,M,,0000*55
$GPGSA,A,3,17,28,26,15,,,,,,,,,2.2,2.0,1.0*3D
$GPRMC,172222.000,A,3748.7965,N,12217.8608,W,2.16,120.12,290911,,,A*79
$GPVTG,120.12,T,,M,2.16,N,4.0,K,A*0C
$GPGGA,172223.000,3748.7964,N,12217.8596,W,1,04,2.0,54.7,M,-25.1,M,,0000*53
$GPGSA,A,3,17,28,26,15,,,,,,,,,2.2,2.0,1.0*3D
$GPGSV,3,1,12,17,75,179,31,28,57,039,27,26,47,238,36,08,37,120,25*75
$GPGSV,3,2,12,15,33,289,31,27,25,314,26,24,15,055,23,11,13,047,21*7F
$GPGSV,3,3,12,07,11,128,30,04,07,167,24,09,06,313,25,48,44,197,36*7F
$GPRMC,172223.000,A,3748.7964,N,12217.8596,W,2.17,118.33,290911,,,A*74
$GPVTG,118.33,T,,M,2.17,N,4.0,K,A*05
$GPGGA,172224.000,3748.7962,N,12217.8588,W,1,04,2.0,54.6,M,-25.1,M,,0000*5C
$GPGSA,A,3,17,28,26,15,,,,,,,,,2.2,2.0,1.0*3D
$GPRMC,172224.000,A,3748.7962,N,12217.8588,W,1.66,109.16,290911,,,A*78
$GPVTG,109.16,T,,M,1.66,N,3.1,K,A*01
$GPGGA,172225.000,3748.7959,N,12217.8585,W,1,04,2.0,55.1,M,-25.1,M,,0000*5E
$GPGSA,A,3,17,28,26,15,,,,,,,,,2.2,2.0,1.0*3D
$GPRMC,172225.000,A,3748.7959,N,12217.8585,W,0.88,132.41,290911,,,A*77
$GPVTG,132.41,T,,M,0.88,N,1.6,K,A*0F
$GPGGA,172226.000,3748.7955,N,12217.8576,W,1,04,2.0,53.7,M,-25.1,M,,0000*5D
$GPGSA,A,3,17,28,26,15,,,,,,,,,2.2,2.0,1.0*3D
$GPRMC,172226.000,A,3748.7955,N,12217.8576,W,0.91,62.10,290911,,,A*4C
$GPVTG,62.10,T,,M,0.91,N,1.7,K,A*36
$GPGGA,172227.000,3748.7949,N,12217.8572,W,1,04,2.0,53.1,M,-25.1,M,,0000*53
$GPGSA,A,3,17,28,26,15,,,,,,,,,2.2,2.0,1.0*3D
$GPRMC,172227.000,A,3748.7949,N,12217.8572,W,0.82,72.07,290911,,,A*41
$GPVTG,72.07,T,,M,0.82,N,1.5,K,A*31
$GPGGA,172228.000,3748.7947,N,12217.8559,W,1,04,2.0,51.5,M,-25.1,M,,0000*5D
$GPGSA,A,3,17,28,26,15,,,,,,,,,2.2,2.0,1.0*3D
$GPGSV,3,1,12,17,75,179,31,28,57,039,26,26,47,238,32,08,37,120,36*72
$GPGSV,3,2,12,15,33,289,27,27,25,314,22,24,15,055,23,11,13,047,21*7C
$GPGSV,3,3,12,07,11,128,32,04,07,167,34,09,06,313,24,48,44,197,39*72
$GPVTG,105.92,T,,M,1.40,N,2.6,K,A*03
$GPGGA,172229.000,3748.7943,N,12217.8542,W,1,04,2.0,49.6,M,-25.1,M,,0000*58
$GPGSA,A,3,17,28,26,15,,,,,,,,,2.2,2.0,1.0*3D
$GPRMC,172229.000,A,3748.7943,N,12217.8542,W,1.44,100.51,290911,,,A*7A
$GPVTG,100.51,T,,M,1.44,N,2.7,K,A*0C
$GPGGA,172230.000,3748.7936,N,12217.8530,W,1,04,2.0,48.2,M,-25.1,M,,0000*52
$GPGSA,A,3,17,28,26,15,,,,,,,,,2.2,2.0,1.0*3D
$GPRMC,172230.000,A,3748.7936,N,12217.8530,W,1.23,102.76,290911,,,A*73
$GPVTG,102.76,T,,M,1.23,N,2.3,K,A*0E
$GPGGA,172231.000,3748.7927,N,12217.8527,W,1,04,2.0,47.8,M,-25.1,M,,0000*50
$GPGSA,A,3,17,28,26,15,,,,,,,,,2.2,2.0,1.0*3D
$GPRMC,172231.000,A,3748.7927,N,12217.8527,W,0.68,123.46,290911,,,A*7A
$GPVTG,123.46,T,,M,0.68,N,1.3,K,A*03
$GPGGA,172232.000,3748.7919,N,12217.8523,W,1,04,2.0,47.4,M,-25.1,M,,0000*56
$GPGSA,A,3,17,28,26,15,,,,,,,,,2.2,2.0,1.0*3D
$GPRMC,172232.000,A,3748.7919,N,12217.8523,W,1.21,118.68,290911,,,A*78
$GPVTG,118.68,T,,M,1.21,N,2.2,K,A*09
$GPGGA,172233.000,3748.7914,N,12217.8518,W,1,04,2.0,47.0,M,-25.1,M,,0000*56
$GPGSA,A,3,17,28,26,15,,,,,,,,,2.2,2.0,1.0*3D
$GPGSV,3,1,12,17,75,179,30,28,57,039,26,26,47,238,33,08,37,120,28*7D
$GPGSV,3,2,12,15,33,289,21,27,25,314,21,24,15,055,23,11,13,047,22*7A
$GPGSV,3,3,12,07,11,128,36,04,07,167,23,09,06,313,16,48,44,197,28*71
$GPRMC,172233.000,A,3748.7914,N,12217.8518,W,0.68,107.32,290911,,,A*71
$GPVTG,107.32,T,,M,0.68,N,1.3,K,A*06
$GPGGA,172234.000,3748.7906,N,12217.8510,W,1,04,2.0,46.5,M,-25.1,M,,0000*5E
$GPGSA,A,3,17,28,26,15,,,,,,,,,2.2,2.0,1.0*3D
$GPRMC,172234.000,A,3748.7906,N,12217.8510,W,1.00,128.57,290911,,,A*7C
$GPVTG,128.57,T,,M,1.00,N,1.9,K,A*0D
$GPGGA,172235.000,3748.7892,N,12217.8498,W,1,04,2.0,45.7,M,-25.1,M,,0000*53
$GPGSA,A,3,17,28,26,15,,,,,,,,,2.2,2.0,1.0*3D
$GPRMC,172235.000,A,3748.7892,N,12217.8498,W,1.90,142.82,290911,,,A*7D
$GPVTG,142.82,T,,M,1.90,N,3.5,K,A*0E
$GPGGA,172236.000,3748.7882,N,12217.8490,W,1,04,2.0,45.0,M,-25.1,M,,0000*5E
$GPGSA,A,3,17,28,26,15,,,,,,,,,2.2,2.0,1.0*3D
$GPRMC,172236.000,A,3748.7882,N,12217.8490,W,1.23,146.18,290911,,,A*78
$GPVTG,146.18,T,,M,1.23,N,2.3,K,A*06
$GPGGA,172237.000,3748.7878,N,12217.8487,W,1,04,2.0,44.4,M,-25.1,M,,0000*59
$GPGSA,A,3,17,28,26,15,,,,,,,,,2.2,2.0,1.0*3D
$GPRMC,172237.000,A,3748.7878,N,12217.8487,W,0.48,157.76,290911,,,A*7E
$GPVTG,157.76,T,,M,0.48,N,0.9,K,A*0A
$GPGGA,172238.000,3748.7878,N,12217.8485,W,1,04,2.0,43.8,M,-25.1,M,,0000*5F
$GPGSA,A,3,17,28,26,15,,,,,,,,,2.2,2.0,1.0*3D
$GPGSV,3,1,12,17,75,179,33,28,57,039,27,26,47,238,33,08,37,120,33*75
$GPGSV,3,2,12,15,33,289,22,27,25,314,21,24,15,055,27,11,13,047,22*7D
$GPGSV,3,3,12,07,11,128,36,04,07,167,23,09,06,313,16,48,44,197,32*7A
$GPRMC,172238.000,A,3748.7878,N,12217.8485,W,0.57,20.42,290911,,,A*4B
$GPVTG,20.42,T,,M,0.57,N,1.1,K,A*3B
$GPGGA,172239.000,3748.7878,N,12217.8480,W,1,04,2.0,43.0,M,-25.1,M,,0000*53
$GPGSA,A,3,17,28,26,15,,,,,,,,,2.2,2.0,1.0*3D
$GPRMC,172239.000,A,3748.7878,N,12217.8480,W,1.07,8.63,290911,,,A*72
$GPVTG,8.63,T,,M,1.07,N,2.0,K,A*04
$GPGGA,172240.000,3748.7869,N,12217.8459,W,1,04,2.0,40.8,M,-25.1,M,,0000*52
$GPGSA,A,3,17,28,26,15,,,,,,,,,2.2,2.0,1.0*3D
$GPRMC,172240.000,A,3748.7869,N,12217.8459,W,1.23,93.62,290911,,,A*4D
$GPVTG,93.62,T,,M,1.23,N,2.3,K,A*32
$GPGGA,172241.000,3748.7872,N,12217.8454,W,1,04,2.0,40.3,M,-25.1,M,,0000*5F
$GPGSA,A,3,17,28,26,15,,,,,,,,,2.2,2.0,1.0*3D
$GPRMC,172241.000,A,3748.7872,N,12217.8454,W,1.90,109.19,290911,,,A*7D
$GPVTG,109.19,T,,M,1.90,N,3.5,K,A*03
$GPGGA,172242.000,3748.7874,N,12217.8453,W,1,04,2.0,40.1,M,-25.1,M,,0000*5F
$GPGSA,A,3,17,28,26,15,,,,,,,,,2.2,2.0,1.0*3D
$GPRMC,172242.000,A,3748.7874,N,12217.8453,W,1.54,125.20,290911,,,A*73
$GPVTG,125.20,T,,M,1.54,N,2.9,K,A*02
$GPGGA,172243.000,3748.7879,N,12217.8457,W,1,04,2.0,40.7,M,-25.1,M,,0000*51
$GPGSA,A,3,17,28,26,15,,,,,,,,,2.2,2.0,1.0*3D
$GPGSV,3,1,12,17,75,179,32,28,57,039,26,26,47,238,33,08,37,120,34*72
$GPGSV,3,2,12,15,33,289,30,27,25,314,24,24,15,055,21,11,13,047,23*7C
$GPGSV,3,3,12,07,11,128,34,04,07,167,24,09,06,313,23,48,44,197,39*72
$GPRMC,172243.000,A,3748.7879,N,12217.8457,W,0.83,127.58,290911,,,A*7D
$GPGGA,172244.000,3748.7881,N,12217.8459,W,1,04,2.0,41.4,M,-25.1,M,,0000*5D
$GPGSA,A,3,17,28,26,15,,,,,,,,,2.2,2.0,1.0*3D
$GPRMC,172244.000,A,3748.7881,N,12217.8459,W,1.36,120.53,290911,,,A*70
$GPVTG,120.53,T,,M,1.36,N,2.5,K,A*0B
