$ADVER,3080,2.3
$GPRMC,225504.729,A,3748.7878,N,12217.8741,W,1.82,225.42,150710,,,A*7B
$GPGGA,225505.729,3748.7887,N,12217.8733,W,1,04,9.8,-8.0,M,-25.1,M,,0000*4C
$GPGSA,A,3,27,15,26,17,,,,,,,,,9.8,9.8,1.0*30
$GPRMC,225505.729,A,3748.7887,N,12217.8733,W,0.98,235.45,150710,,,A*73
$GPVTG,235.45,T,,M,0.98,N,1.8,K,A*00
$GPGGA,225506.729,3748.7894,N,12217.8725,W,1,04,9.7,-7.1,M,-25.1,M,,0000*4B
$GPGSA,A,3,27,15,26,17,,,,,,,,,9.8,9.7,1.0*3F
$GPRMC,225506.729,A,3748.7894,N,12217.8725,W,0.90,234.63,150710,,,A*78
$GPVTG,234.63,T,,M,0.90,N,1.7,K,A*02
$GPGGA,225507.000,3748.7901,N,12217.8716,W,1,04,9.7,-6.3,M,-25.1,M,,0000*48
$GPGSA,A,3,27,15,26,17,,,,,,,,,9.8,9.7,1.0*3F
$GPRMC,225507.000,A,3748.7901,N,12217.8716,W,0.89,228.43,150710,,,A*7F
$GPVTG,228.43,T,,M,0.89,N,1.6,K,A*04
$GPGGA,225508.000,3748.7907,N,12217.8710,W,1,04,9.7,-5.7,M,-25.1,M,,0000*40
$GPGSA,A,3,27,15,26,17,,,,,,,,,9.8,9.7,1.0*3F
$GPGSV,3,1,09,17,61,180,38,26,46,288,41,15,32,301,41,27,11,310,34*72
$GPGSV,3,2,09,28,64,021,37,08,57,099,32,11,26,078,29,07,23,119,24*7C
$GPGSV,3,3,09,51,43,156,28*4B
$GPRMC,225508.000,A,3748.7907,N,12217.8710,W,0.69,234.46,150710,,,A*76
$GPVTG,234.46,T,,M,0.69,N,1.3,K,A*07
$GPGGA,225509.000,3748.7911,N,12217.8705,W,1,04,9.7,-5.1,M,-25.1,M,,0000*44
$GPGSA,A,3,27,15,26,17,,,,,,,,,9.8,9.7,1.0*3F
$GPRMC,225509.000,A,3748.7911,N,12217.8705,W,0.79,232.05,150710,,,A*74
$GPVTG,232.05,T,,M,0.79,N,1.5,K,A*01
$GPGGA,225510.000,3748.7914,N,12217.8702,W,1,04,9.7,-4.7,M,-25.1,M,,0000*49
$GPGSA,A,3,27,15,26,17,,,,,,,,,9.8,9.7,1.0*3F
$GPRMC,225510.000,A,3748.7914,N,12217.8702,W,0.88,230.97,150710,,,A*79
$GPVTG,230.97,T,,M,0.88,N,1.6,K,A*05
$GPGGA,225511.000,3748.7917,N,12217.8699,W,1,04,9.7,-4.3,M,-25.1,M,,0000*4C
$GPGSA,A,3,27,15,26,17,,,,,,,,,9.7,9.7,1.0*30
$GPRMC,225511.000,A,3748.7917,N,12217.8699,W,0.69,242.66,150710,,,A*7C
$GPVTG,242.66,T,,M,0.69,N,1.3,K,A*04
$GPGGA,225512.000,3748.7919,N,12217.8697,W,1,04,9.7,-4.0,M,-25.1,M,,0000*4C
$GPGSA,A,3,27,15,26,17,,,,,,,,,9.7,9.7,1.0*30
$GPRMC,225512.000,A,3748.7919,N,12217.8697,W,0.83,231.04,150710,,,A*7B
$GPVTG,231.04,T,,M,0.83,N,1.5,K,A*06
$GPGGA,225513.000,3748.7921,N,12217.8694,W,1,04,9.7,-3.7,M,-25.1,M,,0000*45
$GPGSA,A,3,27,15,26,17,,,,,,,,,9.7,9.7,1.0*30
$GPGSV,3,1,09,17,61,180,33,26,46,288,40,15,32,301,35,27,11,310,34*7B
$GPGSV,3,2,09,28,64,021,32,08,57,099,31,11,26,078,23,07,23,119,20*74
$GPGSV,3,3,09,51,43,156,27*44
$GPRMC,225513.000,A,3748.7921,N,12217.8694,W,0.98,227.22,150710,,,A*7B
$GPVTG,227.22,T,,M,0.98,N,1.8,K,A*02
$GPGGA,225514.000,3748.7930,N,12217.8684,W,1,04,9.7,-2.1,M,-25.1,M,,0000*44
$GPGSA,A,3,27,15,26,17,,,,,,,,,9.7,9.7,1.0*30
$GPRMC,225514.000,A,3748.7930,N,12217.8684,W,1.28,214.16,150710,,,A*70
$GPVTG,214.16,T,,M,1.28,N,2.4,K,A*00
$GPGGA,225515.000,3748.7873,N,12217.8754,W,1,04,9.6,-6.5,M,-25.1,M,,0000*4E
$GPGSA,A,3,27,15,26,17,,,,,,,,,9.7,9.6,1.0*31
$GPRMC,225515.000,A,3748.7873,N,12217.8754,W,2.07,209.21,150710,,,A*7D
$GPVTG,209.21,T,,M,2.07,N,3.8,K,A*0B
$GPGGA,225516.000,3748.7912,N,12217.8699,W,1,04,9.6,-3.0,M,-25.1,M,,0000*4B
$GPGSA,A,3,27,15,26,17,,,,,,,,,9.7,9.6,1.0*31
$GPRMC,225516.000,A,3748.7912,N,12217.8699,W,1.75,222.91,150710,,,A*7C
$GPVTG,222.91,T,,M,1.75,N,3.2,K,A*05
$GPGGA,225517.000,3748.7976,N,12217.8619,W,1,04,9.6,3.4,M,-25.1,M,,0000*69
$GPGSA,A,3,27,15,26,17,,,,,,,,,9.7,9.6,1.0*31
$GPRMC,225517.000,A,3748.7976,N,12217.8619,W,2.14,234.12,150710,,,A*7F
$GPVTG,234.12,T,,M,2.14,N,4.0,K,A*08
$GPGGA,225518.000,3748.8023,N,12217.8560,W,1,04,9.6,8.0,M,-25.1,M,,0000*62
$GPGSA,A,3,27,15,26,17,,,,,,,,,9.7,9.6,1.0*31
$GPGSV,3,1,09,28,64,021,33,17,61,180,28,08,57,099,39,26,46,288,22*7F
$GPGSV,3,2,09,15,33,300,26,11,26,078,36,07,23,119,32,27,11,310,29*7E
$GPGSV,3,3,09,51,43,156,31*43
$GPRMC,225518.000,A,3748.8023,N,12217.8560,W,1.55,232.73,150710,,,A*7C
$GPVTG,232.73,T,,M,1.55,N,2.9,K,A*00
$GPGGA,225519.000,3748.8092,N,12217.8474,W,1,04,9.6,16.0,M,-25.1,M,,0000*52
$GPGSA,A,3,27,15,26,17,,,,,,,,,9.7,9.6,1.0*31
$GPRMC,225519.000,A,3748.8092,N,12217.8474,W,0.57,243.18,150710,,,A*7B
$GPVTG,243.18,T,,M,0.57,N,1.0,K,A*02
$GPGGA,225520.000,3748.8124,N,12217.8440,W,1,04,9.6,21.0,M,-25.1,M,,0000*57
$GPGSA,A,3,27,15,26,17,,,,,,,,,9.6,9.6,1.0*30
$GPRMC,225520.000,A,3748.8124,N,12217.8440,W,1.66,225.49,150710,,,A*7D
$GPVTG,225.49,T,,M,1.66,N,3.1,K,A*06
$GPGGA,225521.000,3748.8120,N,12217.8450,W,1,04,9.6,20.1,M,-25.1,M,,0000*53
$GPGSA,A,3,27,15,26,17,,,,,,,,,9.6,9.6,1.0*30
$GPRMC,225521.000,A,3748.8120,N,12217.8450,W,1.37,235.10,150710,,,A*70
$GPVTG,235.10,T,,M,1.37,N,2.5,K,A*0A
$GPGGA,225522.000,3748.8106,N,12217.8474,W,1,04,9.6,18.1,M,-25.1,M,,0000*59
$GPGSA,A,3,27,15,26,17,,,,,,,,,9.6,9.6,1.0*30
$GPRMC,225522.000,A,3748.8106,N,12217.8474,W,1.28,261.91,150710,,,A*77
$GPVTG,261.91,T,,M,1.28,N,2.4,K,A*0D
$GPGGA,225523.000,3748.8092,N,12217.8498,W,1,04,9.6,16.3,M,-25.1,M,,0000*5A
$GPGSA,A,3,27,15,26,17,,,,,,,,,9.6,9.6,1.0*30
$GPGSV,3,1,09,28,64,021,24,17,61,180,26,08,57,099,28,26,46,288,32*76
$GPGSV,3,2,09,15,33,300,33,11,26,078,27,07,23,119,20,27,11,310,35*74
$GPGSV,3,3,09,51,43,156,23*40
$GPRMC,225523.000,A,3748.8092,N,12217.8498,W,1.44,244.52,150710,,,A*7A
$GPVTG,244.52,T,,M,1.44,N,2.7,K,A*0C
$GPGGA,225524.000,3748.8100,N,12217.8486,W,1,04,9.5,16.3,M,-25.1,M,,0000*5B
$GPGSA,A,3,27,15,26,17,,,,,,,,,9.6,9.5,1.0*33
$GPRMC,225524.000,A,3748.8100,N,12217.8486,W,1.00,230.21,150710,,,A*7F
$GPVTG,230.21,T,,M,1.00,N,1.9,K,A*06
$GPGGA,225525.000,3748.8088,N,12217.8496,W,1,04,9.5,14.8,M,-25.1,M,,0000*53
$GPGSA,A,3,27,15,26,17,,,,,,,,,9.6,9.5,1.0*33
$GPRMC,225525.000,A,3748.8088,N,12217.8496,W,0.88,247.73,150710,,,A*78
$GPVTG,247.73,T,,M,0.88,N,1.6,K,A*0F
$GPGGA,225526.000,3748.8086,N,12217.8488,W,1,04,9.5,14.0,M,-25.1,M,,0000*59
$GPGSA,A,3,27,15,26,17,,,,,,,,,9.6,9.5,1.0*33
$GPRMC,225526.000,A,3748.8086,N,12217.8488,W,0.72,192.22,150710,,,A*70
$GPVTG,192.22,T,,M,0.72,N,1.3,K,A*00
$GPGGA,225527.000,3748.8079,N,12217.8489,W,1,04,9.5,12.8,M,-25.1,M,,0000*57
$GPGSA,A,3,27,15,26,17,,,,,,,,,9.6,9.5,1.0*33
$GPRMC,225527.000,A,3748.8079,N,12217.8489,W,0.29,157.21,150710,,,A*74
$GPVTG,157.21,T,,M,0.29,N,0.5,K,A*03
$GPGGA,225528.000,3748.7972,N,12217.8624,W,1,05,2.5,1.6,M,-25.1,M,,0000*66
$GPGSA,A,3,27,15,26,17,28,,,,,,,,4.0,2.5,3.2*39
$GPGSV,2,1,08,28,64,021,29,17,61,180,25,08,57,099,22,26,46,288,33*73
$GPGSV,2,2,08,15,33,300,38,11,26,078,28,07,23,119,15,27,11,310,37*74
$GPRMC,225528.000,A,3748.7972,N,12217.8624,W,0.16,235.13,150710,,,A*79
$GPVTG,235.13,T,,M,0.16,N,0.3,K,A*0F
$GPGGA,225529.000,3748.7971,N,12217.8622,W,1,05,2.5,1.2,M,-25.1,M,,0000*66
$GPGSA,A,3,27,15,26,17,28,,,,,,,,4.0,2.5,3.2*39
$GPRMC,225529.000,A,3748.7971,N,12217.8622,W,0.09,159.70,150710,,,A*7F
$GPVTG,159.70,T,,M,0.09,N,0.2,K,A*0C
$GPGGA,225530.000,3748.7971,N,12217.8619,W,1,05,2.5,1.0,M,-25.1,M,,0000*64
$GPGSA,A,3,27,15,26,17,28,,,,,,,,4.0,2.5,3.2*39
$GPRMC,225530.000,A,3748.7971,N,12217.8619,W,0.10,166.56,150710,,,A*7F
$GPVTG,166.56,T,,M,0.10,N,0.2,K,A*0C
$GPGGA,225531.000,3748.7971,N,12217.8617,W,1,05,2.5,0.8,M,-25.1,M,,0000*62
$GPGSA,A,3,27,15,26,17,28,,,,,,,,4.0,2.5,3.2*39
$GPRMC,225531.000,A,3748.7971,N,12217.8617,W,0.15,162.42,150710,,,A*74
$GPVTG,162.42,T,,M,0.15,N,0.3,K,A*09
$GPGGA,225532.000,3748.7970,N,12217.8617,W,1,05,2.5,0.5,M,-25.1,M,,0000*6D
$GPGSA,A,3,27,15,26,17,28,,,,,,,,4.0,2.5,3.2*39
$GPRMC,225532.000,A,3748.7970,N,12217.8617,W,0.15,185.98,150710,,,A*78
$GPVTG,185.98,T,,M,0.15,N,0.3,K,A*07
$GPGGA,225533.000,3748.7968,N,12217.8617,W,1,05,2.5,0.2,M,-25.1,M,,0000*62
$GPGSA,A,3,27,15,26,17,28,,,,,,,,4.0,2.5,3.2*39
$GPGSV,2,1,08,28,64,021,31,17,61,180,26,08,57,099,23,26,47,288,35*7F
$GPGSV,2,2,08,15,33,300,38,11,26,078,27,07,23,119,18,27,11,310,38*79
$GPRMC,225533.000,A,3748.7968,N,12217.8617,W,0.23,188.26,150710,,,A*7D
$GPVTG,188.26,T,,M,0.23,N,0.4,K,A*0D
$GPGGA,225534.000,3748.7968,N,12217.8617,W,1,05,2.5,0.0,M,-25.1,M,,0000*67
$GPGSA,A,3,27,15,26,17,28,,,,,,,,4.0,2.5,3.2*39
$GPRMC,225534.000,A,3748.7968,N,12217.8617,W,0.07,217.74,150710,,,A*7E
$GPVTG,217.74,T,,M,0.07,N,0.1,K,A*0C
$GPGGA,225535.000,3748.7969,N,12217.8617,W,1,05,2.5,0.0,M,-25.1,M,,0000*67
$GPGSA,A,3,27,15,26,17,28,,,,,,,,4.0,2.5,3.2*39
$GPRMC,225535.000,A,3748.7969,N,12217.8617,W,0.06,223.30,150710,,,A*78
$GPVTG,223.30,T,,M,0.06,N,0.1,K,A*0A
$GPGGA,225536.000,3748.7969,N,12217.8617,W,1,05,2.5,0.0,M,-25.1,M,,0000*64
$GPGSA,A,3,27,15,26,17,28,,,,,,,,4.0,2.5,3.2*39
$GPRMC,225536.000,A,3748.7969,N,12217.8617,W,0.05,220.84,150710,,,A*74
$GPVTG,220.84,T,,M,0.05,N,0.1,K,A*05
$GPGGA,225537.000,3748.7970,N,12217.8617,W,1,05,2.5,0.1,M,-25.1,M,,0000*6C
$GPGSA,A,3,27,15,26,17,28,,,,,,,,4.0,2.5,3.2*39
$GPRMC,225537.000,A,3748.7970,N,12217.8617,W,0.12,260.89,150710,,,A*72
$GPVTG,260.89,T,,M,0.12,N,0.2,K,A*09
$GPGGA,225538.000,3748.7972,N,12217.8617,W,1,05,2.5,0.2,M,-25.1,M,,0000*62
$GPGSA,A,3,27,15,26,17,28,,,,,,,,4.0,2.5,3.2*39
$GPGSV,3,1,09,28,64,021,32,17,61,180,27,08,57,099,21,26,47,288,36*7C
$GPGSV,3,2,09,15,33,300,39,11,26,078,27,07,23,119,,27,11,310,37*7E
$GPGSV,3,3,09,51,43,156,26*45
$GPRMC,225538.000,A,3748.7972,N,12217.8617,W,0.10,280.07,150710,,,A*75
$GPVTG,280.07,T,,M,0.10,N,0.2,K,A*03
$GPGGA,225539.000,3748.7973,N,12217.8617,W,1,05,2.5,0.3,M,-25.1,M,,0000*63
$GPGSA,A,3,27,15,26,17,28,,,,,,,,4.0,2.5,3.2*39
$GPRMC,225539.000,A,3748.7973,N,12217.8617,W,0.13,276.12,150710,,,A*7B
$GPVTG,276.12,T,,M,0.13,N,0.2,K,A*0D
$GPGGA,225540.000,3748.7975,N,12217.8617,W,1,05,2.5,0.4,M,-25.1,M,,0000*6C
$GPGSA,A,3,27,15,26,17,28,,,,,,,,4.0,2.5,3.2*39
$GPRMC,225540.000,A,3748.7975,N,12217.8617,W,0.12,287.12,150710,,,A*7C
$GPVTG,287.12,T,,M,0.12,N,0.2,K,A*02
$GPGGA,225541.000,3748.7976,N,12217.8617,W,1,05,2.5,0.5,M,-25.1,M,,0000*6F
$GPGSA,A,3,27,15,26,17,28,,,,,,,,4.0,2.5,3.2*39
$GPRMC,225541.000,A,3748.7976,N,12217.8617,W,0.18,269.84,150710,,,A*7B
$GPVTG,269.84,T,,M,0.18,N,0.3,K,A*06
$GPGGA,225542.000,3748.7977,N,12217.8617,W,1,05,2.5,0.6,M,-25.1,M,,0000*6E
$GPGSA,A,3,27,15,26,17,28,,,,,,,,4.0,2.5,3.2*39
$GPRMC,225542.000,A,3748.7977,N,12217.8617,W,0.16,280.72,150710,,,A*79
$GPVTG,280.72,T,,M,0.16,N,0.3,K,A*06
$GPGGA,225543.000,3748.7978,N,12217.8617,W,1,05,2.5,0.7,M,-25.1,M,,0000*61
$GPGSA,A,3,27,15,26,17,28,,,,,,,,4.0,2.5,3.2*39
$GPGSV,3,1,09,28,64,021,32,17,61,180,28,08,57,099,21,26,47,288,36*73
$GPGSV,3,2,09,15,33,300,39,11,26,078,24,07,23,119,21,27,11,310,37*7E
$GPGSV,3,3,09,51,43,156,24*47
$GPRMC,225543.000,A,3748.7978,N,12217.8617,W,0.19,259.35,150710,,,A*7F
$GPVTG,259.35,T,,M,0.19,N,0.4,K,A*09
$GPGGA,225544.000,3748.7978,N,12217.8617,W,1,05,2.5,0.8,M,-25.1,M,,0000*69
$GPGSA,A,3,27,15,26,17,28,,,,,,,,4.0,2.5,3.2*39
$GPRMC,225544.000,A,3748.7978,N,12217.8617,W,0.18,294.29,150710,,,A*75
$GPVTG,294.29,T,,M,0.18,N,0.3,K,A*03
$GPGGA,225545.000,3748.7979,N,12217.8618,W,1,05,2.5,0.9,M,-25.1,M,,0000*67
$GPGSA,A,3,27,15,26,17,28,,,,,,,,4.0,2.5,3.2*39
$GPRMC,225545.000,A,3748.7979,N,12217.8618,W,0.18,284.22,150710,,,A*70
$GPVTG,284.22,T,,M,0.18,N,0.3,K,A*09
$GPGGA,225546.000,3748.7979,N,12217.8618,W,1,05,2.5,0.9,M,-25.1,M,,0000*64
$GPGSA,A,3,27,15,26,17,28,,,,,,,,4.0,2.5,3.2*39
$GPRMC,225546.000,A,3748.7979,N,12217.8618,W,0.17,270.76,150710,,,A*76
$GPVTG,270.76,T,,M,0.17,N,0.3,K,A*0C
$GPGGA,225547.000,3748.7980,N,12217.8619,W,1,05,2.5,1.0,M,-25.1,M,,0000*6A
$GPGSA,A,3,27,15,26,17,28,,,,,,,,4.0,2.5,3.2*39
$GPRMC,225547.000,A,3748.7980,N,12217.8619,W,0.17,282.60,150710,,,A*7A
$GPVTG,282.60,T,,M,0.17,N,0.3,K,A*06
$GPGGA,225548.000,3748.7980,N,12217.8620,W,1,05,2.5,1.1,M,-25.1,M,,0000*6E
$GPGSA,A,3,27,15,26,17,28,,,,,,,,4.0,2.5,3.2*39
$GPGSV,2,1,08,28,64,022,32,17,61,180,28,08,57,099,17,26,47,288,36*75
$GPGSV,2,2,08,15,33,300,39,11,26,078,25,07,23,119,22,27,11,310,37*7C
$GPRMC,225548.000,A,3748.7980,N,12217.8620,W,0.18,273.87,150710,,,A*77
$GPVTG,273.87,T,,M,0.18,N,0.3,K,A*0E
$GPGGA,225549.000,3748.7980,N,12217.8621,W,1,05,2.5,1.2,M,-25.1,M,,0000*6D
$GPGSA,A,3,27,15,26,17,28,,,,,,,,4.0,2.5,3.2*39
$GPRMC,225549.000,A,3748.7980,N,12217.8621,W,0.20,269.74,150710,,,A*7B
$GPVTG,269.74,T,,M,0.20,N,0.4,K,A*05
$GPGGA,225550.000,3748.7981,N,12217.8622,W,1,05,2.5,1.3,M,-25.1,M,,0000*66
$GPGSA,A,3,27,15,26,17,28,,,,,,,,4.0,2.5,3.2*39
$GPRMC,225550.000,A,3748.7981,N,12217.8622,W,0.20,281.71,150710,,,A*72
$GPVTG,281.71,T,,M,0.20,N,0.4,K,A*06
$GPGGA,225551.000,3748.7981,N,12217.8623,W,1,05,2.5,1.5,M,-25.1,M,,0000*60
$GPGSA,A,3,27,15,26,17,28,,,,,,,,4.0,2.5,3.2*39
$GPRMC,225551.000,A,3748.7981,N,12217.8623,W,0.18,268.41,150710,,,A*7D
$GPVTG,268.41,T,,M,0.18,N,0.3,K,A*0E
$GPGGA,225552.000,3748.7981,N,12217.8624,W,1,05,2.5,1.5,M,-25.1,M,,0000*64
$GPGSA,A,3,27,15,26,17,28,,,,,,,,4.0,2.5,3.2*39
$GPRMC,225552.000,A,3748.7981,N,12217.8624,W,0.20,269.36,150710,,,A*73
$GPVTG,269.36,T,,M,0.20,N,0.4,K,A*03
$GPGGA,225553.000,3748.7981,N,12217.8625,W,1,05,2.5,1.6,M,-25.1,M,,0000*67
$GPGSA,A,3,27,15,26,17,28,,,,,,,,4.0,2.5,3.2*39
$GPGSV,2,1,08,28,64,022,31,17,61,180,28,08,57,099,16,26,47,288,37*76
$GPGSV,2,2,08,15,33,300,40,11,26,078,25,07,23,119,21,27,11,310,32*74
$GPRMC,225553.000,A,3748.7981,N,12217.8625,W,0.22,278.02,150710,,,A*76
$GPGGA,225554.000,3748.7981,N,12217.8625,W,1,05,2.5,1.5,M,-25.1,M,,0000*63
$GPGSA,A,3,27,15,26,17,28,,,,,,,,4.0,2.5,3.2*39
$GPRMC,225554.000,A,3748.7981,N,12217.8625,W,0.18,268.18,150710,,,A*72
$GPVTG,268.18,T,,M,0.18,N,0.3,K,A*02
$GPGGA,225555.000,3748.7981,N,12217.8626,W,1,05,2.5,1.5,M,-25.1,M,,0000*61
$GPGSA,A,3,27,15,26,17,28,,,,,,,,4.0,2.5,3.2*39
$GPRMC,225555.000,A,3748.7981,N,12217.8626,W,0.26,303.79,150710,,,A*76
$GPVTG,303.79,T,,M,0.26,N,0.5,K,A*02
$GPGGA,225556.000,3748.7981,N,12217.8626,W,1,05,2.5,1.4,M,-25.1,M,,0000*63
$GPGSA,A,3,27,15,26,17,28,,,,,,,,4.0,2.5,3.2*39
$GPRMC,225556.000,A,3748.7981,N,12217.8626,W,0.17,325.39,150710,,,A*77
$GPVTG,325.39,T,,M,0.17,N,0.3,K,A*06
$GPGGA,225557.000,3748.7981,N,12217.8626,W,1,05,2.5,1.4,M,-25.1,M,,0000*62
$GPGSA,A,3,27,15,26,17,28,,,,,,,,4.0,2.5,3.2*39
$GPRMC,225557.000,A,3748.7981,N,12217.8626,W,0.16,277.25,150710,,,A*7C
$GPVTG,277.25,T,,M,0.16,N,0.3,K,A*0C
$GPGGA,225558.000,3748.7982,N,12217.8626,W,1,05,2.5,1.3,M,-25.1,M,,0000*69
$GPGSA,A,3,27,15,26,17,28,,,,,,,,4.0,2.5,3.2*39
$GPGSV,2,1,08,28,64,022,31,17,61,180,28,08,57,099,16,26,47,288,32*73
$GPGSV,2,2,08,15,33,300,39,11,26,078,23,07,23,119,21,27,11,310,35*7B
$GPRMC,225558.000,A,3748.7982,N,12217.8626,W,0.21,280.46,150710,,,A*79
$GPVTG,280.46,T,,M,0.21,N,0.4,K,A*02
$GPGGA,225559.000,3748.7981,N,12217.8627,W,1,05,2.5,1.3,M,-25.1,M,,0000*6A
$GPGSA,A,3,27,15,26,17,28,,,,,,,,4.0,2.5,3.2*39
$GPRMC,225559.000,A,3748.7981,N,12217.8627,W,0.36,243.38,150710,,,A*7A
$GPVTG,243.38,T,,M,0.36,N,0.7,K,A*01
$GPGGA,225600.000,3748.7981,N,12217.8628,W,1,05,2.5,1.2,M,-25.1,M,,0000*6B
$GPGSA,A,3,27,15,26,17,28,,,,,,,,4.0,2.5,3.2*39
$GPRMC,225600.000,A,3748.7981,N,12217.8628,W,0.55,273.81,150710,,,A*7E
$GPVTG,273.81,T,,M,0.55,N,1.0,K,A*03
$GPGGA,225601.000,3748.7979,N,12217.8628,W,1,05,2.5,0.9,M,-25.1,M,,0000*67
$GPGSA,A,3,27,15,26,17,28,,,,,,,,4.0,2.5,3.2*39
$GPRMC,225601.000,A,3748.7979,N,12217.8628,W,0.71,200.08,150710,,,A*7B
$GPVTG,200.08,T,,M,0.71,N,1.3,K,A*03
$GPGGA,225602.000,3748.7984,N,12217.8629,W,1,05,2.5,1.4,M,-25.1,M,,0000*6B
$GPGSA,A,3,27,15,26,17,28,,,,,,,,4.0,2.5,3.2*39
$GPRMC,225602.000,A,3748.7984,N,12217.8629,W,0.34,186.40,150710,,,A*7B
$GPVTG,186.40,T,,M,0.34,N,0.6,K,A*07
$GPGGA,225603.000,3748.7986,N,12217.8629,W,1,05,2.5,1.5,M,-25.1,M,,0000*69
$GPGSA,A,3,27,15,26,17,28,,,,,,,,4.0,2.5,3.2*39
$GPGSV,2,1,08,28,64,022,30,17,61,180,21,08,57,099,25,26,47,288,35*7C
$GPGSV,2,2,08,15,33,300,39,11,26,078,15,07,23,119,20,27,11,310,35*7F
$GPRMC,225603.000,A,3748.7986,N,12217.8629,W,0.25,342.29,150710,,,A*7D
$GPVTG,342.29,T,,M,0.25,N,0.5,K,A*01
$GPGGA,225604.000,3748.7987,N,12217.8629,W,1,05,2.5,1.4,M,-25.1,M,,0000*6E
$GPGSA,A,3,27,15,26,17,28,,,,,,,,4.0,2.5,3.2*39
$GPRMC,225604.000,A,3748.7987,N,12217.8629,W,0.27,205.60,150710,,,A*76
$GPVTG,205.60,T,,M,0.27,N,0.5,K,A*0C
$GPGGA,225605.000,3748.7987,N,12217.8628,W,1,05,2.5,1.4,M,-25.1,M,,0000*6E
$GPGSA,A,3,27,15,26,17,28,,,,,,,,4.0,2.5,3.2*39
$GPRMC,225605.000,A,3748.7987,N,12217.8628,W,0.47,188.76,150710,,,A*71
$GPVTG,188.76,T,,M,0.47,N,0.9,K,A*07
$GPGGA,225606.000,3748.8001,N,12217.8632,W,1,05,2.5,3.0,M,-25.1,M,,0000*68
$GPGSA,A,3,27,15,26,17,28,,,,,,,,4.0,2.5,3.2*39
$GPRMC,225606.000,A,3748.8001,N,12217.8632,W,0.50,336.28,150710,,,A*7B
$GPVTG,336.28,T,,M,0.50,N,0.9,K,A*0D
$GPGGA,225607.000,3748.8007,N,12217.8634,W,1,05,2.5,3.7,M,-25.1,M,,0000*6E
$GPGSA,A,3,27,15,26,17,28,,,,,,,,4.0,2.5,3.2*39
$GPRMC,225607.000,A,3748.8007,N,12217.8634,W,0.33,318.72,150710,,,A*7C
$GPVTG,318.72,T,,M,0.33,N,0.6,K,A*04
$GPGGA,225608.000,3748.8001,N,12217.8632,W,1,05,2.5,2.9,M,-25.1,M,,0000*6E
$GPGSA,A,3,27,15,26,17,28,,,,,,,,4.0,2.5,3.2*39
$GPGSV,2,1,08,28,64,022,29,17,61,180,24,08,57,099,25,26,47,288,36*72
$GPGSV,2,2,08,15,33,300,40,11,26,078,14,07,23,119,20,27,11,310,36*73
$GPRMC,225608.000,A,3748.8001,N,12217.8632,W,0.16,279.28,150710,,,A*7D
$GPVTG,279.28,T,,M,0.16,N,0.3,K,A*0F
$GPGGA,225609.000,3748.8007,N,12217.8624,W,1,05,2.5,3.3,M,-25.1,M,,0000*65
$GPGSA,A,3,27,15,26,17,28,,,,,,,,4.0,2.5,3.2*39
$GPRMC,225609.000,A,3748.8007,N,12217.8624,W,0.38,16.67,150710,,,A*41
$GPVTG,16.67,T,,M,0.38,N,0.7,K,A*37
$GPGGA,225610.000,3748.8015,N,12217.8616,W,1,05,2.5,3.9,M,-25.1,M,,0000*65
$GPGSA,A,3,27,15,26,17,28,,,,,,,,4.0,2.5,3.2*39
$GPRMC,225610.000,A,3748.8015,N,12217.8616,W,0.03,348.53,150710,,,A*7C
$GPVTG,348.53,T,,M,0.03,N,0.1,K,A*06
$GPGGA,225611.000,3748.8007,N,12217.8606,W,1,05,2.5,2.5,M,-25.1,M,,0000*6B
$GPGSA,A,3,27,15,26,17,28,,,,,,,,4.0,2.5,3.2*39
$GPRMC,225611.000,A,3748.8007,N,12217.8606,W,0.93,180.47,150710,,,A*75
$GPVTG,180.47,T,,M,0.93,N,1.7,K,A*0B
$GPGGA,225612.000,3748.8004,N,12217.8599,W,1,05,2.5,1.8,M,-25.1,M,,0000*60
$GPGSA,A,3,27,15,26,17,28,,,,,,,,4.0,2.5,3.2*39
$GPRMC,225612.000,A,3748.8004,N,12217.8599,W,0.73,161.90,150710,,,A*7B
$GPVTG,161.90,T,,M,0.73,N,1.3,K,A*04
$GPGGA,225613.000,3748.8001,N,12217.8593,W,1,05,2.5,1.1,M,-25.1,M,,0000*67
$GPGSA,A,3,27,15,26,17,28,,,,,,,,4.0,2.5,3.2*39
$GPGSV,2,1,08,28,64,022,28,17,61,180,24,08,57,099,25,26,47,288,36*73
$GPGSV,2,2,08,15,33,300,39,11,26,078,15,07,23,119,13,27,11,310,36*7C
$GPRMC,225613.000,A,3748.8001,N,12217.8593,W,0.41,165.07,150710,,,A*7E
$GPVTG,165.07,T,,M,0.41,N,0.8,K,A*05
$GPGGA,225614.000,3748.7998,N,12217.8589,W,1,05,2.5,0.4,M,-25.1,M,,0000*69
$GPGSA,A,3,27,15,26,17,28,,,,,,,,4.0,2.5,3.2*39
$GPRMC,225614.000,A,3748.7998,N,12217.8589,W,0.09,142.19,150710,,,A*72
$GPVTG,142.19,T,,M,0.09,N,0.2,K,A*09
$GPGGA,225615.000,3748.7994,N,12217.8586,W,1,05,2.5,-0.3,M,-25.1,M,,0000*41
$GPGSA,A,3,27,15,26,17,28,,,,,,,,4.0,2.5,3.2*39
$GPRMC,225615.000,A,3748.7994,N,12217.8586,W,0.33,169.69,150710,,,A*77
$GPVTG,169.69,T,,M,0.33,N,0.6,K,A*0A
$GPGGA,225616.000,3748.7991,N,12217.8583,W,1,05,2.5,-1.0,M,-25.1,M,,0000*40
$GPGSA,A,3,27,15,26,17,28,,,,,,,,4.0,2.5,3.2*39
$GPRMC,225616.000,A,3748.7991,N,12217.8583,W,0.32,170.74,150710,,,A*71
$GPVTG,170.74,T,,M,0.32,N,0.6,K,A*0F
$GPGGA,225617.000,3748.7988,N,12217.8582,W,1,05,2.5,-1.5,M,-25.1,M,,0000*4D
$GPGSA,A,3,27,15,26,17,28,,,,,,,,4.0,2.5,3.2*39
$GPRMC,225617.000,A,3748.7988,N,12217.8582,W,0.22,171.64,150710,,,A*78
$GPVTG,171.64,T,,M,0.22,N,0.4,K,A*0C
$GPGGA,225618.000,3748.7986,N,12217.8581,W,1,05,2.5,-1.9,M,-25.1,M,,0000*43
$GPGSA,A,3,27,15,26,17,28,,,,,,,,4.0,2.5,3.2*39
$GPGSV,2,1,08,28,64,022,29,17,62,180,29,08,57,100,27,26,47,287,37*71
$GPGSV,2,2,08,15,33,300,40,11,26,077,15,07,22,119,25,27,11,310,35*7A
$GPRMC,225618.000,A,3748.7986,N,12217.8581,W,0.24,177.50,150710,,,A*7D
$GPVTG,177.50,T,,M,0.24,N,0.4,K,A*0B
$GPGGA,225619.000,3748.7984,N,12217.8580,W,1,05,2.5,-2.3,M,-25.1,M,,0000*48
$GPGSA,A,3,27,15,26,17,28,,,,,,,,4.0,2.5,3.2*39
$GPRMC,225619.000,A,3748.7984,N,12217.8580,W,0.17,169.56,150710,,,A*76
$GPVTG,169.56,T,,M,0.17,N,0.3,K,A*05
$GPGGA,225620.000,3748.7983,N,12217.8579,W,1,05,2.5,-2.7,M,-25.1,M,,0000*47
$GPGSA,A,3,27,15,26,17,28,,,,,,,,4.0,2.5,3.2*39
$GPRMC,225620.000,A,3748.7983,N,12217.8579,W,0.25,172.20,150710,,,A*77
$GPVTG,172.20,T,,M,0.25,N,0.5,K,A*09
$GPGGA,225621.000,3748.7984,N,12217.8576,W,1,05,2.5,-2.7,M,-25.1,M,,0000*4E
$GPGSA,A,3,27,15,26,17,28,,,,,,,,4.0,2.5,3.2*39
$GPRMC,225621.000,A,3748.7984,N,12217.8576,W,0.29,230.15,150710,,,A*71
$GPVTG,230.15,T,,M,0.29,N,0.5,K,A*06
$GPGGA,225622.000,3748.7986,N,12217.8575,W,1,05,2.5,-2.6,M,-25.1,M,,0000*4D
$GPGSA,A,3,27,15,26,17,28,,,,,,,,4.0,2.5,3.2*39
$GPRMC,225622.000,A,3748.7986,N,12217.8575,W,0.77,230.45,150710,,,A*7D
$GPVTG,230.45,T,,M,0.77,N,1.4,K,A*08
$GPGGA,225623.000,3748.7991,N,12217.8572,W,1,05,2.5,-2.2,M,-25.1,M,,0000*49
$GPGSA,A,3,27,15,26,17,28,,,,,,,,4.0,2.5,3.2*39
$GPGSV,2,1,08,28,64,022,24,17,62,180,28,08,57,100,27,26,47,287,37*7D
$GPGSV,2,2,08,15,33,300,40,11,26,077,14,07,22,119,23,27,11,310,34*7C
$GPRMC,225623.000,A,3748.7991,N,12217.8572,W,0.60,239.54,150710,,,A*72
$GPVTG,239.54,T,,M,0.60,N,1.1,K,A*02
$GPGGA,225624.000,3748.7992,N,12217.8575,W,1,05,2.5,-2.1,M,-25.1,M,,0000*49
$GPGSA,A,3,27,15,26,17,28,,,,,,,,4.0,2.5,3.2*39
$GPRMC,225624.000,A,3748.7992,N,12217.8575,W,0.41,244.34,150710,,,A*7E
$GPVTG,244.34,T,,M,0.41,N,0.8,K,A*05
$GPGGA,225625.000,3748.7988,N,12217.8574,W,1,05,2.5,-2.7,M,-25.1,M,,0000*44
$GPGSA,A,3,27,15,26,17,28,,,,,,,,4.0,2.5,3.2*39
$GPRMC,225625.000,A,3748.7988,N,12217.8574,W,0.73,184.42,150710,,,A*7A
$GPVTG,184.42,T,,M,0.73,N,1.3,K,A*00
$GPGGA,225626.000,3748.7985,N,12217.8572,W,1,05,2.5,-3.1,M,-25.1,M,,0000*4B
$GPGSA,A,3,27,15,26,17,28,,,,,,,,4.0,2.5,3.2*39
$GPRMC,225626.000,A,3748.7985,N,12217.8572,W,1.17,173.28,150710,,,A*75
$GPVTG,173.28,T,,M,1.17,N,2.2,K,A*05
$GPGGA,225627.000,3748.7987,N,12217.8571,W,1,05,2.5,-2.9,M,-25.1,M,,0000*42
$GPGSA,A,3,27,15,26,17,28,,,,,,,,4.0,2.5,3.2*39
$GPRMC,225627.000,A,3748.7987,N,12217.8571,W,1.20,175.31,150710,,,A*7F
$GPVTG,175.31,T,,M,1.20,N,2.2,K,A*0F
$GPGGA,225628.000,3748.7979,N,12217.8567,W,1,05,2.5,-3.9,M,-25.1,M,,0000*4A
$GPGSA,A,3,27,15,26,17,28,,,,,,,,4.0,2.5,3.2*39
$GPGSV,2,1,08,28,64,022,30,17,62,180,17,08,57,100,26,26,47,287,36*74
$GPGSV,2,2,08,15,33,300,39,11,26,077,20,07,22,119,19,27,11,310,35*7D
$GPRMC,225628.000,A,3748.7979,N,12217.8567,W,1.09,172.41,150710,,,A*7D
$GPGGA,225629.000,3748.7982,N,12217.8566,W,1,05,2.5,-3.6,M,-25.1,M,,0000*41
$GPGSA,A,3,27,15,26,17,28,,,,,,,,4.0,2.5,3.2*39
$GPRMC,225629.000,A,3748.7982,N,12217.8566,W,0.30,142.66,150710,,,A*74
$GPVTG,142.66,T,,M,0.30,N,0.6,K,A*0F
$GPGGA,225630.000,3748.7988,N,12217.8565,W,1,05,2.5,-2.9,M,-25.1,M,,0000*4E
$GPGSA,A,3,27,15,26,17,28,,,,,,,,4.0,2.5,3.2*39
$GPRMC,225630.000,A,3748.7988,N,12217.8565,W,0.04,28.99,150710,,,A*4F
$GPVTG,28.99,T,,M,0.04,N,0.1,K,A*32
$GPGGA,225631.000,3748.7993,N,12217.8565,W,1,05,2.5,-2.5,M,-25.1,M,,0000*49
$GPGSA,A,3,27,15,26,17,28,,,,,,,,4.0,2.5,3.2*39
$GPRMC,225631.000,A,3748.7993,N,12217.8565,W,0.04,63.32,150710,,,A*4A
$GPVTG,63.32,T,,M,0.04,N,0.1,K,A*3C
$GPGGA,225632.000,3748.7996,N,12217.8563,W,1,05,2.5,-2.7,M,-25.1,M,,0000*4B
$GPGSA,A,3,27,15,26,17,28,,,,,,,,4.0,2.5,3.2*39
$GPRMC,225632.000,A,3748.7996,N,12217.8563,W,0.35,340.49,150710,,,A*76
$GPVTG,340.49,T,,M,0.35,N,0.7,K,A*06
$GPGGA,225633.000,3748.7997,N,12217.8563,W,1,05,2.5,-3.0,M,-25.1,M,,0000*4D
$GPGSA,A,3,27,15,26,17,28,,,,,,,,4.0,2.5,3.2*39
$GPGSV,3,1,09,28,64,022,29,17,62,180,18,08,57,100,21,26,47,287,37*75
$GPGSV,3,2,09,15,33,300,39,11,26,077,21,07,22,119,19,27,11,310,38*71
$GPGSV,3,3,09,48,46,187,24*46
$GPRMC,225633.000,A,3748.7997,N,12217.8563,W,0.58,308.72,150710,,,A*79
$GPVTG,308.72,T,,M,0.58,N,1.1,K,A*0E
$GPGGA,225634.000,3748.7997,N,12217.8567,W,1,05,2.5,-2.8,M,-25.1,M,,0000*47
$GPGSA,A,3,27,15,26,17,28,,,,,,,,4.0,2.5,3.2*39
$GPRMC,225634.000,A,3748.7997,N,12217.8567,W,0.41,182.10,150710,,,A*76
$GPVTG,182.10,T,,M,0.41,N,0.8,K,A*0A
$GPGGA,225635.000,3748.7995,N,12217.8568,W,1,05,2.5,-3.1,M,-25.1,M,,0000*43
$GPGSA,A,3,27,15,26,17,28,,,,,,,,4.0,2.5,3.2*39
$GPRMC,225635.000,A,3748.7995,N,12217.8568,W,0.43,229.30,150710,,,A*78
$GPVTG,229.30,T,,M,0.43,N,0.8,K,A*08
$GPGGA,225636.000,3748.7994,N,12217.8567,W,1,05,2.5,-3.5,M,-25.1,M,,0000*4A
$GPGSA,A,3,27,15,26,17,28,,,,,,,,4.0,2.5,3.2*39
$GPRMC,225636.000,A,3748.7994,N,12217.8567,W,0.19,203.99,150710,,,A*71
$GPVTG,203.99,T,,M,0.19,N,0.3,K,A*07
$GPGGA,225637.000,3748.7991,N,12217.8569,W,1,05,2.5,-4.0,M,-25.1,M,,0000*42
$GPGSA,A,3,27,15,26,17,28,,,,,,,,4.0,2.5,3.2*39
$GPRMC,225637.000,A,3748.7991,N,12217.8569,W,0.19,208.75,150710,,,A*72
$GPVTG,208.75,T,,M,0.19,N,0.4,K,A*09
$GPGGA,225638.000,3748.7988,N,12217.8571,W,1,05,2.5,-4.6,M,-25.1,M,,0000*4A
$GPGSA,A,3,27,15,26,17,28,,,,,,,,4.0,2.5,3.2*39
$GPGSV,3,1,09,28,64,022,25,17,62,180,30,08,57,100,24,26,47,287,37*76
$GPGSV,3,2,09,15,33,300,34,11,26,077,21,07,22,119,26,27,11,310,30*78
$GPGSV,3,3,09,48,46,187,28*4A
$GPRMC,225638.000,A,3748.7988,N,12217.8571,W,0.41,234.39,150710,,,A*76
$GPVTG,234.39,T,,M,0.41,N,0.8,K,A*0F
$GPGGA,225639.000,3748.7991,N,12217.8566,W,1,05,2.5,-4.6,M,-25.1,M,,0000*45
$GPGSA,A,3,27,15,26,17,28,,,,,,,,4.0,2.5,3.2*39
$GPRMC,225639.000,A,3748.7991,N,12217.8566,W,0.73,238.54,150710,,,A*7F
$GPVTG,238.54,T,,M,0.73,N,1.4,K,A*04
$GPGGA,225640.000,3748.7988,N,12217.8569,W,1,05,2.5,-5.2,M,-25.1,M,,0000*49
$GPGSA,A,3,27,15,26,17,28,,,,,,,,4.0,2.5,3.2*39
$GPRMC,225640.000,A,3748.7988,N,12217.8569,W,0.24,233.60,150710,,,A*78
$GPVTG,233.60,T,,M,0.24,N,0.5,K,A*0A
$GPGGA,225641.000,3748.7987,N,12217.8569,W,1,05,2.5,-5.5,M,-25.1,M,,0000*40
$GPGSA,A,3,27,15,26,17,28,,,,,,,,4.0,2.5,3.2*39
$GPRMC,225641.000,A,3748.7987,N,12217.8569,W,0.07,130.92,150710,,,A*7A
$GPVTG,130.92,T,,M,0.07,N,0.1,K,A*02
$GPGGA,225642.000,3748.7986,N,12217.8570,W,1,05,2.5,-5.8,M,-25.1,M,,0000*47
$GPGSA,A,3,27,15,26,17,28,,,,,,,,4.1,2.5,3.2*38
$GPRMC,225642.000,A,3748.7986,N,12217.8570,W,0.05,229.37,150710,,,A*76
$GPVTG,229.37,T,,M,0.05,N,0.1,K,A*04
$GPGGA,225643.000,3748.7984,N,12217.8573,W,1,05,2.5,-6.1,M,-25.1,M,,0000*4D
$GPGSA,A,3,27,15,26,17,28,,,,,,,,4.1,2.5,3.2*38
$GPGSV,3,1,09,28,64,022,28,17,62,180,28,08,57,100,25,26,47,287,37*73
$GPGSV,3,2,09,15,33,300,35,11,26,077,21,07,22,119,19,27,11,310,30*75
$GPGSV,3,3,09,48,46,187,29*4B
$GPRMC,225643.000,A,3748.7984,N,12217.8573,W,0.29,284.63,150710,,,A*7E
$GPVTG,284.63,T,,M,0.29,N,0.5,K,A*08
$GPGGA,225644.000,3748.7982,N,12217.8576,W,1,05,2.5,-6.3,M,-25.1,M,,0000*4B
$GPGSA,A,3,27,15,26,17,28,,,,,,,,4.1,2.5,3.2*38
$GPRMC,225644.000,A,3748.7982,N,12217.8576,W,0.26,272.11,150710,,,A*79
$GPVTG,272.11,T,,M,0.26,N,0.5,K,A*0B
$GPGGA,225645.000,3748.7988,N,12217.8581,W,1,05,2.5,-5.4,M,-25.1,M,,0000*4C
$GPGSA,A,3,27,15,26,17,28,,,,,,,,4.1,2.5,3.2*38
$GPRMC,225645.000,A,3748.7988,N,12217.8581,W,0.64,330.76,150710,,,A*7A
$GPVTG,330.76,T,,M,0.64,N,1.2,K,A*0D
$GPGGA,225646.000,3748.7988,N,12217.8584,W,1,05,2.5,-5.2,M,-25.1,M,,0000*4C
$GPGSA,A,3,27,15,26,17,28,,,,,,,,4.1,2.5,3.2*38
$GPRMC,225646.000,A,3748.7988,N,12217.8584,W,0.24,295.55,150710,,,A*77
$GPVTG,295.55,T,,M,0.24,N,0.4,K,A*01
$GPGGA,225647.000,3748.7985,N,12217.8587,W,1,05,2.5,-5.6,M,-25.1,M,,0000*47
$GPGSA,A,3,27,15,26,17,28,,,,,,,,4.1,2.5,3.2*38
$GPRMC,225647.000,A,3748.7985,N,12217.8587,W,0.28,250.59,150710,,,A*71
$GPVTG,250.59,T,,M,0.28,N,0.5,K,A*09
$GPGGA,225648.000,3748.7986,N,12217.8597,W,1,05,2.5,-5.2,M,-25.1,M,,0000*4E
$GPGSA,A,3,27,15,26,17,28,,,,,,,,4.1,2.5,3.2*38
$GPGSV,3,1,09,28,64,023,23,17,62,180,29,08,56,100,25,26,47,287,37*79
$GPGSV,3,2,09,15,33,300,39,11,26,077,21,07,22,119,26,27,11,310,35*70
$GPGSV,3,3,09,48,46,187,26*44
$GPRMC,225648.000,A,3748.7986,N,12217.8597,W,0.70,247.37,150710,,,A*7F
$GPVTG,247.37,T,,M,0.70,N,1.3,K,A*0D
$GPGGA,225649.000,3748.7988,N,12217.8604,W,1,05,2.5,-4.6,M,-25.1,M,,0000*4D
$GPGSA,A,3,27,15,26,17,28,,,,,,,,4.1,2.5,3.2*38
$GPRMC,225649.000,A,3748.7988,N,12217.8604,W,1.21,243.01,150710,,,A*7D
$GPVTG,243.01,T,,M,1.21,N,2.2,K,A*0B
$GPGGA,225650.000,3748.7989,N,12217.8610,W,1,05,2.5,-4.0,M,-25.1,M,,0000*47
$GPGSA,A,3,27,15,26,17,28,,,,,,,,4.1,2.5,3.2*38
$GPRMC,225650.000,A,3748.7989,N,12217.8610,W,0.82,248.95,150710,,,A*7F
$GPVTG,248.95,T,,M,0.82,N,1.5,K,A*01
$GPGGA,225651.000,3748.7993,N,12217.8611,W,1,05,2.5,-3.5,M,-25.1,M,,0000*4E
$GPGSA,A,3,27,15,26,17,28,,,,,,,,4.1,2.5,3.2*38
$GPRMC,225651.000,A,3748.7993,N,12217.8611,W,0.21,297.84,150710,,,A*7F
$GPVTG,297.84,T,,M,0.21,N,0.4,K,A*0A
$GPGGA,225652.000,3748.7992,N,12217.8615,W,1,05,2.5,-3.3,M,-25.1,M,,0000*4E
$GPGSA,A,3,27,15,26,17,28,,,,,,,,4.1,2.5,3.2*38
$GPRMC,225652.000,A,3748.7992,N,12217.8615,W,0.36,243.15,150710,,,A*7E
$GPVTG,243.15,T,,M,0.36,N,0.7,K,A*0E
$GPGGA,225653.000,3748.7997,N,12217.8612,W,1,05,2.5,-2.8,M,-25.1,M,,0000*47
$GPGSA,A,3,27,15,26,17,28,,,,,,,,4.1,2.5,3.2*38
$GPGSV,3,1,09,28,64,023,30,17,62,180,28,08,56,100,25,26,47,287,37*7A
$GPGSV,3,2,09,15,33,300,39,11,26,077,19,07,22,119,17,27,11,310,34*78
$GPGSV,3,3,09,48,46,187,30*43
$GPVTG,328.64,T,,M,0.33,N,0.6,K,A*00
$GPGGA,225654.000,3748.7996,N,12217.8614,W,1,05,2.5,-2.8,M,-25.1,M,,0000*47
$GPGSA,A,3,27,15,26,17,28,,,,,,,,4.1,2.5,3.2*38
$GPRMC,225654.000,A,3748.7996,N,12217.8614,W,0.43,273.30,150710,,,A*7B
$GPVTG,273.30,T,,M,0.43,N,0.8,K,A*07
$GPGGA,225655.000,3748.7996,N,12217.8615,W,1,05,2.5,-2.7,M,-25.1,M,,0000*48
$GPGSA,A,3,27,15,26,17,28,,,,,,,,4.1,2.5,3.2*38
$GPRMC,225655.000,A,3748.7996,N,12217.8615,W,0.47,234.21,150710,,,A*7C
$GPVTG,234.21,T,,M,0.47,N,0.9,K,A*01
$GPGGA,225656.000,3748.7995,N,12217.8620,W,1,05,2.5,-2.1,M,-25.1,M,,0000*48
$GPGSA,A,3,27,15,26,17,28,,,,,,,,4.1,2.5,3.2*38
$GPRMC,225656.000,A,3748.7995,N,12217.8620,W,1.14,253.09,150710,,,A*76
$GPVTG,253.09,T,,M,1.14,N,2.1,K,A*07
$GPGGA,225657.000,3748.7994,N,12217.8625,W,1,05,2.5,-1.3,M,-25.1,M,,0000*4C
$GPGSA,A,3,27,15,26,17,28,,,,,,,,4.1,2.5,3.2*38
$GPRMC,225657.000,A,3748.7994,N,12217.8625,W,0.84,237.24,150710,,,A*76
$GPVTG,237.24,T,,M,0.84,N,1.6,K,A*06
$GPGGA,225658.000,3748.7992,N,12217.8632,W,1,05,2.5,-0.5,M,-25.1,M,,0000*44
$GPGSA,A,3,27,15,26,17,28,,,,,,,,4.1,2.5,3.2*38
$GPGSV,3,1,09,28,64,023,23,17,62,180,28,08,56,100,21,26,47,287,37*7C
$GPGSV,3,2,09,15,33,300,36,11,26,077,19,07,22,119,18,27,11,310,34*78
$GPGSV,3,3,09,48,46,187,27*45
$GPRMC,225658.000,A,3748.7992,N,12217.8632,W,1.29,242.56,150710,,,A*78
$GPVTG,242.56,T,,M,1.29,N,2.4,K,A*06
$GPGGA,225659.000,3748.7996,N,12217.8632,W,1,05,2.5,0.7,M,-25.1,M,,0000*6E
$GPGSA,A,3,27,15,26,17,28,,,,,,,,4.1,2.5,3.2*38
$GPRMC,225659.000,A,3748.7996,N,12217.8632,W,0.75,248.88,150710,,,A*7C
$GPVTG,248.88,T,,M,0.75,N,1.4,K,A*04
$GPGGA,225700.000,3748.7998,N,12217.8633,W,1,05,2.5,1.8,M,-25.1,M,,0000*62
$GPGSA,A,3,27,15,26,17,28,,,,,,,,4.1,2.5,3.2*38
$GPRMC,225700.000,A,3748.7998,N,12217.8633,W,0.27,331.03,150710,,,A*75
$GPVTG,331.03,T,,M,0.27,N,0.5,K,A*0F
$GPGGA,225701.000,3748.8001,N,12217.8633,W,1,04,8.5,2.6,M,-25.1,M,,0000*63
$GPGSA,A,3,27,15,26,17,,,,,,,,,8.6,8.5,1.0*33
$GPRMC,225701.000,A,3748.8001,N,12217.8633,W,0.81,37.63,150710,,,A*4D
$GPVTG,37.63,T,,M,0.81,N,1.5,K,A*31
$GPGGA,225702.000,3748.8018,N,12217.8614,W,1,05,2.5,5.0,M,-25.1,M,,0000*67
$GPGSA,A,3,27,15,26,17,28,,,,,,,,4.1,2.5,3.2*38
$GPRMC,225702.000,A,3748.8018,N,12217.8614,W,3.44,46.72,150710,,,A*4F
$GPVTG,46.72,T,,M,3.44,N,6.4,K,A*3B
$GPGGA,225703.000,3748.8033,N,12217.8599,W,1,05,2.5,7.0,M,-25.1,M,,0000*6B
$GPGSA,A,3,27,15,26,17,28,,,,,,,,4.1,2.5,3.2*38
$GPGSV,3,1,09,28,64,023,18,17,62,180,30,08,56,100,22,26,47,287,38*71
$GPGSV,3,2,09,15,33,300,37,11,26,077,16,07,22,119,18,27,11,310,34*76
$GPGSV,3,3,09,48,46,187,31*42
$GPRMC,225703.000,A,3748.8033,N,12217.8599,W,3.44,45.21,150710,,,A*44
$GPVTG,45.21,T,,M,3.44,N,6.4,K,A*3E
$GPGGA,225704.000,3748.8039,N,12217.8594,W,1,04,8.5,8.1,M,-25.1,M,,0000*6E
$GPGSA,A,3,27,15,26,17,,,,,,,,,8.6,8.5,1.0*33
$GPRMC,225704.000,A,3748.8039,N,12217.8594,W,2.53,42.72,150710,,,A*42
$GPVTG,42.72,T,,M,2.53,N,4.7,K,A*39
$GPGGA,225705.000,3748.8045,N,12217.8590,W,1,04,8.5,9.2,M,-25.1,M,,0000*62
$GPGSA,A,3,27,15,26,17,,,,,,,,,8.6,8.5,1.0*33
$GPRMC,225705.000,A,3748.8045,N,12217.8590,W,2.55,43.01,150710,,,A*4F
$GPVTG,43.01,T,,M,2.55,N,4.7,K,A*3A
$GPGGA,225706.000,3748.8056,N,12217.8581,W,1,05,2.5,11.0,M,-25.1,M,,0000*53
$GPGSA,A,3,27,15,26,17,28,,,,,,,,4.1,2.5,3.2*38
$GPRMC,225706.000,A,3748.8056,N,12217.8581,W,2.04,38.80,150710,,,A*4F
$GPVTG,38.80,T,,M,2.04,N,3.8,K,A*33
$GPGGA,225707.000,3748.8059,N,12217.8580,W,1,04,8.5,11.9,M,-25.1,M,,0000*5E
$GPGSA,A,3,27,15,26,17,,,,,,,,,8.5,8.5,1.0*30
$GPRMC,225707.000,A,3748.8059,N,12217.8580,W,1.18,28.23,150710,,,A*46
$GPVTG,28.23,T,,M,1.18,N,2.2,K,A*3E
$GPGGA,225708.000,3748.8060,N,12217.8582,W,1,04,8.5,12.7,M,-25.1,M,,0000*54
$GPGSA,A,3,27,15,26,17,,,,,,,,,8.5,8.5,1.0*30
$GPGSV,3,1,09,28,64,023,18,17,62,180,30,08,56,100,24,26,47,287,39*76
$GPGSV,3,2,09,15,33,300,38,11,26,077,20,07,22,119,20,27,11,310,33*70
$GPGSV,3,3,09,48,46,187,32*41
$GPRMC,225708.000,A,3748.8060,N,12217.8582,W,0.49,338.22,150710,,,A*77
$GPVTG,338.22,T,,M,0.49,N,0.9,K,A*01
$GPGGA,225709.000,3748.8058,N,12217.8590,W,1,05,2.5,13.4,M,-25.1,M,,0000*54
$GPGSA,A,3,27,15,26,17,28,,,,,,,,4.1,2.5,3.2*38
$GPRMC,225709.000,A,3748.8058,N,12217.8590,W,0.71,267.90,150710,,,A*77
$GPVTG,267.90,T,,M,0.71,N,1.3,K,A*03
$GPGGA,225710.000,3748.8054,N,12217.8599,W,1,05,2.5,13.9,M,-25.1,M,,0000*54
$GPGSA,A,3,27,15,26,17,28,,,,,,,,4.1,2.5,3.2*38
$GPRMC,225710.000,A,3748.8054,N,12217.8599,W,1.11,249.89,150710,,,A*79
$GPVTG,249.89,T,,M,1.11,N,2.1,K,A*01
$GPGGA,225711.000,3748.8050,N,12217.8606,W,1,05,2.5,14.4,M,-25.1,M,,0000*5E
$GPGSA,A,3,27,15,26,17,28,,,,,,,,4.1,2.5,3.2*38
$GPRMC,225711.000,A,3748.8050,N,12217.8606,W,0.53,260.79,150710,,,A*7A
$GPVTG,260.79,T,,M,0.53,N,1.0,K,A*00
$GPGGA,225712.000,3748.8032,N,12217.8631,W,1,05,2.5,13.4,M,-25.1,M,,0000*5A
$GPGSA,A,3,27,15,26,17,28,,,,,,,,4.1,2.5,3.2*38
$GPRMC,225712.000,A,3748.8032,N,12217.8631,W,1.05,243.93,150710,,,A*7E
$GPVTG,243.93,T,,M,1.05,N,1.9,K,A*0E
$GPGGA,225713.000,3748.8027,N,12217.8645,W,1,05,2.5,13.6,M,-25.1,M,,0000*5E
$GPGSA,A,3,27,15,26,17,28,,,,,,,,4.1,2.5,3.2*38
$GPGSV,3,1,09,28,64,023,24,17,62,180,30,08,56,100,24,26,47,287,31*71
$GPGSV,3,2,09,15,33,300,20,11,26,077,24,07,22,119,20,27,11,310,24*7B
$GPGSV,3,3,09,48,46,187,36*45
$GPRMC,225713.000,A,3748.8027,N,12217.8645,W,1.06,251.02,150710,,,A*70
$GPVTG,251.02,T,,M,1.06,N,2.0,K,A*0C
$GPGGA,225714.000,3748.8012,N,12217.8668,W,1,05,2.5,12.6,M,-25.1,M,,0000*51
$GPGSA,A,3,27,15,26,17,28,,,,,,,,4.1,2.5,3.3*39
$GPRMC,225714.000,A,3748.8012,N,12217.8668,W,0.87,242.84,150710,,,A*7A
$GPVTG,242.84,T,,M,0.87,N,1.6,K,A*0D
$GPGGA,225715.000,3748.8017,N,12217.8662,W,2,05,2.5,12.2,M,-25.1,M,,0000*58
$GPGSA,A,3,27,15,26,17,28,,,,,,,,4.1,2.5,3.3*39
$GPRMC,225715.000,A,3748.8017,N,12217.8662,W,0.42,338.51,150710,,,D*7C
$GPVTG,338.51,T,,M,0.42,N,0.8,K,D*0A
$GPGGA,225716.000,3748.8012,N,12217.8671,W,2,05,2.5,11.1,M,-25.1,M,,0000*5C
$GPGSA,A,3,27,15,26,17,28,,,,,,,,4.1,2.5,3.3*39
$GPRMC,225716.000,A,3748.8012,N,12217.8671,W,0.46,317.37,150710,,,D*71
$GPVTG,317.37,T,,M,0.46,N,0.9,K,D*02
$GPGGA,225717.000,3748.8008,N,12217.8674,W,2,05,2.5,9.9,M,-25.1,M,,0000*62
$GPGSA,A,3,27,15,26,17,28,,,,,,,,4.1,2.5,3.3*39
$GPRMC,225717.000,A,3748.8008,N,12217.8674,W,0.33,211.46,150710,,,D*7D
$GPVTG,211.46,T,,M,0.33,N,0.6,K,D*0E
$GPGGA,225718.000,3748.8005,N,12217.8669,W,2,04,8.4,8.3,M,-25.1,M,,0000*6D
$GPGSA,A,3,27,15,26,17,,,,,,,,,8.4,8.4,1.0*30
$GPGSV,3,1,09,28,64,023,17,17,62,180,30,08,56,100,24,26,47,287,23*72
$GPGSV,3,2,09,15,33,300,32,11,26,077,22,07,22,119,20,27,11,310,30*7B
$GPGSV,3,3,09,48,46,187,31*42
$GPVTG,179.54,T,,M,0.87,N,1.6,K,D*0E
$GPGGA,225719.000,3748.8000,N,12217.8667,W,2,04,8.4,7.1,M,-25.1,M,2.8,0000*4E
$GPGSA,A,3,27,15,26,17,,,,,,,,,8.4,8.4,1.0*30
$GPRMC,225719.000,A,3748.8000,N,12217.8667,W,1.87,205.45,150710,,,D*71
$GPVTG,205.45,T,,M,1.87,N,3.5,K,D*06
$GPGGA,225720.000,3748.7993,N,12217.8669,W,2,04,8.4,6.7,M,-25.1,M,3.8,0000*40
$GPGSA,A,3,27,15,26,17,,,,,,,,,8.4,8.4,1.0*30
$GPRMC,225720.000,A,3748.7993,N,12217.8669,W,2.43,195.58,150710,,,D*74
$GPVTG,195.58,T,,M,2.43,N,4.5,K,D*0C
$GPGGA,225721.000,3748.7983,N,12217.8671,W,2,05,2.5,5.7,M,-25.1,M,4.8,0000*47
$GPGSA,A,3,27,15,26,17,28,,,,,,,,4.1,2.5,3.3*39
$GPRMC,225721.000,A,3748.7983,N,12217.8671,W,1.88,194.05,150710,,,D*70
$GPVTG,194.05,T,,M,1.88,N,3.5,K,D*06
$GPGGA,225722.000,3748.7973,N,12217.8673,W,2,05,2.5,4.5,M,-25.1,M,,0000*68
$GPGSA,A,3,27,15,26,17,28,,,,,,,,4.1,2.5,3.3*39
$GPRMC,225722.000,A,3748.7973,N,12217.8673,W,1.76,183.69,150710,,,D*73
$GPVTG,183.69,T,,M,1.76,N,3.3,K,D*0D
$GPGGA,225723.000,3748.7964,N,12217.8676,W,2,05,2.5,3.9,M,-25.1,M,2.8,0000*45
$GPGSA,A,3,27,15,26,17,28,,,,,,,,4.1,2.5,3.3*39
$GPGSV,3,1,09,28,64,023,30,17,62,180,27,08,56,100,24,26,47,287,36*75
$GPGSV,3,2,09,15,33,300,38,11,26,077,22,07,22,119,23,27,11,310,29*7A
$GPGSV,3,3,09,48,46,187,25*47
$GPRMC,225723.000,A,3748.7964,N,12217.8676,W,2.88,198.58,150710,,,D*7B
$GPVTG,198.58,T,,M,2.88,N,5.3,K,D*01
$GPGGA,225724.000,3748.7954,N,12217.8679,W,2,05,2.5,3.3,M,-25.1,M,3.8,0000*45
$GPGSA,A,3,27,15,26,17,28,,,,,,,,4.1,2.5,3.3*39
$GPRMC,225724.000,A,3748.7954,N,12217.8679,W,3.92,203.12,150710,,,D*75
$GPVTG,203.12,T,,M,3.92,N,7.3,K,D*06
$GPGGA,225725.000,3748.7938,N,12217.8682,W,2,05,2.5,2.0,M,-25.1,M,4.8,0000*4F
$GPGSA,A,3,27,15,26,17,28,,,,,,,,4.1,2.5,3.3*39
$GPRMC,225725.000,A,3748.7938,N,12217.8682,W,3.74,197.83,150710,,,D*74
$GPVTG,197.83,T,,M,3.74,N,6.9,K,D*03
$GPGGA,225726.000,3748.7927,N,12217.8682,W,2,05,2.5,1.2,M,-25.1,M,5.8,0000*42
$GPGSA,A,3,27,15,26,17,28,,,,,,,,4.1,2.5,3.3*39
$GPRMC,225726.000,A,3748.7927,N,12217.8682,W,3.19,192.01,150710,,,D*7D
$GPVTG,192.01,T,,M,3.19,N,5.9,K,D*04
$GPGGA,225727.000,3748.7919,N,12217.8676,W,2,05,2.5,0.5,M,-25.1,M,6.8,0000*40
$GPGSA,A,3,27,15,26,17,28,,,,,,,,4.1,2.5,3.3*39
$GPRMC,225727.000,A,3748.7919,N,12217.8676,W,2.94,190.81,150710,,,D*74
$GPVTG,190.81,T,,M,2.94,N,5.4,K,D*07
$GPGGA,225728.000,3748.7916,N,12217.8673,W,2,05,2.5,0.4,M,-25.1,M,7.8,0000*45
$GPGSA,A,3,27,15,26,17,28,,,,,,,,4.1,2.5,3.3*39
$GPGSV,3,1,09,28,64,023,24,17,62,180,28,08,56,100,23,26,47,287,36*78
$GPGSV,3,2,09,15,33,300,37,11,26,077,28,07,22,119,23,27,11,310,36*71
$GPGSV,3,3,09,48,46,187,30*43
$GPRMC,225728.000,A,3748.7916,N,12217.8673,W,2.05,178.02,150710,,,D*74
$GPVTG,178.02,T,,M,2.05,N,3.8,K,D*08
$GPGGA,225729.000,3748.7913,N,12217.8670,W,2,05,2.5,0.0,M,-25.1,M,8.8,0000*49
$GPGSA,A,3,27,15,26,17,28,,,,,,,,4.1,2.5,3.3*39
$GPRMC,225729.000,A,3748.7913,N,12217.8670,W,1.42,176.58,150710,,,D*72
$GPVTG,176.58,T,,M,1.42,N,2.6,K,D*06
$GPGGA,225730.000,3748.7915,N,12217.8663,W,2,05,2.5,0.0,M,-25.1,M,9.8,0000*44
$GPGSA,A,3,27,15,26,17,28,,,,,,,,4.1,2.5,3.3*39
$GPRMC,225730.000,A,3748.7915,N,12217.8663,W,0.51,112.76,150710,,,D*73
$GPVTG,112.76,T,,M,0.51,N,0.9,K,D*06
$GPGGA,225731.000,3748.7921,N,12217.8654,W,2,05,2.5,0.3,M,-25.1,M,10.8,0000*7D
$GPGSA,A,3,27,15,26,17,28,,,,,,,,4.1,2.5,3.3*39
$GPRMC,225731.000,A,3748.7921,N,12217.8654,W,0.43,82.42,150710,,,D*4D
$GPVTG,82.42,T,,M,0.43,N,0.8,K,D*3B
$GPGGA,225732.000,3748.7927,N,12217.8645,W,2,05,2.5,0.6,M,-25.1,M,11.8,0000*7C
$GPGSA,A,3,27,15,26,17,28,,,,,,,,4.1,2.5,3.3*39
$GPRMC,225732.000,A,3748.7927,N,12217.8645,W,0.05,226.22,150710,,,D*70
$GPVTG,226.22,T,,M,0.05,N,0.1,K,D*0A
$GPGGA,225733.000,3748.7926,N,12217.8645,W,2,05,2.5,0.1,M,-25.1,M,12.8,0000*78
$GPGSA,A,3,27,15,26,17,28,,,,,,,,4.1,2.5,3.3*39
$GPGSV,3,1,09,28,64,023,26,17,62,180,29,08,56,100,23,26,47,287,34*79
$GPGSV,3,2,09,15,33,300,37,11,26,077,24,07,22,119,21,27,11,310,37*7E
$GPGSV,3,3,09,48,46,187,23*41
$GPRMC,225733.000,A,3748.7926,N,12217.8645,W,0.65,250.61,150710,,,D*70
$GPVTG,250.61,T,,M,0.65,N,1.2,K,D*08
$GPGGA,225734.000,3748.7921,N,12217.8648,W,2,05,2.5,-0.5,M,-25.1,M,13.8,0000*5D
$GPGSA,A,3,27,15,26,17,28,,,,,,,,4.1,2.5,3.3*39
$GPRMC,225734.000,A,3748.7921,N,12217.8648,W,1.29,202.08,150710,,,D*7C
$GPVTG,202.08,T,,M,1.29,N,2.4,K,D*0C
$GPGGA,225735.000,3748.7914,N,12217.8652,W,2,05,2.5,-0.8,M,-25.1,M,14.8,0000*5B
$GPGSA,A,3,27,15,26,17,28,,,,,,,,4.1,2.5,3.3*39
$GPRMC,225735.000,A,3748.7914,N,12217.8652,W,1.31,205.70,150710,,,D*71
$GPVTG,205.70,T,,M,1.31,N,2.4,K,D*0D
$GPGGA,225736.000,3748.7908,N,12217.8656,W,2,05,2.5,-1.7,M,-25.1,M,15.8,0000*5E
$GPGSA,A,3,27,15,26,17,28,,,,,,,,4.1,2.5,3.3*39
$GPRMC,225736.000,A,3748.7908,N,12217.8656,W,0.60,230.08,150710,,,D*77
$GPVTG,230.08,T,,M,0.60,N,1.1,K,D*07
$GPGGA,225737.000,3748.7906,N,12217.8660,W,2,05,2.5,-2.2,M,-25.1,M,16.8,0000*51
$GPGSA,A,3,27,15,26,17,28,,,,,,,,4.1,2.5,3.3*39
$GPRMC,225737.000,A,3748.7906,N,12217.8660,W,0.34,259.95,150710,,,D*77
$GPVTG,259.95,T,,M,0.34,N,0.6,K,D*0B
$GPGGA,225738.000,3748.7912,N,12217.8655,W,2,05,2.5,-2.0,M,-25.1,M,17.8,0000*5E
$GPGSA,A,3,27,15,26,17,28,,,,,,,,4.1,2.5,3.3*39
$GPGSV,2,1,08,28,64,023,27,17,62,180,20,08,56,100,28,26,47,287,35*7B
$GPGSV,2,2,08,15,33,300,37,11,26,077,29,07,22,119,21,27,11,310,35*71
$GPRMC,225738.000,A,3748.7912,N,12217.8655,W,0.80,9.88,150710,,,D*7F
$GPVTG,9.88,T,,M,0.80,N,1.5,K,D*0D
$GPGGA,225739.000,3748.7912,N,12217.8654,W,1,05,2.5,-2.1,M,-25.1,M,,0000*4C
$GPGSA,A,3,27,15,26,17,28,,,,,,,,4.1,2.5,3.3*39
$GPRMC,225739.000,A,3748.7912,N,12217.8654,W,0.41,36.83,150710,,,A*40
$GPVTG,36.83,T,,M,0.41,N,0.8,K,A*3E
$GPGGA,225740.000,3748.7919,N,12217.8650,W,1,05,2.5,-2.2,M,-25.1,M,,0000*4E
$GPGSA,A,3,27,15,26,17,28,,,,,,,,4.1,2.5,3.3*39
$GPRMC,225740.000,A,3748.7919,N,12217.8650,W,0.48,36.91,150710,,,A*4B
$GPVTG,36.91,T,,M,0.48,N,0.9,K,A*35
$GPGGA,225741.000,3748.7928,N,12217.8646,W,1,05,2.5,-1.7,M,-25.1,M,,0000*4C
$GPGSA,A,3,27,15,26,17,28,,,,,,,,4.1,2.5,3.3*39
$GPRMC,225741.000,A,3748.7928,N,12217.8646,W,1.12,29.31,150710,,,A*45
$GPVTG,29.31,T,,M,1.12,N,2.1,K,A*35
$GPGGA,225742.000,3748.7923,N,12217.8644,W,1,05,2.5,-1.4,M,-25.1,M,,0000*45
$GPGSA,A,3,27,15,26,17,28,,,,,,,,4.1,2.5,3.3*39
$GPRMC,225742.000,A,3748.7923,N,12217.8644,W,0.58,202.28,150710,,,A*73
$GPVTG,202.28,T,,M,0.58,N,1.1,K,A*0A
$GPGGA,225743.000,3748.7914,N,12217.8648,W,1,05,2.5,-0.5,M,-25.1,M,,0000*4C
$GPGSA,A,3,27,15,26,17,28,,,,,,,,4.1,2.5,3.3*39
$GPGSV,2,1,08,28,64,023,21,17,62,180,30,08,56,100,27,26,47,287,25*72
$GPGSV,2,2,08,15,33,300,26,11,26,077,23,07,22,119,32,27,11,310,23*7E
$GPVTG,210.74,T,,M,1.20,N,2.2,K,A*0E
$GPGGA,225744.000,3748.7911,N,12217.8654,W,1,05,2.5,1.2,M,-25.1,M,,0000*68
$GPGSA,A,3,27,15,26,17,28,,,,,,,,4.1,2.5,3.3*39
$GPRMC,225744.000,A,3748.7911,N,12217.8654,W,1.01,220.13,150710,,,A*70
$GPVTG,220.13,T,,M,1.01,N,1.9,K,A*07
$GPGGA,225745.000,3748.7914,N,12217.8656,W,1,05,2.5,2.7,M,-25.1,M,,0000*68
$GPGSA,A,3,27,15,26,17,28,,,,,,,,4.1,2.5,3.3*39
$GPRMC,225745.000,A,3748.7914,N,12217.8656,W,0.72,273.75,150710,,,A*75
$GPVTG,273.75,T,,M,0.72,N,1.3,K,A*0E
$GPGGA,225746.000,3748.7919,N,12217.8652,W,1,05,2.5,3.8,M,-25.1,M,,0000*6C
$GPGSA,A,3,27,15,26,17,28,,,,,,,,4.1,2.5,3.3*39
$GPRMC,225746.000,A,3748.7919,N,12217.8652,W,0.69,305.73,150710,,,A*73
$GPVTG,305.73,T,,M,0.69,N,1.3,K,A*02
$GPGGA,225747.000,3748.7924,N,12217.8650,W,1,05,2.5,4.4,M,-25.1,M,,0000*6A
$GPGSA,A,3,27,15,26,17,28,,,,,,,,4.1,2.5,3.3*39
$GPRMC,225747.000,A,3748.7924,N,12217.8650,W,1.04,294.69,150710,,,A*76
$GPVTG,294.69,T,,M,1.04,N,1.9,K,A*00
$GPGGA,225748.000,3748.7923,N,12217.8650,W,1,05,2.5,4.5,M,-25.1,M,,0000*63
$GPGSA,A,3,27,15,26,17,28,,,,,,,,4.1,2.5,3.3*39
$GPGSV,2,1,08,28,64,023,25,17,62,180,31,08,56,100,22,26,47,287,16*72
$GPGSV,2,2,08,15,33,300,19,11,26,077,28,07,22,119,19,27,11,310,27*74
$GPRMC,225748.000,A,3748.7923,N,12217.8650,W,0.37,11.97,150710,,,A*41
$GPVTG,11.97,T,,M,0.37,N,0.7,K,A*30
$GPGGA,225749.000,3748.7922,N,12217.8645,W,1,05,2.5,4.1,M,-25.1,M,,0000*63
$GPGSA,A,3,27,15,26,17,28,,,,,,,,4.1,2.5,3.3*39
$GPRMC,225749.000,A,3748.7922,N,12217.8645,W,0.15,302.67,150710,,,A*7B
$GPVTG,302.67,T,,M,0.15,N,0.3,K,A*0A
$GPGGA,225750.000,3748.7921,N,12217.8652,W,1,04,3.3,4.9,M,-25.1,M,,0000*60
$GPGSA,A,3,27,15,17,28,,,,,,,,,5.7,3.3,4.7*3E
$GPRMC,225750.000,A,3748.7921,N,12217.8652,W,0.46,268.80,150710,,,A*74
$GPVTG,268.80,T,,M,0.46,N,0.8,K,A*03
$GPGGA,225751.000,3748.7918,N,12217.8646,W,1,04,2.7,4.0,M,-25.1,M,,0000*62
$GPGSA,A,3,27,26,17,28,,,,,,,,,4.4,2.7,3.4*3D
$GPRMC,225751.000,A,3748.7918,N,12217.8646,W,0.59,263.70,150710,,,A*70
$GPVTG,263.70,T,,M,0.59,N,1.1,K,A*01
$GPGGA,225752.000,3748.7920,N,12217.8645,W,1,05,2.5,3.0,M,-25.1,M,,0000*6D
$GPGSA,A,3,27,15,26,17,28,,,,,,,,4.1,2.5,3.3*39
$GPRMC,225752.000,A,3748.7920,N,12217.8645,W,0.70,263.89,150710,,,A*76
$GPVTG,263.89,T,,M,0.70,N,1.3,K,A*0E
$GPGGA,225753.000,3748.7919,N,12217.8662,W,1,05,2.5,5.1,M,-25.1,M,,0000*64
$GPGSA,A,3,27,15,26,17,28,,,,,,,,4.1,2.5,3.3*39
$GPGSV,2,1,08,28,64,023,26,17,62,180,32,08,56,100,30,26,47,287,21*75
$GPGSV,2,2,08,15,33,300,26,11,26,077,24,07,22,119,28,27,11,310,14*76
$GPVTG,276.46,T,,M,0.44,N,0.8,K,A*04
$GPGGA,225754.000,3748.7916,N,12217.8675,W,1,05,2.5,7.4,M,-25.1,M,,0000*6D
$GPGSA,A,3,27,15,26,17,28,,,,,,,,4.1,2.5,3.3*39
$GPRMC,225754.000,A,3748.7916,N,12217.8675,W,0.14,274.22,150710,,,A*73
$GPVTG,274.22,T,,M,0.14,N,0.3,K,A*0A
$GPGGA,225755.000,3748.7911,N,12217.8681,W,1,05,2.5,8.1,M,-25.1,M,,0000*6A
$GPGSA,A,3,27,15,26,17,28,,,,,,,,4.1,2.5,3.3*39
$GPRMC,225755.000,A,3748.7911,N,12217.8681,W,0.22,125.91,150710,,,A*74
$GPVTG,125.91,T,,M,0.22,N,0.4,K,A*07
$GPGGA,225756.000,3748.7910,N,12217.8696,W,1,05,2.5,11.2,M,-25.1,M,,0000*55
$GPGSA,A,3,27,15,26,17,28,,,,,,,,4.1,2.5,3.3*39
$GPRMC,225756.000,A,3748.7910,N,12217.8696,W,0.79,287.10,150710,,,A*7C
$GPVTG,287.10,T,,M,0.79,N,1.5,K,A*0B
$GPGGA,225757.000,3748.7910,N,12217.8705,W,1,05,2.5,12.3,M,-25.1,M,,0000*5D
$GPGSA,A,3,27,15,26,17,28,,,,,,,,4.1,2.5,3.3*39
$GPRMC,225757.000,A,3748.7910,N,12217.8705,W,0.74,355.09,150710,,,A*7D
$GPVTG,355.09,T,,M,0.74,N,1.4,K,A*01
$GPGGA,225758.000,3748.7916,N,12217.8708,W,1,05,2.5,14.5,M,-25.1,M,,0000*59
$GPGSA,A,3,27,15,26,17,28,,,,,,,,4.1,2.5,3.3*39
$GPGSV,2,1,08,28,64,023,24,17,62,180,32,08,56,100,26,26,47,287,36*76
$GPGSV,2,2,08,15,33,300,36,11,26,077,32,07,22,119,28,27,11,310,22*75
$GPRMC,225758.000,A,3748.7916,N,12217.8708,W,0.58,356.53,150710,,,A*7B
$GPVTG,356.53,T,,M,0.58,N,1.1,K,A*06
$GPGGA,225759.000,3748.7917,N,12217.8712,W,1,05,2.5,15.5,M,-25.1,M,,0000*53
$GPGSA,A,3,27,15,26,17,28,,,,,,,,4.1,2.5,3.3*39
$GPRMC,225759.000,A,3748.7917,N,12217.8712,W,0.49,303.09,150710,,,A*7F
$GPVTG,303.09,T,,M,0.49,N,0.9,K,A*00
$GPGGA,225800.000,3748.7915,N,12217.8714,W,1,05,2.5,15.0,M,-25.1,M,,0000*51
$GPGSA,A,3,27,15,26,17,28,,,,,,,,4.1,2.5,3.3*39
$GPRMC,225800.000,A,3748.7915,N,12217.8714,W,0.67,321.11,150710,,,A*7D
$GPVTG,321.11,T,,M,0.67,N,1.2,K,A*0F
$GPGGA,225801.000,3748.7911,N,12217.8713,W,1,05,2.5,14.0,M,-25.1,M,,0000*52
$GPGSA,A,3,27,15,26,17,28,,,,,,,,4.1,2.5,3.3*39
$GPRMC,225801.000,A,3748.7911,N,12217.8713,W,0.34,297.07,150710,,,A*72
$GPVTG,297.07,T,,M,0.34,N,0.6,K,A*07
$GPGGA,225802.000,3748.7909,N,12217.8712,W,1,05,2.5,13.3,M,-25.1,M,,0000*5D
$GPGSA,A,3,27,15,26,17,28,,,,,,,,4.1,2.5,3.3*39
$GPRMC,225802.000,A,3748.7909,N,12217.8712,W,0.28,252.45,150710,,,A*7B
$GPVTG,252.45,T,,M,0.28,N,0.5,K,A*06
$GPGGA,225803.000,3748.7913,N,12217.8711,W,1,05,2.5,13.2,M,-25.1,M,,0000*55
$GPGSA,A,3,27,15,26,17,28,,,,,,,,4.1,2.5,3.3*39
$GPGSV,2,1,08,28,64,023,29,17,62,180,24,08,56,100,26,26,47,287,37*7D
$GPGSV,2,2,08,15,33,300,37,11,26,077,28,07,22,119,16,27,11,310,34*75
$GPVTG,259.88,T,,M,0.27,N,0.5,K,A*03
$GPGGA,225804.000,3748.7909,N,12217.8708,W,1,05,2.5,12.2,M,-25.1,M,,0000*50
$GPGSA,A,3,27,15,26,17,28,,,,,,,,4.1,2.5,3.3*39
$GPRMC,225804.000,A,3748.7909,N,12217.8708,W,0.38,318.85,150710,,,A*74
$GPVTG,318.85,T,,M,0.38,N,0.7,K,A*06
$GPGGA,225805.000,3748.7902,N,12217.8705,W,1,05,2.5,10.6,M,-25.1,M,,0000*51
$GPGSA,A,3,27,15,26,17,28,,,,,,,,4.1,2.5,3.3*39
$GPRMC,225805.000,A,3748.7902,N,12217.8705,W,0.49,327.64,150710,,,A*76
$GPVTG,327.64,T,,M,0.49,N,0.9,K,A*0D
$GPGGA,225806.000,3748.7900,N,12217.8704,W,1,05,2.5,9.8,M,-25.1,M,,0000*67
$GPGSA,A,3,27,15,26,17,28,,,,,,,,4.1,2.5,3.3*39
$GPRMC,225806.000,A,3748.7900,N,12217.8704,W,0.26,310.02,150710,,,A*7B
$GPVTG,310.02,T,,M,0.26,N,0.5,K,A*0C
$GPGGA,225807.000,3748.7898,N,12217.8704,W,1,05,2.5,9.1,M,-25.1,M,,0000*6F
$GPGSA,A,3,27,15,26,17,28,,,,,,,,4.1,2.5,3.3*39
$GPRMC,225807.000,A,3748.7898,N,12217.8704,W,0.25,107.31,150710,,,A*7D
$GPVTG,107.31,T,,M,0.25,N,0.5,K,A*0B
$GPGGA,225808.000,3748.7898,N,12217.8701,W,1,05,2.5,8.7,M,-25.1,M,,0000*62
$GPGSA,A,3,27,15,26,17,28,,,,,,,,4.1,2.5,3.3*39
$GPGSV,2,1,08,28,64,023,27,17,62,180,29,08,56,100,22,26,47,287,37*7A
$GPGSV,2,2,08,15,33,300,37,11,26,077,23,07,22,119,22,27,11,310,29*75
$GPRMC,225808.000,A,3748.7898,N,12217.8701,W,0.10,216.72,150710,,,A*75
$GPVTG,216.72,T,,M,0.10,N,0.2,K,A*0E
$GPGGA,225809.000,3748.7903,N,12217.8699,W,1,05,2.5,8.8,M,-25.1,M,,0000*6F
$GPGSA,A,3,27,15,26,17,28,,,,,,,,4.1,2.5,3.3*39
$GPRMC,225809.000,A,3748.7903,N,12217.8699,W,0.44,2.83,150710,,,A*7F
$GPVTG,2.83,T,,M,0.44,N,0.8,K,A*0C
$GPGGA,225810.000,3748.7911,N,12217.8698,W,1,05,2.5,9.0,M,-25.1,M,,0000*6C
$GPGSA,A,3,27,15,26,17,28,,,,,,,,4.1,2.5,3.3*39
$GPRMC,225810.000,A,3748.7911,N,12217.8698,W,0.37,323.05,150710,,,A*7F
$GPVTG,323.05,T,,M,0.37,N,0.7,K,A*09
$GPGGA,225811.000,3748.7910,N,12217.8695,W,1,05,2.5,8.3,M,-25.1,M,,0000*63
$GPGSA,A,3,27,15,26,17,28,,,,,,,,4.1,2.5,3.3*39
$GPRMC,225811.000,A,3748.7910,N,12217.8695,W,0.21,317.02,150710,,,A*75
$GPVTG,317.02,T,,M,0.21,N,0.4,K,A*0D
$GPGGA,225812.000,3748.7910,N,12217.8694,W,1,05,2.5,8.0,M,-25.1,M,,0000*62
$GPGSA,A,3,27,15,26,17,28,,,,,,,,4.1,2.5,3.3*39
$GPRMC,225812.000,A,3748.7910,N,12217.8694,W,0.20,260.60,150710,,,A*73
$GPVTG,260.60,T,,M,0.20,N,0.4,K,A*09
$GPGGA,225813.000,3748.7907,N,12217.8698,W,1,05,2.5,7.6,M,-25.1,M,,0000*60
$GPGSA,A,3,27,15,26,17,28,,,,,,,,4.1,2.5,3.3*39
$GPGSV,2,1,08,28,64,023,25,17,62,180,26,08,56,100,20,26,47,287,30*72
$GPGSV,2,2,08,15,33,300,36,11,26,077,29,07,22,119,23,27,11,310,39*7E
$GPVTG,201.51,T,,M,0.92,N,1.7,K,A*07
$GPGGA,225814.000,3748.7904,N,12217.8699,W,1,05,2.5,7.3,M,-25.1,M,,0000*60
$GPGSA,A,3,27,15,26,17,28,,,,,,,,4.1,2.5,3.3*39
$GPRMC,225814.000,A,3748.7904,N,12217.8699,W,0.54,199.12,150710,,,A*7E
$GPVTG,199.12,T,,M,0.54,N,1.0,K,A*0F
$GPGGA,225815.000,3748.7903,N,12217.8702,W,1,05,2.5,7.1,M,-25.1,M,,0000*67
$GPGSA,A,3,27,15,26,17,28,,,,,,,,4.1,2.5,3.3*39
$GPRMC,225815.000,A,3748.7903,N,12217.8702,W,0.37,225.72,150710,,,A*7C
$GPVTG,225.72,T,,M,0.37,N,0.7,K,A*0E
$GPGGA,225816.000,3748.7903,N,12217.8704,W,1,05,2.5,7.1,M,-25.1,M,,0000*62
$GPGSA,A,3,27,15,26,17,28,,,,,,,,4.1,2.5,3.3*39
$GPRMC,225816.000,A,3748.7903,N,12217.8704,W,0.20,233.93,150710,,,A*77
$GPVTG,233.93,T,,M,0.20,N,0.4,K,A*03
$GPGGA,225817.000,3748.7906,N,12217.8697,W,1,05,2.5,7.0,M,-25.1,M,,0000*6C
$GPGSA,A,3,27,15,26,17,28,,,,,,,,4.1,2.5,3.3*39
$GPRMC,225817.000,A,3748.7906,N,12217.8697,W,0.35,30.52,150710,,,A*40
$GPVTG,30.52,T,,M,0.35,N,0.6,K,A*39
$GPGGA,225818.000,3748.7903,N,12217.8693,W,1,05,2.5,6.3,M,-25.1,M,,0000*60
$GPGSA,A,3,27,15,26,17,28,,,,,,,,4.1,2.5,3.3*39
$GPGSV,2,1,08,28,64,023,26,17,62,180,20,08,56,100,25,26,47,287,36*74
$GPGSV,2,2,08,15,33,300,39,11,26,077,25,07,22,119,23,27,11,310,37*73
$GPRMC,225818.000,A,3748.7903,N,12217.8693,W,0.31,16.94,150710,,,A*44
$GPVTG,16.94,T,,M,0.31,N,0.6,K,A*33
$GPGGA,225819.000,3748.7900,N,12217.8703,W,1,05,2.5,6.1,M,-25.1,M,,0000*68
$GPGSA,A,3,27,15,26,17,28,,,,,,,,4.1,2.5,3.3*39
$GPRMC,225819.000,A,3748.7900,N,12217.8703,W,0.95,256.84,150710,,,A*77
$GPVTG,256.84,T,,M,0.95,N,1.8,K,A*05
$GPGGA,225820.000,3748.7892,N,12217.8700,W,1,05,2.5,4.7,M,-25.1,M,,0000*6F
$GPGSA,A,3,27,15,26,17,28,,,,,,,,4.1,2.5,3.3*39
$GPRMC,225820.000,A,3748.7892,N,12217.8700,W,0.96,215.15,150710,,,A*78
$GPVTG,215.15,T,,M,0.96,N,1.8,K,A*09
$GPGGA,225821.000,3748.7881,N,12217.8700,W,1,05,2.5,3.1,M,-25.1,M,,0000*6D
$GPGSA,A,3,27,15,26,17,28,,,,,,,,4.1,2.5,3.3*39
$GPRMC,225821.000,A,3748.7881,N,12217.8700,W,1.23,204.36,150710,,,A*75
$GPVTG,204.36,T,,M,1.23,N,2.3,K,A*0F
$GPGGA,225822.000,3748.7887,N,12217.8705,W,1,05,2.5,4.1,M,-25.1,M,,0000*6A
$GPGSA,A,3,27,15,26,17,28,,,,,,,,4.1,2.5,3.3*39
$GPRMC,225822.000,A,3748.7887,N,12217.8705,W,0.37,241.70,150710,,,A*72
$GPVTG,241.70,T,,M,0.37,N,0.7,K,A*0E
$GPGGA,225823.000,3748.7892,N,12217.8706,W,1,05,2.5,4.7,M,-25.1,M,,0000*6A
$GPGSA,A,3,27,15,26,17,28,,,,,,,,4.1,2.5,3.3*39
$GPGSV,2,1,08,28,64,023,26,17,62,180,26,08,56,100,25,26,47,287,37*73
$GPGSV,2,2,08,15,33,300,39,11,26,077,26,07,22,119,23,27,11,310,36*71
$GPRMC,225823.000,A,3748.7892,N,12217.8706,W,0.15,321.96,150710,,,A*7B
$GPGGA,225824.000,3748.7895,N,12217.8703,W,1,05,2.5,5.0,M,-25.1,M,,0000*69
$GPGSA,A,3,27,15,26,17,28,,,,,,,,4.1,2.5,3.3*39
$GPRMC,225824.000,A,3748.7895,N,12217.8703,W,0.66,74.09,150710,,,A*4F
$GPVTG,74.09,T,,M,0.66,N,1.2,K,A*34
$GPGGA,225825.000,3748.7899,N,12217.8700,W,1,05,2.5,5.3,M,-25.1,M,,0000*64
$GPGSA,A,3,27,15,26,17,28,,,,,,,,4.1,2.5,3.3*39
$GPRMC,225825.000,A,3748.7899,N,12217.8700,W,0.18,20.49,150710,,,A*4D
$GPVTG,20.49,T,,M,0.18,N,0.3,K,A*38
$GPGGA,225826.000,3748.7902,N,12217.8696,W,1,05,2.5,5.6,M,-25.1,M,,0000*6F
$GPGSA,A,3,27,15,26,17,28,,,,,,,,4.1,2.5,3.3*39
$GPRMC,225826.000,A,3748.7902,N,12217.8696,W,0.94,72.69,150710,,,A*42
$GPVTG,72.69,T,,M,0.94,N,1.7,K,A*3C
$GPGGA,225827.000,3748.7887,N,12217.8690,W,1,05,2.5,3.4,M,-25.1,M,,0000*60
$GPGSA,A,3,27,15,26,17,28,,,,,,,,4.1,2.5,3.3*39
$GPRMC,225827.000,A,3748.7887,N,12217.8690,W,1.51,131.03,150710,,,A*7B
$GPVTG,131.03,T,,M,1.51,N,2.8,K,A*02
$GPGGA,225828.000,3748.7879,N,12217.8683,W,1,05,2.5,2.1,M,-25.1,M,,0000*68
$GPGSA,A,3,27,15,26,17,28,,,,,,,,4.1,2.5,3.3*39
$GPGSV,2,1,08,28,64,023,21,17,62,180,23,08,56,100,25,26,47,287,36*70
$GPGSV,2,2,08,15,33,300,40,11,26,077,22,07,22,119,17,27,11,310,37*7D
$GPRMC,225828.000,A,3748.7879,N,12217.8683,W,1.79,152.41,150710,,,A*7E
$GPVTG,152.41,T,,M,1.79,N,3.3,K,A*01
$GPGGA,225829.000,3748.7871,N,12217.8678,W,1,05,2.5,0.9,M,-25.1,M,,0000*6F
$GPGSA,A,3,27,15,26,17,28,,,,,,,,4.1,2.5,3.3*39
$GPRMC,225829.000,A,3748.7871,N,12217.8678,W,1.38,168.61,150710,,,A*7D
$GPVTG,168.61,T,,M,1.38,N,2.6,K,A*0B
$GPGGA,225830.000,3748.7870,N,12217.8675,W,1,05,2.5,0.8,M,-25.1,M,,0000*6A
$GPGSA,A,3,27,15,26,17,28,,,,,,,,4.1,2.5,3.3*39
$GPRMC,225830.000,A,3748.7870,N,12217.8675,W,0.63,165.66,150710,,,A*7C
$GPVTG,165.66,T,,M,0.63,N,1.2,K,A*09
$GPGGA,225831.000,3748.7876,N,12217.8673,W,1,05,2.5,1.3,M,-25.1,M,,0000*61
$GPGSA,A,3,27,15,26,17,28,,,,,,,,4.1,2.5,3.3*39
$GPRMC,225831.000,A,3748.7876,N,12217.8673,W,0.27,152.76,150710,,,A*78
$GPVTG,152.76,T,,M,0.27,N,0.5,K,A*0A
$GPGGA,225832.000,3748.7878,N,12217.8669,W,1,05,2.5,1.3,M,-25.1,M,,0000*67
$GPGSA,A,3,27,15,26,17,28,,,,,,,,4.1,2.5,3.3*39
$GPRMC,225832.000,A,3748.7878,N,12217.8669,W,0.14,60.87,150710,,,A*40
$GPVTG,60.87,T,,M,0.14,N,0.3,K,A*32
$GPGGA,225833.000,3748.7876,N,12217.8663,W,1,05,2.5,0.6,M,-25.1,M,,0000*66
$GPGSA,A,3,27,15,26,17,28,,,,,,,,4.1,2.5,3.3*39
$GPGSV,2,1,08,28,64,023,27,17,62,180,20,08,56,100,25,26,47,287,37*74
$GPGSV,2,2,08,15,33,300,40,11,26,077,24,07,22,119,21,27,11,310,34*7D
$GPRMC,225833.000,A,3748.7876,N,12217.8663,W,0.12,31.80,150710,,,A*40
$GPVTG,31.80,T,,M,0.12,N,0.2,K,A*36
$GPGGA,225834.000,3748.7877,N,12217.8660,W,1,05,2.5,0.4,M,-25.1,M,,0000*61
$GPGSA,A,3,27,15,26,17,28,,,,,,,,4.1,2.5,3.3*39
$GPRMC,225834.000,A,3748.7877,N,12217.8660,W,0.45,186.64,150710,,,A*70
$GPVTG,186.64,T,,M,0.45,N,0.8,K,A*09
$GPGGA,225835.000,3748.7879,N,12217.8658,W,1,05,2.5,0.6,M,-25.1,M,,0000*67
$GPGSA,A,3,27,15,26,17,28,,,,,,,,4.1,2.5,3.3*39
$GPRMC,225835.000,A,3748.7879,N,12217.8658,W,0.10,184.71,150710,,,A*72
$GPVTG,184.71,T,,M,0.10,N,0.2,K,A*05
$GPGGA,225836.000,3748.7882,N,12217.8656,W,1,05,2.5,0.8,M,-25.1,M,,0000*60
$GPGSA,A,3,27,15,26,17,28,,,,,,,,4.1,2.5,3.3*39
$GPRMC,225836.000,A,3748.7882,N,12217.8656,W,0.17,342.55,150710,,,A*72
$GPVTG,342.55,T,,M,0.17,N,0.3,K,A*0D
$GPGGA,225837.000,3748.7889,N,12217.8655,W,1,05,2.5,1.4,M,-25.1,M,,0000*64
$GPGSA,A,3,27,15,26,17,28,,,,,,,,4.1,2.5,3.3*39
$GPRMC,225837.000,A,3748.7889,N,12217.8655,W,0.18,4.77,150710,,,A*75
$GPVTG,4.77,T,,M,0.18,N,0.3,K,A*03
$GPGGA,225838.000,3748.7893,N,12217.8653,W,1,05,2.5,1.8,M,-25.1,M,,0000*6A
$GPGSA,A,3,27,15,26,17,28,,,,,,,,4.1,2.5,3.3*39
$GPGSV,2,1,08,28,64,023,27,17,62,180,28,08,56,100,26,26,47,287,34*7C
$GPGSV,2,2,08,15,33,300,36,11,26,077,20,07,22,119,22,27,11,310,30*7F
$GPRMC,225838.000,A,3748.7893,N,12217.8653,W,0.16,6.68,150710,,,A*75
$GPVTG,6.68,T,,M,0.16,N,0.3,K,A*01
$GPGGA,225839.000,3748.7901,N,12217.8644,W,1,05,2.5,2.6,M,-25.1,M,,0000*6A
$GPGSA,A,3,27,15,26,17,28,,,,,,,,4.1,2.5,3.3*39
$GPRMC,225839.000,A,3748.7901,N,12217.8644,W,0.53,40.44,150710,,,A*45
$GPVTG,40.44,T,,M,0.53,N,1.0,K,A*3E
$GPGGA,225840.000,3748.7908,N,12217.8637,W,1,05,2.5,3.4,M,-25.1,M,,0000*6A
$GPGSA,A,3,27,15,26,17,28,,,,,,,,4.2,2.5,3.3*3A
$GPRMC,225840.000,A,3748.7908,N,12217.8637,W,0.44,37.37,150710,,,A*44
$GPVTG,37.37,T,,M,0.44,N,0.8,K,A*35
$GPGGA,225841.000,3748.7917,N,12217.8629,W,1,05,2.5,4.4,M,-25.1,M,,0000*6D
$GPGSA,A,3,27,15,26,17,28,,,,,,,,4.2,2.5,3.3*3A
$GPRMC,225841.000,A,3748.7917,N,12217.8629,W,0.56,30.85,150710,,,A*49
$GPVTG,30.85,T,,M,0.56,N,1.0,K,A*31
$GPGGA,225842.000,3748.7930,N,12217.8629,W,1,05,2.5,6.2,M,-25.1,M,,0000*6F
$GPGSA,A,3,27,15,26,17,28,,,,,,,,4.2,2.5,3.3*3A
$GPRMC,225842.000,A,3748.7930,N,12217.8629,W,0.51,359.19,150710,,,A*71
$GPVTG,359.19,T,,M,0.51,N,0.9,K,A*07
$GPGGA,225843.000,3748.7938,N,12217.8633,W,1,05,2.5,7.4,M,-25.1,M,,0000*6A
$GPGSA,A,3,27,15,26,17,28,,,,,,,,4.2,2.5,3.3*3A
$GPGSV,2,1,08,28,63,024,32,17,63,180,27,08,56,101,17,26,47,286,34*74
$GPGSV,2,2,08,15,33,299,40,11,26,076,25,07,21,120,18,27,12,310,39*71
$GPRMC,225843.000,A,3748.7938,N,12217.8633,W,0.58,332.45,150710,,,A*7E
$GPVTG,332.45,T,,M,0.58,N,1.1,K,A*03
$GPGGA,225844.000,3748.7942,N,12217.8639,W,1,05,2.5,8.3,M,-25.1,M,,0000*62
$GPGSA,A,3,27,15,26,17,28,,,,,,,,4.2,2.5,3.3*3A
$GPRMC,225844.000,A,3748.7942,N,12217.8639,W,0.63,309.48,150710,,,A*73
$GPVTG,309.48,T,,M,0.63,N,1.2,K,A*0D
$GPGGA,225845.000,3748.7945,N,12217.8645,W,1,05,2.5,9.0,M,-25.1,M,,0000*6D
$GPGSA,A,3,27,15,26,17,28,,,,,,,,4.2,2.5,3.3*3A
$GPRMC,225845.000,A,3748.7945,N,12217.8645,W,0.60,309.16,150710,,,A*76
$GPVTG,309.16,T,,M,0.60,N,1.1,K,A*06
$GPGGA,225846.000,3748.7946,N,12217.8651,W,1,05,2.5,9.5,M,-25.1,M,,0000*6D
$GPGSA,A,3,27,15,26,17,28,,,,,,,,4.2,2.5,3.3*3A
$GPRMC,225846.000,A,3748.7946,N,12217.8651,W,0.54,302.29,150710,,,A*73
$GPVTG,302.29,T,,M,0.54,N,1.0,K,A*07
$GPGGA,225847.000,3748.7945,N,12217.8657,W,1,05,2.5,9.8,M,-25.1,M,,0000*64
$GPGSA,A,3,27,15,26,17,28,,,,,,,,4.2,2.5,3.3*3A
$GPRMC,225847.000,A,3748.7945,N,12217.8657,W,0.52,289.35,150710,,,A*7E
$GPVTG,289.35,T,,M,0.52,N,1.0,K,A*0E
$GPGGA,225848.000,3748.7943,N,12217.8663,W,1,05,2.5,10.0,M,-25.1,M,,0000*5A
$GPGSA,A,3,27,15,26,17,28,,,,,,,,4.2,2.5,3.3*3A
$GPGSV,2,1,08,28,63,024,32,17,63,180,26,08,56,101,23,26,47,286,35*73
$GPGSV,2,2,08,15,33,299,40,11,26,076,25,07,21,120,24,27,12,310,38*7F
$GPRMC,225848.000,A,3748.7943,N,12217.8663,W,0.51,279.96,150710,,,A*75
$GPVTG,279.96,T,,M,0.51,N,0.9,K,A*03
$GPGGA,225849.000,3748.7941,N,12217.8668,W,1,05,2.5,10.1,M,-25.1,M,,0000*53
$GPGSA,A,3,27,15,26,17,28,,,,,,,,4.2,2.5,3.3*3A
$GPRMC,225849.000,A,3748.7941,N,12217.8668,W,0.46,272.05,150710,,,A*7A
$GPVTG,272.05,T,,M,0.46,N,0.8,K,A*05
$GPGGA,225850.000,3748.7939,N,12217.8672,W,1,05,2.5,10.2,M,-25.1,M,,0000*5C
$GPGSA,A,3,27,15,26,17,28,,,,,,,,4.2,2.5,3.4*3D
$GPRMC,225850.000,A,3748.7939,N,12217.8672,W,0.46,286.60,150710,,,A*7E
$GPVTG,286.60,T,,M,0.46,N,0.9,K,A*0C
$GPGGA,225851.000,3748.7938,N,12217.8676,W,1,05,2.5,10.2,M,-25.1,M,,0000*58
$GPGSA,A,3,27,15,26,17,28,,,,,,,,4.2,2.5,3.4*3D
$GPRMC,225851.000,A,3748.7938,N,12217.8676,W,0.36,276.82,150710,,,A*7E
$GPVTG,276.82,T,,M,0.36,N,0.7,K,A*06
$GPGGA,225852.000,3748.7937,N,12217.8679,W,1,05,2.5,10.2,M,-25.1,M,,0000*5B
$GPGSA,A,3,27,15,26,17,28,,,,,,,,4.2,2.5,3.4*3D
$GPRMC,225852.000,A,3748.7937,N,12217.8679,W,0.33,291.40,150710,,,A*7F
$GPVTG,291.40,T,,M,0.33,N,0.6,K,A*05
$GPGGA,225853.000,3748.7935,N,12217.8682,W,1,05,2.5,10.2,M,-25.1,M,,0000*5C
$GPGSA,A,3,27,15,26,17,28,,,,,,,,4.2,2.5,3.4*3D
$GPGSV,2,1,08,28,63,024,31,17,63,180,26,08,56,101,18,26,47,286,36*7B
$GPGSV,2,2,08,15,33,299,40,11,26,076,21,07,21,120,25,27,12,310,38*7A
$GPRMC,225853.000,A,3748.7935,N,12217.8682,W,0.36,266.16,150710,,,A*76
$GPVTG,266.16,T,,M,0.36,N,0.7,K,A*0A
$GPGGA,225854.000,3748.7934,N,12217.8685,W,1,05,2.5,10.1,M,-25.1,M,,0000*5E
$GPGSA,A,3,27,15,26,17,28,,,,,,,,4.2,2.5,3.4*3D
$GPRMC,225854.000,A,3748.7934,N,12217.8685,W,0.30,279.74,150710,,,A*7B
$GPVTG,279.74,T,,M,0.30,N,0.6,K,A*07
$GPGGA,225855.000,3748.7930,N,12217.8690,W,1,05,2.5,9.8,M,-25.1,M,,0000*6E
$GPGSA,A,3,27,15,26,17,28,,,,,,,,4.2,2.5,3.4*3D
$GPRMC,225855.000,A,3748.7930,N,12217.8690,W,0.46,259.57,150710,,,A*78
$GPVTG,259.57,T,,M,0.46,N,0.8,K,A*0B
$GPGGA,225856.000,3748.7930,N,12217.8690,W,1,05,2.5,9.8,M,-25.1,M,,0000*6D
$GPGSA,A,3,27,15,26,17,28,,,,,,,,4.2,2.5,3.4*3D
