$ADVER,3080,2.3
$GPRMC,225621.959,A,3748.8017,N,12217.8595,W,0.02,354.08,150710,,,A*73
$GPGGA,225622.959,3748.8014,N,12217.8594,W,1,03,2.4,3.2,M,-25.1,M,,0000*65
$GPGSA,A,2,17,28,07,,,,,,,,,,2.6,2.4,1.0*3B
$GPRMC,225622.959,A,3748.8014,N,12217.8594,W,0.07,110.65,150710,,,A*7E
$GPVTG,110.65,T,,M,0.07,N,0.1,K,N*07
$GPGGA,225623.959,3748.8011,N,12217.8594,W,1,03,2.4,3.2,M,-25.1,M,,0000*61
$GPGSA,A,2,17,28,07,,,,,,,,,,2.6,2.4,1.0*3B
$GPRMC,225623.959,A,3748.8011,N,12217.8594,W,0.09,123.40,150710,,,A*73
$GPVTG,123.40,T,,M,0.09,N,0.2,K,N*0D
$GPGGA,225624.959,3748.8008,N,12217.8592,W,1,03,2.4,3.2,M,-25.1,M,,0000*68
$GPGSA,A,2,17,28,07,,,,,,,,,,2.6,2.4,1.0*3B
$GPGSV,3,1,09,28,64,022,33,17,62,180,40,07,22,119,33,25,62,112,*7A
$GPGSV,3,2,09,08,57,100,37,26,47,287,36,11,26,077,35,27,11,310,*74
$GPGSV,3,3,09,51,00,000,39*4E
$GPRMC,225624.959,A,3748.8008,N,12217.8592,W,0.07,99.99,150710,,,A*40
$GPVTG,99.99,T,,M,0.07,N,0.1,K,N*34
$GPGGA,225625.959,3748.8006,N,12217.8591,W,1,03,2.4,3.2,M,-25.1,M,,0000*64
$GPGSA,A,2,17,28,07,,,,,,,,,,2.6,2.4,1.0*3B
$GPRMC,225625.959,A,3748.8006,N,12217.8591,W,0.08,108.62,150710,,,A*7E
$GPVTG,108.62,T,,M,0.08,N,0.2,K,N*05
$GPGGA,225626.959,3748.8006,N,12217.8590,W,1,03,2.4,3.2,M,-25.1,M,,0000*66
$GPGSA,A,2,17,28,07,,,,,,,,,,2.6,2.4,1.0*3B
$GPRMC,225626.959,A,3748.8006,N,12217.8590,W,0.08,104.54,150710,,,A*75
$GPVTG,104.54,T,,M,0.08,N,0.1,K,N*0F
$GPGGA,225627.959,3748.8008,N,12217.8608,W,1,04,3.6,-1.4,M,-25.1,M,,0000*46
$GPGSA,A,3,17,28,07,08,,,,,,,,,6.3,3.6,5.3*37
$GPRMC,225627.959,A,3748.8008,N,12217.8608,W,0.18,171.97,150710,,,A*74
$GPVTG,171.97,T,,M,0.18,N,0.3,K,A*0E
$GPGGA,225628.959,3748.8007,N,12217.8607,W,1,04,3.6,-1.2,M,-25.1,M,,0000*4F
$GPGSA,A,3,17,28,07,08,,,,,,,,,6.3,3.6,5.3*37
$GPRMC,225628.959,A,3748.8007,N,12217.8607,W,0.03,127.10,150710,,,A*7D
$GPVTG,127.10,T,,M,0.03,N,0.1,K,A*0A
$GPGGA,225629.959,3748.8007,N,12217.8607,W,1,04,3.6,-1.3,M,-25.1,M,,0000*4F
$GPGSA,A,3,17,28,07,08,,,,,,,,,6.3,3.6,5.3*37
$GPGSV,3,1,09,28,64,022,32,17,62,180,40,08,56,100,36,07,22,119,33*75
$GPGSV,3,2,09,25,62,113,,26,47,287,36,11,26,077,36,27,11,310,24*7E
$GPGSV,3,3,09,51,43,156,39*4B
$GPRMC,225629.959,A,3748.8007,N,12217.8607,W,0.08,122.41,150710,,,A*76
$GPVTG,122.41,T,,M,0.08,N,0.1,K,A*00
$GPGGA,225631.000,3748.8007,N,12217.8606,W,1,04,3.6,-1.3,M,-25.1,M,,0000*42
$GPGSA,A,3,17,28,07,08,,,,,,,,,6.3,3.6,5.3*37
$GPRMC,225631.000,A,3748.8007,N,12217.8606,W,0.10,92.88,150710,,,A*4D
$GPVTG,92.88,T,,M,0.10,N,0.2,K,A*35
$GPGGA,225632.000,3748.8007,N,12217.8606,W,1,04,3.6,-1.4,M,-25.1,M,,0000*46
$GPGSA,A,3,17,28,07,08,,,,,,,,,6.3,3.6,5.3*37
$GPRMC,225632.000,A,3748.8007,N,12217.8606,W,0.06,142.81,150710,,,A*7C
$GPVTG,142.81,T,,M,0.06,N,0.1,K,A*04
$GPGGA,225633.000,3748.8000,N,12217.8602,W,1,04,3.6,1.1,M,-25.1,M,,0000*6C
$GPGSA,A,3,17,28,07,08,,,,,,,,,6.3,3.6,5.2*36
$GPRMC,225633.000,A,3748.8000,N,12217.8602,W,0.28,170.52,150710,,,A*7D
$GPVTG,170.52,T,,M,0.28,N,0.5,K,A*03
$GPGGA,225634.000,3748.8010,N,12217.8619,W,1,04,3.6,-5.7,M,-25.1,M,,0000*4F
$GPGSA,A,3,17,28,07,08,,,,,,,,,6.3,3.6,5.2*36
$GPRMC,225634.000,A,3748.8010,N,12217.8619,W,0.35,148.03,150710,,,A*72
$GPVTG,148.03,T,,M,0.35,N,0.6,K,A*03
$GPGGA,225635.000,3748.8010,N,12217.8615,W,1,03,4.0,-5.7,M,-25.1,M,,0000*44
$GPGSA,A,2,17,07,08,,,,,,,,,,4.1,4.0,1.0*3A
$GPGSV,2,1,08,28,64,022,19,17,62,180,31,08,56,100,22,07,22,119,22*7F
$GPGSV,2,2,08,25,62,113,,26,47,287,34,11,26,077,23,27,11,310,34*79
$GPRMC,225635.000,A,3748.8010,N,12217.8615,W,1.06,77.83,150710,,,A*4B
$GPVTG,77.83,T,,M,1.06,N,2.0,K,N*3C
$GPGGA,225636.000,3748.8013,N,12217.8612,W,1,04,3.6,-5.0,M,-25.1,M,,0000*42
$GPGSA,A,3,17,28,07,08,,,,,,,,,6.3,3.6,5.2*36
$GPRMC,225636.000,A,3748.8013,N,12217.8612,W,0.91,174.64,150710,,,A*78
$GPVTG,174.64,T,,M,0.91,N,1.7,K,A*03
$GPGGA,225637.000,3748.8018,N,12217.8645,W,1,04,3.6,-10.4,M,-25.1,M,,0000*7A
$GPGSA,A,3,17,28,07,08,,,,,,,,,6.3,3.6,5.2*36
$GPRMC,225637.000,A,3748.8018,N,12217.8645,W,3.17,232.79,150710,,,A*70
$GPVTG,232.79,T,,M,3.17,N,5.9,K,A*09
$GPGGA,225638.000,3748.8008,N,12217.8661,W,1,04,3.6,-12.5,M,-25.1,M,,0000*71
$GPGSA,A,3,17,28,07,08,,,,,,,,,6.3,3.6,5.2*36
$GPRMC,225638.000,A,3748.8008,N,12217.8661,W,4.00,230.37,150710,,,A*71
$GPVTG,230.37,T,,M,4.00,N,7.4,K,A*0F
$GPGGA,225639.000,3748.8006,N,12217.8666,W,1,04,3.6,-14.5,M,-25.1,M,,0000*7F
$GPGSA,A,3,17,28,07,08,,,,,,,,,6.3,3.6,5.2*36
$GPRMC,225639.000,A,3748.8006,N,12217.8666,W,1.94,236.19,150710,,,A*7B
$GPVTG,236.19,T,,M,1.94,N,3.6,K,A*0B
$GPGGA,225640.000,3748.7997,N,12217.8657,W,1,04,3.6,-12.0,M,-25.1,M,,0000*7E
$GPGSA,A,3,17,28,07,08,,,,,,,,,6.3,3.6,5.2*36
$GPGSV,3,1,09,28,64,022,24,17,62,180,37,08,56,100,22,07,22,119,25*70
$GPGSV,3,2,09,25,62,113,,26,47,287,35,11,26,077,25,27,11,310,36*7C
$GPGSV,3,3,09,51,43,156,40*45
$GPRMC,225640.000,A,3748.7997,N,12217.8657,W,1.19,205.72,150710,,,A*71
$GPGGA,225641.000,3748.7993,N,12217.8646,W,1,04,3.6,-10.7,M,-25.1,M,,0000*7E
$GPGSA,A,3,17,28,07,08,,,,,,,,,6.3,3.6,5.2*36
$GPRMC,225641.000,A,3748.7993,N,12217.8646,W,1.57,177.19,150710,,,A*75
$GPVTG,177.19,T,,M,1.57,N,2.9,K,A*0C
$GPGGA,225642.000,3748.7979,N,12217.8623,W,1,04,3.6,-6.5,M,-25.1,M,,0000*4F
$GPGSA,A,3,17,28,07,08,,,,,,,,,6.3,3.6,5.2*36
$GPRMC,225642.000,A,3748.7979,N,12217.8623,W,2.72,168.44,150710,,,A*73
$GPVTG,168.44,T,,M,2.72,N,5.0,K,A*00
$GPGGA,225643.000,3748.7970,N,12217.8605,W,1,04,3.6,-3.2,M,-25.1,M,,0000*41
$GPGSA,A,3,17,28,07,08,,,,,,,,,6.3,3.6,5.2*36
$GPRMC,225643.000,A,3748.7970,N,12217.8605,W,2.94,163.69,150710,,,A*73
$GPVTG,163.69,T,,M,2.94,N,5.4,K,A*08
$GPGGA,225644.000,3748.7962,N,12217.8579,W,1,04,3.6,2.2,M,-25.1,M,,0000*61
$GPGSA,A,3,17,28,07,08,,,,,,,,,6.3,3.6,5.2*36
$GPRMC,225644.000,A,3748.7962,N,12217.8579,W,2.44,149.35,150710,,,A*73
$GPVTG,149.35,T,,M,2.44,N,4.5,K,A*04
$GPGGA,225645.000,3748.7960,N,12217.8575,W,1,04,3.6,3.3,M,-25.1,M,,0000*6E
$GPGSA,A,3,17,28,07,08,,,,,,,,,6.3,3.6,5.2*36
$GPGSV,3,1,09,28,64,022,14,17,62,180,38,08,56,100,23,07,22,119,27*7F
$GPGSV,3,2,09,25,62,113,,26,47,287,35,11,26,077,25,27,11,310,36*7C
$GPGSV,3,3,09,51,43,156,36*44
$GPRMC,225645.000,A,3748.7960,N,12217.8575,W,1.64,136.70,150710,,,A*74
$GPVTG,136.70,T,,M,1.64,N,3.0,K,A*0E
$GPGGA,225646.000,3748.7960,N,12217.8560,W,1,04,3.6,7.0,M,-25.1,M,,0000*6E
$GPGSA,A,3,17,28,07,08,,,,,,,,,6.3,3.6,5.2*36
$GPRMC,225646.000,A,3748.7960,N,12217.8560,W,1.96,148.27,150710,,,A*75
$GPVTG,148.27,T,,M,1.96,N,3.6,K,A*0E
$GPGGA,225647.000,3748.7963,N,12217.8551,W,1,04,3.6,9.6,M,-25.1,M,,0000*66
$GPGSA,A,3,17,28,07,08,,,,,,,,,6.3,3.6,5.2*36
$GPRMC,225647.000,A,3748.7963,N,12217.8551,W,1.91,149.11,150710,,,A*76
$GPVTG,149.11,T,,M,1.91,N,3.5,K,A*0E
$GPGGA,225648.000,3748.7961,N,12217.8556,W,1,03,4.0,8.5,M,-25.1,M,,0000*68
$GPGSA,A,2,17,07,08,,,,,,,,,,4.1,4.0,1.0*3A
$GPRMC,225648.000,A,3748.7961,N,12217.8556,W,1.66,146.03,150710,,,A*78
$GPVTG,146.03,T,,M,1.66,N,3.1,K,N*01
$GPGGA,225649.000,3748.7953,N,12217.8551,W,1,04,3.6,9.6,M,-25.1,M,,0000*6B
$GPGSA,A,3,17,28,07,08,,,,,,,,,6.3,3.6,5.2*36
$GPRMC,225649.000,A,3748.7953,N,12217.8551,W,1.79,138.57,150710,,,A*79
$GPVTG,138.57,T,,M,1.79,N,3.3,K,A*0A
$GPGGA,225650.000,3748.7927,N,12217.8529,W,1,04,3.6,14.4,M,-25.1,M,,0000*51
$GPGSA,A,3,17,28,07,08,,,,,,,,,6.3,3.6,5.2*36
$GPGSV,3,1,09,28,64,023,25,17,62,180,38,25,62,113,,08,56,100,31*74
$GPGSV,3,2,09,26,47,287,35,11,26,077,36,07,22,119,37,27,11,310,27*74
$GPGSV,3,3,09,51,43,156,40*45
$GPVTG,137.56,T,,M,1.84,N,3.4,K,A*01
$GPGGA,225651.000,3748.7925,N,12217.8531,W,1,05,1.8,13.9,M,-25.1,M,,0000*5C
$GPGSA,A,3,17,28,07,15,08,,,,,,,,2.8,1.8,2.2*36
$GPRMC,225651.000,A,3748.7925,N,12217.8531,W,1.07,127.11,150710,,,A*72
$GPVTG,127.11,T,,M,1.07,N,2.0,K,A*0D
$GPGGA,225652.000,3748.7921,N,12217.8533,W,1,05,1.8,13.3,M,-25.1,M,,0000*53
$GPGSA,A,3,17,28,07,15,08,,,,,,,,2.8,1.8,2.2*36
$GPRMC,225652.000,A,3748.7921,N,12217.8533,W,0.69,121.18,150710,,,A*71
$GPVTG,121.18,T,,M,0.69,N,1.3,K,A*0B
$GPGGA,225653.000,3748.7949,N,12217.8576,W,1,05,1.8,3.5,M,-25.1,M,,0000*6A
$GPGSA,A,3,17,28,07,15,08,,,,,,,,2.8,1.8,2.2*36
$GPRMC,225653.000,A,3748.7949,N,12217.8576,W,0.29,31.43,150710,,,A*45
$GPVTG,31.43,T,,M,0.29,N,0.5,K,A*36
$GPGGA,225654.000,3748.7956,N,12217.8584,W,1,05,1.8,1.6,M,-25.1,M,,0000*6F
$GPGSA,A,3,17,28,07,15,08,,,,,,,,2.8,1.8,2.2*36
$GPRMC,225654.000,A,3748.7956,N,12217.8584,W,0.01,207.64,150710,,,A*79
$GPVTG,207.64,T,,M,0.01,N,0.0,K,A*0B
$GPGGA,225655.000,3748.7964,N,12217.8596,W,1,05,1.8,-1.1,M,-25.1,M,,0000*46
$GPGSA,A,3,17,28,07,15,08,,,,,,,,2.8,1.8,2.2*36
$GPGSV,3,1,10,28,64,023,18,17,62,180,38,25,62,113,,08,56,100,33*70
$GPGSV,3,2,10,26,47,287,26,15,33,300,27,11,26,077,33,07,22,119,36*7A
$GPGSV,3,3,10,27,11,310,20,51,43,156,40*78
$GPRMC,225655.000,A,3748.7964,N,12217.8596,W,0.22,315.20,150710,,,A*79
$GPVTG,315.20,T,,M,0.22,N,0.4,K,A*0C
$GPGGA,225656.000,3748.7967,N,12217.8605,W,1,05,1.8,-3.4,M,-25.1,M,,0000*48
$GPGSA,A,3,17,28,07,15,08,,,,,,,,2.8,1.8,2.2*36
$GPRMC,225656.000,A,3748.7967,N,12217.8605,W,0.36,11.21,150710,,,A*43
$GPVTG,11.21,T,,M,0.36,N,0.7,K,A*3C
$GPGGA,225657.000,3748.7968,N,12217.8610,W,1,05,1.8,-4.9,M,-25.1,M,,0000*48
$GPGSA,A,3,17,28,07,15,08,,,,,,,,2.8,1.8,2.2*36
$GPRMC,225657.000,A,3748.7968,N,12217.8610,W,0.16,16.90,150710,,,A*46
$GPVTG,16.90,T,,M,0.16,N,0.3,K,A*37
$GPGGA,225658.000,3748.7961,N,12217.8609,W,1,05,1.8,-4.8,M,-25.1,M,,0000*47
$GPGSA,A,3,17,28,07,15,08,,,,,,,,2.8,1.8,2.2*36
$GPRMC,225658.000,A,3748.7961,N,12217.8609,W,0.70,163.63,150710,,,A*77
$GPVTG,163.63,T,,M,0.70,N,1.3,K,A*09
$GPGGA,225659.000,3748.7962,N,12217.8600,W,1,05,1.8,-2.8,M,-25.1,M,,0000*4A
$GPGSA,A,3,17,28,07,15,08,,,,,,,,2.8,1.8,2.2*36
$GPRMC,225659.000,A,3748.7962,N,12217.8600,W,0.14,93.18,150710,,,A*4C
$GPVTG,93.18,T,,M,0.14,N,0.3,K,A*38
$GPGGA,225700.000,3748.7960,N,12217.8590,W,1,05,1.8,-0.5,M,-25.1,M,,0000*40
$GPGSA,A,3,17,28,07,15,08,,,,,,,,2.8,1.8,2.2*36
$GPGSV,3,1,10,28,64,023,28,17,62,180,34,25,62,113,,08,56,100,34*78
$GPGSV,3,2,10,26,47,287,26,15,33,300,25,11,26,077,36,07,22,119,36*7D
$GPGSV,3,3,10,27,11,310,22,51,43,156,39*74
$GPRMC,225700.000,A,3748.7960,N,12217.8590,W,0.28,66.57,150710,,,A*47
$GPVTG,66.57,T,,M,0.28,N,0.5,K,A*30
$GPGGA,225701.000,3748.7959,N,12217.8589,W,1,05,1.8,-0.3,M,-25.1,M,,0000*45
$GPGSA,A,3,17,28,07,15,08,,,,,,,,2.8,1.8,2.2*36
$GPRMC,225701.000,A,3748.7959,N,12217.8589,W,0.17,139.83,150710,,,A*7A
$GPVTG,139.83,T,,M,0.17,N,0.3,K,A*08
$GPGGA,225702.000,3748.7959,N,12217.8588,W,1,04,3.6,0.1,M,-25.1,M,,0000*65
$GPGSA,A,3,17,28,07,08,,,,,,,,,6.3,3.6,5.2*36
$GPRMC,225702.000,A,3748.7959,N,12217.8588,W,0.32,33.07,150710,,,A*48
$GPVTG,33.07,T,,M,0.32,N,0.6,K,A*3D
$GPGGA,225703.000,3748.7957,N,12217.8591,W,1,05,1.8,-0.5,M,-25.1,M,,0000*46
$GPGSA,A,3,17,28,07,15,08,,,,,,,,2.8,1.8,2.2*36
$GPRMC,225703.000,A,3748.7957,N,12217.8591,W,0.25,344.00,150710,,,A*7D
$GPVTG,344.00,T,,M,0.25,N,0.5,K,A*0C
$GPGGA,225704.000,3748.7961,N,12217.8591,W,1,05,1.8,-0.6,M,-25.1,M,,0000*47
$GPGSA,A,3,17,28,07,15,08,,,,,,,,2.8,1.8,2.2*36
$GPRMC,225704.000,A,3748.7961,N,12217.8591,W,0.84,347.05,150710,,,A*72
$GPVTG,347.05,T,,M,0.84,N,1.6,K,A*03
$GPGGA,225705.000,3748.7964,N,12217.8597,W,1,05,1.8,-1.6,M,-25.1,M,,0000*44
$GPGSA,A,3,17,28,07,15,08,,,,,,,,2.8,1.8,2.2*36
$GPGSV,3,1,10,28,64,023,24,17,62,180,35,25,62,113,,08,56,100,34*75
$GPGSV,3,2,10,26,47,287,25,15,33,300,19,11,26,077,36,07,22,119,36*71
$GPGSV,3,3,10,27,11,310,21,51,43,156,41*78
$GPRMC,225705.000,A,3748.7964,N,12217.8597,W,0.73,310.07,150710,,,A*78
$GPVTG,310.07,T,,M,0.73,N,1.3,K,A*0E
$GPGGA,225706.000,3748.7963,N,12217.8602,W,1,05,1.8,-2.7,M,-25.1,M,,0000*4D
$GPGSA,A,3,17,28,07,15,08,,,,,,,,2.8,1.8,2.2*36
$GPRMC,225706.000,A,3748.7963,N,12217.8602,W,0.37,288.68,150710,,,A*7A
$GPVTG,288.68,T,,M,0.37,N,0.7,K,A*02
$GPGGA,225707.000,3748.7964,N,12217.8607,W,1,05,1.8,-3.9,M,-25.1,M,,0000*41
$GPGSA,A,3,17,28,07,15,08,,,,,,,,2.8,1.8,2.2*36
$GPRMC,225707.000,A,3748.7964,N,12217.8607,W,0.15,5.04,150710,,,A*74
$GPVTG,5.04,T,,M,0.15,N,0.3,K,A*0B
$GPGGA,225708.000,3748.7963,N,12217.8612,W,1,05,1.8,-4.8,M,-25.1,M,,0000*4B
$GPGSA,A,3,17,28,07,15,08,,,,,,,,2.8,1.8,2.2*36
$GPRMC,225708.000,A,3748.7963,N,12217.8612,W,0.17,268.31,150710,,,A*75
$GPVTG,268.31,T,,M,0.17,N,0.3,K,A*06
$GPGGA,225709.000,3748.7965,N,12217.8616,W,2,05,1.8,-5.8,M,-25.1,M,,0000*4A
$GPGSA,A,3,17,28,07,15,08,,,,,,,,2.8,1.8,2.2*36
$GPRMC,225709.000,A,3748.7965,N,12217.8616,W,0.18,328.67,150710,,,D*7A
$GPVTG,328.67,T,,M,0.18,N,0.3,K,D*0A
$GPGGA,225710.000,3748.7964,N,12217.8612,W,2,05,1.8,-5.2,M,-25.1,M,,0000*4D
$GPGSA,A,3,17,28,07,15,08,,,,,,,,2.8,1.8,2.2*36
$GPGSV,3,1,10,28,64,023,28,17,62,180,36,25,62,113,,08,56,100,31*7F
$GPGSV,3,2,10,26,47,287,28,15,33,300,21,11,26,077,29,07,22,119,36*79
$GPGSV,3,3,10,27,11,310,19,51,43,156,41*73
$GPRMC,225710.000,A,3748.7964,N,12217.8612,W,0.13,85.16,150710,,,D*4E
$GPVTG,85.16,T,,M,0.13,N,0.2,K,D*32
$GPGGA,225711.000,3748.7969,N,12217.8605,W,2,05,1.8,-3.7,M,-25.1,M,,0000*44
$GPGSA,A,3,17,28,07,15,08,,,,,,,,2.8,1.8,2.2*36
$GPRMC,225711.000,A,3748.7969,N,12217.8605,W,0.59,16.80,150710,,,D*4F
$GPVTG,16.80,T,,M,0.59,N,1.1,K,D*3B
$GPGGA,225712.000,3748.7973,N,12217.8599,W,2,05,1.8,-2.4,M,-25.1,M,2.8,0000*6C
$GPGSA,A,3,17,28,07,15,08,,,,,,,,2.8,1.8,2.2*36
$GPRMC,225712.000,A,3748.7973,N,12217.8599,W,0.42,37.73,150710,,,D*44
$GPVTG,37.73,T,,M,0.42,N,0.8,K,D*36
$GPGGA,225713.000,3748.7981,N,12217.8593,W,2,05,1.8,-1.2,M,-25.1,M,,0000*4B
$GPGSA,A,3,17,28,07,15,08,,,,,,,,2.8,1.8,2.2*36
$GPRMC,225713.000,A,3748.7981,N,12217.8593,W,0.99,16.18,150710,,,D*4A
$GPVTG,16.18,T,,M,0.99,N,1.8,K,D*3F
$GPGGA,225714.000,3748.7988,N,12217.8585,W,2,05,1.8,0.8,M,-25.1,M,,0000*64
$GPGSA,A,3,17,28,07,15,08,,,,,,,,2.8,1.8,2.2*36
$GPRMC,225714.000,A,3748.7988,N,12217.8585,W,1.11,35.96,150710,,,D*45
$GPVTG,35.96,T,,M,1.11,N,2.1,K,D*33
$GPGGA,225715.000,3748.7994,N,12217.8577,W,2,05,1.8,2.5,M,-25.1,M,,0000*6A
$GPGSA,A,3,17,28,07,15,08,,,,,,,,2.8,1.8,2.2*36
$GPGSV,3,1,10,28,64,023,19,17,62,180,36,25,62,113,,08,56,100,33*7F
$GPGSV,3,2,10,26,47,287,29,15,33,300,23,11,26,077,29,07,22,119,37*7B
$GPGSV,3,3,10,27,11,310,23,51,43,156,41*7A
$GPRMC,225715.000,A,3748.7994,N,12217.8577,W,0.78,37.95,150710,,,D*4B
$GPVTG,37.95,T,,M,0.78,N,1.5,K,D*3B
$GPGGA,225716.000,3748.8000,N,12217.8572,W,2,05,1.8,3.8,M,-25.1,M,,0000*6B
$GPGSA,A,3,17,28,07,15,08,,,,,,,,2.8,1.8,2.2*36
$GPRMC,225716.000,A,3748.8000,N,12217.8572,W,1.01,35.02,150710,,,D*45
$GPVTG,35.02,T,,M,1.01,N,1.9,K,D*34
$GPGGA,225717.000,3748.8000,N,12217.8568,W,2,05,1.8,4.8,M,-25.1,M,,0000*66
$GPGSA,A,3,17,28,07,15,08,,,,,,,,2.8,1.8,2.2*36
$GPRMC,225717.000,A,3748.8000,N,12217.8568,W,0.86,83.92,150710,,,D*45
$GPVTG,83.92,T,,M,0.86,N,1.6,K,D*31
$GPGGA,225718.000,3748.7998,N,12217.8566,W,2,04,3.6,5.5,M,-25.1,M,2.8,0000*45
$GPGSA,A,3,17,28,07,08,,,,,,,,,6.3,3.6,5.2*36
$GPRMC,225718.000,A,3748.7998,N,12217.8566,W,1.01,115.33,150710,,,D*78
$GPVTG,115.33,T,,M,1.01,N,1.9,K,D*05
$GPGGA,225719.000,3748.7993,N,12217.8564,W,2,04,3.6,6.0,M,-25.1,M,3.8,0000*4A
$GPGSA,A,3,17,28,07,08,,,,,,,,,6.3,3.6,5.2*36
$GPRMC,225719.000,A,3748.7993,N,12217.8564,W,1.04,123.25,150710,,,D*77
$GPVTG,123.25,T,,M,1.04,N,1.9,K,D*02
$GPGGA,225720.000,3748.7987,N,12217.8556,W,2,05,1.8,7.8,M,-25.1,M,4.8,0000*47
$GPGSA,A,3,17,28,07,15,08,,,,,,,,2.8,1.8,2.2*36
$GPGSV,3,1,10,28,64,023,28,17,62,180,36,25,62,113,,08,56,100,35*7B
$GPGSV,3,2,10,26,47,287,30,15,33,300,17,11,26,077,38,07,22,119,37*74
$GPGSV,3,3,10,27,11,310,15,51,43,156,41*7F
$GPRMC,225720.000,A,3748.7987,N,12217.8556,W,1.50,125.55,150710,,,D*79
$GPVTG,125.55,T,,M,1.50,N,2.8,K,D*00
$GPGGA,225721.000,3748.7982,N,12217.8542,W,2,05,1.8,11.0,M,-25.1,M,,0000*5B
$GPGSA,A,3,17,28,07,15,08,,,,,,,,2.8,1.8,2.2*36
$GPRMC,225721.000,A,3748.7982,N,12217.8542,W,1.33,120.53,150710,,,D*7E
$GPVTG,120.53,T,,M,1.33,N,2.5,K,D*0B
$GPGGA,225722.000,3748.7974,N,12217.8542,W,2,05,1.8,11.1,M,-25.1,M,,0000*50
$GPGSA,A,3,17,28,07,15,08,,,,,,,,2.8,1.8,2.2*36
$GPRMC,225722.000,A,3748.7974,N,12217.8542,W,0.64,137.75,150710,,,D*75
$GPVTG,137.75,T,,M,0.64,N,1.2,K,D*0E
$GPGGA,225723.000,3748.7967,N,12217.8547,W,2,05,1.8,10.3,M,-25.1,M,,0000*55
$GPGSA,A,3,17,28,07,15,08,,,,,,,,2.8,1.8,2.2*36
$GPRMC,225723.000,A,3748.7967,N,12217.8547,W,0.30,151.68,150710,,,D*7E
$GPVTG,151.68,T,,M,0.30,N,0.6,K,D*06
$GPGGA,225724.000,3748.7970,N,12217.8549,W,2,05,1.8,10.5,M,-25.1,M,,0000*5C
$GPGSA,A,3,17,28,07,15,08,,,,,,,,2.8,1.8,2.2*36
$GPRMC,225724.000,A,3748.7970,N,12217.8549,W,0.26,65.67,150710,,,D*4F
$GPVTG,65.67,T,,M,0.26,N,0.5,K,D*3B
$GPGGA,225725.000,3748.7973,N,12217.8547,W,2,05,1.8,11.4,M,-25.1,M,2.8,0000*74
$GPGSA,A,3,17,28,07,15,08,,,,,,,,2.8,1.8,2.2*36
$GPGSV,3,1,10,28,64,023,30,17,62,180,36,25,62,113,,08,56,100,35*72
$GPGSV,3,2,10,26,47,287,28,15,33,300,20,11,26,077,39,07,22,119,35*7A
$GPGSV,3,3,10,27,11,310,20,51,43,156,41*79
$GPRMC,225725.000,A,3748.7973,N,12217.8547,W,0.35,93.56,150710,,,D*4A
$GPVTG,93.56,T,,M,0.35,N,0.6,K,D*31
$GPGGA,225726.000,3748.7975,N,12217.8546,W,2,05,1.8,12.2,M,-25.1,M,3.8,0000*74
$GPGSA,A,3,17,28,07,15,08,,,,,,,,2.8,1.8,2.2*36
$GPRMC,225726.000,A,3748.7975,N,12217.8546,W,0.08,53.51,150710,,,D*4B
$GPVTG,53.51,T,,M,0.08,N,0.2,K,D*30
$GPGGA,225727.000,3748.7978,N,12217.8550,W,2,05,1.8,11.9,M,-25.1,M,,0000*52
$GPGSA,A,3,17,28,07,15,08,,,,,,,,2.8,1.8,2.2*36
$GPRMC,225727.000,A,3748.7978,N,12217.8550,W,0.09,331.91,150710,,,D*7A
$GPVTG,331.91,T,,M,0.09,N,0.2,K,D*0A
$GPGGA,225728.000,3748.7984,N,12217.8554,W,2,05,1.8,11.4,M,-25.1,M,,0000*57
$GPGSA,A,3,17,28,07,15,08,,,,,,,,2.8,1.8,2.2*36
$GPRMC,225728.000,A,3748.7984,N,12217.8554,W,0.39,7.91,150710,,,D*77
$GPVTG,7.91,T,,M,0.39,N,0.7,K,D*0A
$GPGGA,225729.000,3748.7987,N,12217.8557,W,2,05,1.8,10.9,M,-25.1,M,,0000*5A
$GPGSA,A,3,17,28,07,15,08,,,,,,,,2.8,1.8,2.2*36
$GPRMC,225729.000,A,3748.7987,N,12217.8557,W,0.21,36.93,150710,,,D*4F
$GPVTG,36.93,T,,M,0.21,N,0.4,K,D*30
$GPGGA,225730.000,3748.7990,N,12217.8559,W,2,05,1.8,10.5,M,-25.1,M,,0000*56
$GPGSA,A,3,17,28,07,15,08,,,,,,,,2.8,1.8,2.2*36
$GPGSV,3,1,10,28,64,023,22,17,62,180,37,25,62,113,,08,56,100,36*73
$GPGSV,3,2,10,26,47,287,29,15,33,300,19,11,26,077,36,07,22,119,36*7D
$GPGSV,3,3,10,27,11,310,20,51,43,156,41*79
$GPRMC,225730.000,A,3748.7990,N,12217.8559,W,0.18,316.13,150710,,,D*7C
$GPVTG,316.13,T,,M,0.18,N,0.3,K,D*04
$GPGGA,225731.000,3748.7993,N,12217.8563,W,2,05,1.8,9.5,M,-25.1,M,,0000*65
$GPGSA,A,3,17,28,07,15,08,,,,,,,,2.8,1.8,2.2*36
$GPRMC,225731.000,A,3748.7993,N,12217.8563,W,0.46,318.45,150710,,,D*71
$GPVTG,318.45,T,,M,0.46,N,0.8,K,D*09
$GPGGA,225732.000,3748.7999,N,12217.8562,W,2,05,1.8,9.6,M,-25.1,M,2.8,0000*4A
$GPGSA,A,3,17,28,07,15,08,,,,,,,,2.8,1.8,2.2*36
$GPRMC,225732.000,A,3748.7999,N,12217.8562,W,0.25,339.03,150710,,,D*7D
$GPVTG,339.03,T,,M,0.25,N,0.5,K,D*00
$GPGGA,225733.000,3748.8003,N,12217.8561,W,2,05,1.8,9.8,M,-25.1,M,,0000*67
$GPGSA,A,3,17,28,07,15,08,,,,,,,,2.8,1.8,2.2*36
$GPRMC,225733.000,A,3748.8003,N,12217.8561,W,0.14,26.58,150710,,,D*4B
$GPVTG,26.58,T,,M,0.14,N,0.3,K,D*37
$GPGGA,225734.000,3748.8004,N,12217.8561,W,2,05,1.8,9.4,M,-25.1,M,,0000*6B
$GPGSA,A,3,17,28,07,15,08,,,,,,,,2.8,1.8,2.2*36
$GPRMC,225734.000,A,3748.8004,N,12217.8561,W,0.08,354.29,150710,,,D*76
$GPVTG,354.29,T,,M,0.08,N,0.1,K,D*08
$GPGGA,225735.000,3748.8007,N,12217.8563,W,2,05,1.8,8.9,M,-25.1,M,,0000*67
$GPGSA,A,3,17,28,07,15,08,,,,,,,,2.8,1.8,2.2*36
$GPGSV,3,1,10,28,64,023,25,17,62,180,37,25,62,113,,08,56,100,36*74
$GPGSV,3,2,10,26,47,287,29,15,33,300,29,11,26,077,38,07,22,119,36*70
$GPGSV,3,3,10,27,11,310,20,51,43,156,41*79
$GPRMC,225735.000,A,3748.8007,N,12217.8563,W,0.35,22.92,150710,,,D*4A
$GPVTG,22.92,T,,M,0.35,N,0.7,K,D*32
$GPGGA,225736.000,3748.8010,N,12217.8567,W,2,05,1.8,7.9,M,-25.1,M,2.8,0000*4D
$GPGSA,A,3,17,28,07,15,08,,,,,,,,2.8,1.8,2.2*36
$GPRMC,225736.000,A,3748.8010,N,12217.8567,W,0.12,85.23,150710,,,D*49
$GPVTG,85.23,T,,M,0.12,N,0.2,K,D*35
$GPGGA,225737.000,3748.8012,N,12217.8569,W,2,05,1.8,7.2,M,-25.1,M,3.8,0000*4A
$GPGSA,A,3,17,28,07,15,08,,,,,,,,2.8,1.8,2.2*36
$GPRMC,225737.000,A,3748.8012,N,12217.8569,W,0.15,101.44,150710,,,D*7F
$GPVTG,101.44,T,,M,0.15,N,0.3,K,D*0F
$GPGGA,225738.000,3748.8014,N,12217.8569,W,2,05,1.8,7.0,M,-25.1,M,4.8,0000*46
$GPGSA,A,3,17,28,07,15,08,,,,,,,,2.8,1.8,2.2*36
$GPRMC,225738.000,A,3748.8014,N,12217.8569,W,0.24,104.47,150710,,,D*72
$GPVTG,104.47,T,,M,0.24,N,0.4,K,D*0C
$GPGGA,225739.000,3748.8015,N,12217.8567,W,2,05,1.8,7.2,M,-25.1,M,,0000*68
$GPGSA,A,3,17,28,07,15,08,,,,,,,,2.8,1.8,2.2*36
$GPRMC,225739.000,A,3748.8015,N,12217.8567,W,0.11,313.91,150710,,,D*75
$GPVTG,313.91,T,,M,0.11,N,0.2,K,D*03
$GPGGA,225740.000,3748.8016,N,12217.8564,W,2,05,1.8,8.0,M,-25.1,M,,0000*6B
$GPGSA,A,3,17,28,07,15,08,,,,,,,,2.8,1.8,2.2*36
$GPGSV,3,1,10,28,64,023,25,17,62,180,37,25,62,113,,08,56,100,37*75
$GPGSV,3,2,10,26,47,287,29,15,33,300,22,11,26,077,38,07,22,119,37*7A
$GPGSV,3,3,10,27,11,310,21,51,43,156,41*78
$GPRMC,225740.000,A,3748.8016,N,12217.8564,W,0.06,72.29,150710,,,D*4A
$GPVTG,72.29,T,,M,0.06,N,0.1,K,D*31
$GPGGA,225741.000,3748.8016,N,12217.8561,W,2,05,1.8,8.4,M,-25.1,M,,0000*6B
$GPGSA,A,3,17,28,07,15,08,,,,,,,,2.8,1.8,2.2*36
$GPRMC,225741.000,A,3748.8016,N,12217.8561,W,0.13,112.08,150710,,,D*7E
$GPVTG,112.08,T,,M,0.13,N,0.2,K,D*02
$GPGGA,225742.000,3748.8015,N,12217.8553,W,2,05,1.8,10.1,M,-25.1,M,2.8,0000*72
$GPGSA,A,3,17,28,07,15,08,,,,,,,,2.8,1.8,2.2*36
$GPRMC,225742.000,A,3748.8015,N,12217.8553,W,0.10,96.93,150710,,,D*43
$GPVTG,96.93,T,,M,0.10,N,0.2,K,D*3E
$GPGGA,225743.000,3748.8014,N,12217.8548,W,2,05,1.8,11.3,M,-25.1,M,3.8,0000*7A
$GPGSA,A,3,17,28,07,15,08,,,,,,,,2.8,1.8,2.2*36
$GPRMC,225743.000,A,3748.8014,N,12217.8548,W,0.31,110.57,150710,,,D*7D
$GPVTG,110.57,T,,M,0.31,N,0.6,K,D*0E
$GPGGA,225744.000,3748.8014,N,12217.8547,W,2,05,1.8,11.6,M,-25.1,M,4.8,0000*70
$GPGSA,A,3,17,28,07,15,08,,,,,,,,2.8,1.8,2.2*36
$GPRMC,225744.000,A,3748.8014,N,12217.8547,W,0.09,83.32,150710,,,D*46
$GPVTG,83.32,T,,M,0.09,N,0.2,K,D*39
$GPGGA,225745.000,3748.8015,N,12217.8545,W,2,05,1.8,12.0,M,-25.1,M,,0000*55
$GPGSA,A,3,17,28,07,15,08,,,,,,,,2.8,1.8,2.2*36
$GPGSV,3,1,10,28,64,023,26,17,62,180,37,25,62,113,,08,56,100,37*76
$GPGSV,3,2,10,26,47,287,29,15,33,300,23,11,26,077,38,07,22,119,38*74
$GPGSV,3,3,10,27,11,310,21,51,43,156,41*78
$GPVTG,94.72,T,,M,0.20,N,0.4,K,D*36
$GPGGA,225746.000,3748.8014,N,12217.8541,W,2,05,1.8,12.6,M,-25.1,M,,0000*55
$GPGSA,A,3,17,28,07,15,08,,,,,,,,2.8,1.8,2.2*36
$GPRMC,225746.000,A,3748.8014,N,12217.8541,W,0.35,103.53,150710,,,D*73
$GPVTG,103.53,T,,M,0.35,N,0.6,K,D*0C
$GPGGA,225747.000,3748.8013,N,12217.8534,W,2,05,1.8,14.3,M,-25.1,M,,0000*52
$GPGSA,A,3,17,28,07,15,08,,,,,,,,2.8,1.8,2.2*36
$GPRMC,225747.000,A,3748.8013,N,12217.8534,W,0.28,74.79,150710,,,D*42
$GPVTG,74.79,T,,M,0.28,N,0.5,K,D*3A
$GPGGA,225748.000,3748.8011,N,12217.8525,W,2,05,1.8,16.5,M,-25.1,M,,0000*5B
$GPGSA,A,3,17,28,07,15,08,,,,,,,,2.8,1.8,2.2*36
$GPRMC,225748.000,A,3748.8011,N,12217.8525,W,0.36,94.60,150710,,,D*46
$GPVTG,94.60,T,,M,0.36,N,0.7,K,D*31
$GPGGA,225749.000,3748.8009,N,12217.8523,W,2,05,1.8,17.0,M,-25.1,M,,0000*51
$GPGSA,A,3,17,28,07,15,08,,,,,,,,2.8,1.8,2.2*36
$GPRMC,225749.000,A,3748.8009,N,12217.8523,W,0.30,132.60,150710,,,D*73
$GPVTG,132.60,T,,M,0.30,N,0.6,K,D*0B
$GPGGA,225750.000,3748.8004,N,12217.8517,W,2,05,1.8,18.6,M,-25.1,M,2.8,0000*7E
$GPGSA,A,3,17,28,07,15,08,,,,,,,,2.8,1.8,2.2*36
$GPGSV,3,1,10,28,64,023,27,17,62,180,37,25,62,113,,08,56,100,37*77
$GPGSV,3,2,10,26,47,287,21,15,33,300,24,11,26,077,35,07,22,119,37*79
$GPGSV,3,3,10,27,11,310,21,51,43,156,41*78
$GPRMC,225750.000,A,3748.8004,N,12217.8517,W,0.74,185.89,150710,,,D*7A
$GPVTG,185.89,T,,M,0.74,N,1.4,K,D*03
$GPGGA,225751.000,3748.8000,N,12217.8520,W,2,05,1.8,18.7,M,-25.1,M,,0000*5A
$GPGSA,A,3,17,28,07,15,08,,,,,,,,2.8,1.8,2.2*36
$GPRMC,225751.000,A,3748.8000,N,12217.8520,W,1.52,198.26,150710,,,D*77
$GPVTG,198.26,T,,M,1.52,N,2.8,K,D*00
$GPGGA,225752.000,3748.7995,N,12217.8524,W,2,05,1.8,18.7,M,-25.1,M,,0000*57
$GPGSA,A,3,17,28,07,15,08,,,,,,,,2.8,1.8,2.2*36
$GPRMC,225752.000,A,3748.7995,N,12217.8524,W,1.82,208.85,150710,,,D*74
$GPVTG,208.85,T,,M,1.82,N,3.4,K,D*03
$GPGGA,225753.000,3748.7991,N,12217.8530,W,2,05,1.8,18.3,M,-25.1,M,,0000*53
$GPGSA,A,3,17,28,07,15,08,,,,,,,,2.8,1.8,2.2*36
$GPRMC,225753.000,A,3748.7991,N,12217.8530,W,1.65,214.29,150710,,,D*76
$GPVTG,214.29,T,,M,1.65,N,3.1,K,D*04
$GPGGA,225754.000,3748.7989,N,12217.8538,W,2,05,1.8,17.1,M,-25.1,M,2.8,0000*7C
$GPGSA,A,3,17,28,07,15,08,,,,,,,,2.8,1.8,2.2*36
$GPRMC,225754.000,A,3748.7989,N,12217.8538,W,1.10,231.93,150710,,,D*74
$GPVTG,231.93,T,,M,1.10,N,2.0,K,D*00
$GPGGA,225755.000,3748.7991,N,12217.8546,W,2,05,1.8,15.4,M,-25.1,M,3.8,0000*7B
$GPGSA,A,3,17,28,07,15,08,,,,,,,,2.8,1.8,2.2*36
$GPGSV,3,1,10,28,64,023,28,17,62,180,35,25,62,113,,08,56,100,30*7D
$GPGSV,3,2,10,26,47,287,33,15,33,300,34,11,26,077,29,07,22,119,35*74
$GPGSV,3,3,10,27,11,310,30,51,43,156,37*79
$GPRMC,225755.000,A,3748.7991,N,12217.8546,W,0.34,95.95,150710,,,D*48
$GPVTG,95.95,T,,M,0.34,N,0.6,K,D*39
$GPGGA,225756.000,3748.7992,N,12217.8552,W,2,05,1.8,13.8,M,-25.1,M,4.8,0000*73
$GPGSA,A,3,17,28,07,15,08,,,,,,,,2.8,1.8,2.2*36
$GPRMC,225756.000,A,3748.7992,N,12217.8552,W,0.11,183.01,150710,,,D*71
$GPVTG,183.01,T,,M,0.11,N,0.2,K,D*01
$GPGGA,225757.000,3748.7991,N,12217.8559,W,2,05,1.8,11.7,M,-25.1,M,,0000*55
$GPGSA,A,3,17,28,07,15,08,,,,,,,,2.8,1.8,2.2*36
$GPRMC,225757.000,A,3748.7991,N,12217.8559,W,0.08,4.68,150710,,,D*71
$GPVTG,4.68,T,,M,0.08,N,0.2,K,D*08
$GPGGA,225758.000,3748.7992,N,12217.8563,W,2,05,1.8,10.6,M,-25.1,M,,0000*50
$GPGSA,A,3,17,28,07,15,08,,,,,,,,2.8,1.8,2.2*36
$GPRMC,225758.000,A,3748.7992,N,12217.8563,W,0.58,25.47,150710,,,D*4F
$GPVTG,25.47,T,,M,0.58,N,1.1,K,D*31
$GPGGA,225759.000,3748.7996,N,12217.8565,W,2,05,1.8,9.3,M,-25.1,M,,0000*6E
$GPGSA,A,3,17,28,07,15,08,,,,,,,,2.8,1.8,2.2*36
$GPRMC,225759.000,A,3748.7996,N,12217.8565,W,0.42,43.72,150710,,,D*41
$GPVTG,43.72,T,,M,0.42,N,0.8,K,D*34
$GPGGA,225800.000,3748.7993,N,12217.8571,W,2,05,1.8,8.6,M,-25.1,M,2.8,0000*4D
$GPGSA,A,3,17,28,07,15,08,,,,,,,,2.8,1.8,2.2*36
$GPGSV,3,1,10,28,64,023,37,17,62,180,26,25,62,113,,08,56,100,36*77
$GPGSV,3,2,10,26,47,287,27,15,33,300,27,11,26,077,40,07,22,119,36*7F
$GPGSV,3,3,10,27,11,310,28,51,43,156,36*71
$GPRMC,225800.000,A,3748.7993,N,12217.8571,W,0.70,256.67,150710,,,D*71
$GPGGA,225801.000,3748.7990,N,12217.8576,W,2,05,1.8,8.2,M,-25.1,M,,0000*68
$GPGSA,A,3,17,28,07,15,08,,,,,,,,2.8,1.8,2.2*36
$GPRMC,225801.000,A,3748.7990,N,12217.8576,W,0.67,207.93,150710,,,D*7D
$GPVTG,207.93,T,,M,0.67,N,1.2,K,D*05
$GPGGA,225802.000,3748.7986,N,12217.8584,W,2,05,1.8,7.6,M,-25.1,M,,0000*6A
$GPGSA,A,3,17,28,07,15,08,,,,,,,,2.8,1.8,2.2*36
$GPRMC,225802.000,A,3748.7986,N,12217.8584,W,1.07,237.03,150710,,,D*79
$GPVTG,237.03,T,,M,1.07,N,2.0,K,D*09
$GPGGA,225803.000,3748.7983,N,12217.8592,W,2,05,1.8,6.8,M,-25.1,M,2.8,0000*42
$GPGSA,A,3,17,28,07,15,08,,,,,,,,2.8,1.8,2.2*36
$GPRMC,225803.000,A,3748.7983,N,12217.8592,W,1.42,238.68,150710,,,D*79
$GPVTG,238.68,T,,M,1.42,N,2.6,K,D*0C
$GPGGA,225804.000,3748.7974,N,12217.8601,W,2,05,1.8,5.9,M,-25.1,M,3.8,0000*47
$GPGSA,A,3,17,28,07,15,08,,,,,,,,2.8,1.8,2.2*36
$GPRMC,225804.000,A,3748.7974,N,12217.8601,W,1.74,207.57,150710,,,D*7A
$GPVTG,207.57,T,,M,1.74,N,3.2,K,D*0C
$GPGGA,225805.000,3748.7967,N,12217.8607,W,2,05,1.8,5.2,M,-25.1,M,4.8,0000*4E
$GPGSA,A,3,17,28,07,15,08,,,,,,,,2.8,1.8,2.2*36
$GPGSV,3,1,09,28,64,023,27,17,62,180,23,25,62,113,,08,56,100,27*7B
$GPGSV,3,2,09,26,47,287,20,15,33,300,25,11,26,077,32,07,22,119,30*71
$GPGSV,3,3,09,27,11,310,36*42
$GPRMC,225805.000,A,3748.7967,N,12217.8607,W,1.80,217.43,150710,,,D*70
$GPVTG,217.43,T,,M,1.80,N,3.3,K,D*02
$GPGGA,225806.000,3748.7963,N,12217.8613,W,2,05,1.8,4.1,M,-25.1,M,5.8,0000*4F
$GPGSA,A,3,17,28,07,15,08,,,,,,,,2.8,1.8,2.2*36
$GPRMC,225806.000,A,3748.7963,N,12217.8613,W,2.69,232.77,150710,,,D*76
$GPVTG,232.77,T,,M,2.69,N,5.0,K,D*03
$GPGGA,225807.000,3748.7959,N,12217.8618,W,2,05,1.8,3.4,M,-25.1,M,6.8,0000*4D
$GPGSA,A,3,17,28,07,15,08,,,,,,,,2.8,1.8,2.2*36
$GPRMC,225807.000,A,3748.7959,N,12217.8618,W,2.08,229.16,150710,,,D*7F
$GPVTG,229.16,T,,M,2.08,N,3.8,K,D*07
$GPGGA,225808.000,3748.7959,N,12217.8620,W,2,05,1.8,2.4,M,-25.1,M,7.8,0000*49
$GPGSA,A,3,17,28,07,15,08,,,,,,,,2.8,1.8,2.2*36
$GPRMC,225808.000,A,3748.7959,N,12217.8620,W,1.44,210.57,150710,,,D*7F
$GPVTG,210.57,T,,M,1.44,N,2.7,K,D*0D
$GPGGA,225809.000,3748.7957,N,12217.8615,W,2,05,1.8,2.8,M,-25.1,M,8.8,0000*43
$GPGSA,A,3,17,28,07,15,08,,,,,,,,2.8,1.8,2.2*36
$GPRMC,225809.000,A,3748.7957,N,12217.8615,W,1.38,213.29,150710,,,D*77
$GPVTG,213.29,T,,M,1.38,N,2.5,K,D*0E
$GPGGA,225810.000,3748.7957,N,12217.8615,W,2,05,1.8,1.7,M,-25.1,M,9.8,0000*46
$GPGSA,A,3,17,28,07,15,08,,,,,,,,2.8,1.8,2.2*36
$GPGSV,3,1,10,28,64,023,34,17,62,180,27,25,62,113,,08,56,100,39*7A
$GPGSV,3,2,10,26,47,287,29,15,33,300,27,11,26,077,40,07,22,119,40*70
$GPGSV,3,3,10,27,11,310,30,51,43,156,34*7A
$GPRMC,225810.000,A,3748.7957,N,12217.8615,W,0.83,205.42,150710,,,D*74
$GPVTG,205.42,T,,M,0.83,N,1.5,K,D*06
$GPGGA,225811.000,3748.7952,N,12217.8610,W,2,05,1.8,3.3,M,-25.1,M,10.8,0000*79
$GPGSA,A,3,17,28,07,15,08,,,,,,,,2.8,1.8,2.2*36
$GPRMC,225811.000,A,3748.7952,N,12217.8610,W,1.25,209.54,150710,,,D*73
$GPVTG,209.54,T,,M,1.25,N,2.3,K,D*05
$GPGGA,225812.000,3748.7947,N,12217.8615,W,2,05,1.8,3.2,M,-25.1,M,11.8,0000*7B
$GPGSA,A,3,17,28,07,15,08,,,,,,,,2.8,1.8,2.2*36
$GPRMC,225812.000,A,3748.7947,N,12217.8615,W,1.38,227.35,150710,,,D*76
$GPVTG,227.35,T,,M,1.38,N,2.6,K,D*07
$GPGGA,225813.000,3748.7945,N,12217.8625,W,2,05,1.8,1.8,M,-25.1,M,12.8,0000*70
$GPGSA,A,3,17,28,07,15,08,,,,,,,,2.8,1.8,2.2*36
$GPRMC,225813.000,A,3748.7945,N,12217.8625,W,1.67,227.65,150710,,,D*79
$GPVTG,227.65,T,,M,1.67,N,3.1,K,D*0E
$GPGGA,225814.000,3748.7943,N,12217.8632,W,2,05,1.8,0.6,M,-25.1,M,13.8,0000*79
$GPGSA,A,3,17,28,07,15,08,,,,,,,,2.8,1.8,2.2*36
$GPRMC,225814.000,A,3748.7943,N,12217.8632,W,1.21,209.01,150710,,,D*72
$GPVTG,209.01,T,,M,1.21,N,2.2,K,D*00
$GPGGA,225815.000,3748.7936,N,12217.8637,W,2,05,1.8,0.4,M,-25.1,M,,0000*69
$GPGSA,A,3,17,28,07,15,08,,,,,,,,2.8,1.8,2.2*36
$GPGSV,3,1,10,28,64,023,37,17,62,180,27,25,62,113,,08,56,100,39*79
$GPGSV,3,2,10,26,47,287,29,15,33,300,36,11,26,077,40,07,22,119,40*70
$GPGSV,3,3,10,27,11,310,36,51,43,156,32*7A
$GPRMC,225815.000,A,3748.7936,N,12217.8637,W,1.61,199.68,150710,,,D*75
$GPVTG,199.68,T,,M,1.61,N,3.0,K,D*02
$GPGGA,225816.000,3748.7933,N,12217.8640,W,2,05,1.8,-0.1,M,-25.1,M,2.8,0000*63
$GPGSA,A,3,17,28,07,15,08,,,,,,,,2.8,1.8,2.2*36
$GPRMC,225816.000,A,3748.7933,N,12217.8640,W,1.10,203.67,150710,,,D*7A
$GPVTG,203.67,T,,M,1.10,N,2.0,K,D*0A
$GPGGA,225817.000,3748.7930,N,12217.8643,W,2,05,1.8,-0.4,M,-25.1,M,3.8,0000*66
$GPGSA,A,3,17,28,07,15,08,,,,,,,,2.8,1.8,2.2*36
$GPRMC,225817.000,A,3748.7930,N,12217.8643,W,0.74,226.97,150710,,,D*70
$GPVTG,226.97,T,,M,0.74,N,1.4,K,D*06
$GPGGA,225818.000,3748.7928,N,12217.8643,W,2,05,1.8,0.0,M,-25.1,M,4.8,0000*4E
$GPGSA,A,3,17,28,07,15,08,,,,,,,,2.8,1.8,2.2*36
$GPRMC,225818.000,A,3748.7928,N,12217.8643,W,0.51,227.18,150710,,,D*77
$GPVTG,227.18,T,,M,0.51,N,0.9,K,D*0B
$GPGGA,225819.000,3748.7924,N,12217.8646,W,2,05,1.8,0.0,M,-25.1,M,1.8,0000*43
$GPGSA,A,3,17,28,07,15,08,,,,,,,,2.8,1.8,2.2*36
$GPRMC,225819.000,A,3748.7924,N,12217.8646,W,0.76,238.88,150710,,,D*7D
$GPVTG,238.88,T,,M,0.76,N,1.4,K,D*05
$GPGGA,225820.000,3748.7923,N,12217.8650,W,2,05,1.8,-0.3,M,-25.1,M,2.8,0000*64
$GPGSA,A,3,17,28,07,15,08,,,,,,,,2.8,1.8,2.2*36
$GPGSV,3,1,09,28,63,024,28,17,63,180,34,08,56,101,36,26,47,286,27*7C
$GPGSV,3,2,09,15,33,299,27,11,26,076,40,07,22,120,31,27,12,310,25*76
$GPGSV,3,3,09,51,43,156,30*42
$GPRMC,225820.000,A,3748.7923,N,12217.8650,W,0.75,230.85,150710,,,D*71
$GPVTG,230.85,T,,M,0.75,N,1.4,K,D*03
$GPGGA,225821.000,3748.7918,N,12217.8652,W,2,05,1.8,0.1,M,-25.1,M,1.8,0000*43
$GPGSA,A,3,17,28,07,15,08,,,,,,,,2.8,1.8,2.2*36
$GPRMC,225821.000,A,3748.7918,N,12217.8652,W,0.95,211.56,150710,,,D*79
$GPVTG,211.56,T,,M,0.95,N,1.8,K,D*0C
$GPGGA,225822.000,3748.7913,N,12217.8651,W,2,05,1.8,1.3,M,-25.1,M,2.8,0000*48
$GPGSA,A,3,17,28,07,15,08,,,,,,,,2.8,1.8,2.2*36
$GPRMC,225822.000,A,3748.7913,N,12217.8651,W,0.55,197.29,150710,,,D*7B
$GPVTG,197.29,T,,M,0.55,N,1.0,K,D*0D
$GPGGA,225823.000,3748.7908,N,12217.8649,W,2,05,1.8,2.1,M,-25.1,M,3.8,0000*4A
$GPGSA,A,3,17,28,07,15,08,,,,,,,,2.8,1.8,2.2*36
$GPRMC,225823.000,A,3748.7908,N,12217.8649,W,0.71,195.05,150710,,,D*73
$GPVTG,195.05,T,,M,0.71,N,1.3,K,D*04
$GPGGA,225824.000,3748.7904,N,12217.8652,W,2,05,1.8,2.3,M,-25.1,M,4.8,0000*4E
$GPGSA,A,3,17,28,07,15,08,,,,,,,,2.8,1.8,2.2*36
$GPRMC,225824.000,A,3748.7904,N,12217.8652,W,1.14,203.05,150710,,,D*7C
$GPVTG,203.05,T,,M,1.14,N,2.1,K,D*0B
$GPGGA,225825.000,3748.7899,N,12217.8650,W,2,05,1.8,3.4,M,-25.1,M,5.8,0000*4F
$GPGSA,A,3,17,28,07,15,08,,,,,,,,2.8,1.8,2.2*36
$GPGSV,2,1,08,28,63,024,29,17,63,180,27,08,56,101,37,26,47,286,27*7E
$GPGSV,2,2,08,15,33,299,24,11,26,076,34,07,22,120,40,27,12,310,26*73
$GPRMC,225825.000,A,3748.7899,N,12217.8650,W,0.54,215.46,150710,,,D*7F
$GPVTG,215.46,T,,M,0.54,N,1.0,K,D*0C
$GPGGA,225826.000,3748.7896,N,12217.8651,W,2,04,5.9,3.7,M,-25.1,M,6.8,0000*46
$GPGSA,A,3,28,07,15,08,,,,,,,,,7.7,5.9,5.0*3A
$GPRMC,225826.000,A,3748.7896,N,12217.8651,W,0.60,197.11,150710,,,D*7E
$GPVTG,197.11,T,,M,0.60,N,1.1,K,D*01
$GPGGA,225827.000,3748.7889,N,12217.8661,W,2,04,5.9,2.9,M,-25.1,M,7.8,0000*44
$GPGSA,A,3,28,07,15,08,,,,,,,,,7.7,5.9,5.0*3A
$GPRMC,225827.000,A,3748.7889,N,12217.8661,W,1.86,215.64,150710,,,D*70
$GPVTG,215.64,T,,M,1.86,N,3.5,K,D*05
$GPGGA,225828.000,3748.7883,N,12217.8669,W,2,05,1.8,2.8,M,-25.1,M,8.8,0000*43
$GPGSA,A,3,17,28,07,15,08,,,,,,,,2.8,1.8,2.2*36
$GPRMC,225828.000,A,3748.7883,N,12217.8669,W,2.53,214.18,150710,,,D*7C
$GPVTG,214.18,T,,M,2.53,N,4.7,K,D*01
$GPGGA,225829.000,3748.7892,N,12217.8665,W,2,05,1.8,2.4,M,-25.1,M,9.8,0000*43
$GPGSA,A,3,17,28,07,15,08,,,,,,,,2.8,1.8,2.2*36
$GPRMC,225829.000,A,3748.7892,N,12217.8665,W,1.72,227.10,150710,,,D*79
$GPVTG,227.10,T,,M,1.72,N,3.2,K,D*0B
$GPGGA,225830.000,3748.7902,N,12217.8656,W,2,05,1.8,2.5,M,-25.1,M,10.8,0000*7A
$GPGSA,A,3,17,28,07,15,08,,,,,,,,2.8,1.8,2.2*36
$GPGSV,2,1,08,28,63,024,30,17,63,180,21,08,56,101,28,26,47,286,18*72
$GPGSV,2,2,08,15,33,299,31,11,26,076,30,07,22,120,41,27,12,310,28*7C
$GPRMC,225830.000,A,3748.7902,N,12217.8656,W,0.08,109.51,150710,,,D*7F
$GPVTG,109.51,T,,M,0.08,N,0.2,K,D*0E
$GPGGA,225831.000,3748.7913,N,12217.8646,W,2,05,1.8,2.2,M,-25.1,M,11.8,0000*7C
$GPGSA,A,3,17,28,07,15,08,,,,,,,,2.8,1.8,2.2*36
$GPRMC,225831.000,A,3748.7913,N,12217.8646,W,1.62,28.11,150710,,,D*44
$GPVTG,28.11,T,,M,1.62,N,3.0,K,D*34
$GPGGA,225832.000,3748.7912,N,12217.8645,W,2,05,1.8,2.6,M,-25.1,M,12.8,0000*7A
$GPGSA,A,3,17,28,07,15,08,,,,,,,,2.8,1.8,2.2*36
$GPRMC,225832.000,A,3748.7912,N,12217.8645,W,0.35,29.76,150710,,,D*46
$GPVTG,29.76,T,,M,0.35,N,0.6,K,D*32
$GPGGA,225833.000,3748.7915,N,12217.8643,W,2,05,1.8,1.9,M,-25.1,M,13.8,0000*77
$GPGSA,A,3,17,28,07,15,08,,,,,,,,2.8,1.8,2.2*36
$GPRMC,225833.000,A,3748.7915,N,12217.8643,W,0.24,220.04,150710,,,D*78
$GPVTG,220.04,T,,M,0.24,N,0.4,K,D*0E
$GPGGA,225834.000,3748.7913,N,12217.8644,W,2,05,1.8,1.8,M,-25.1,M,14.8,0000*77
$GPGSA,A,3,17,28,07,15,08,,,,,,,,2.8,1.8,2.2*36
$GPRMC,225834.000,A,3748.7913,N,12217.8644,W,0.81,213.94,150710,,,D*78
$GPVTG,213.94,T,,M,0.81,N,1.5,K,D*08
$GPGGA,225835.000,3748.7918,N,12217.8641,W,2,05,1.8,0.5,M,-25.1,M,15.8,0000*75
$GPGSA,A,3,17,28,07,15,08,,,,,,,,2.8,1.8,2.2*36
$GPGSV,2,1,08,28,63,024,29,17,63,180,20,08,56,101,25,26,47,286,23*7E
$GPGSV,2,2,08,15,33,299,29,11,26,076,36,07,22,120,41,27,12,310,23*78
$GPRMC,225835.000,A,3748.7918,N,12217.8641,W,0.52,224.33,150710,,,D*70
$GPVTG,224.33,T,,M,0.52,N,1.0,K,D*0A
$GPGGA,225836.000,3748.7924,N,12217.8636,W,2,05,1.8,-0.8,M,-25.1,M,16.8,0000*5A
$GPGSA,A,3,17,28,07,15,08,,,,,,,,2.8,1.8,2.2*36
$GPRMC,225836.000,A,3748.7924,N,12217.8636,W,0.52,29.33,150710,,,D*43
$GPVTG,29.33,T,,M,0.52,N,1.0,K,D*35
$GPGGA,225837.000,3748.7933,N,12217.8631,W,2,05,1.8,-2.8,M,-25.1,M,17.8,0000*59
$GPGSA,A,3,17,28,07,15,08,,,,,,,,2.8,1.8,2.2*36
$GPRMC,225837.000,A,3748.7933,N,12217.8631,W,0.96,27.28,150710,,,D*4F
$GPVTG,27.28,T,,M,0.96,N,1.8,K,D*31
$GPGGA,225838.000,3748.7942,N,12217.8625,W,1,05,1.8,-4.3,M,-25.1,M,,0000*4B
$GPGSA,A,3,17,28,07,15,08,,,,,,,,2.8,1.8,2.2*36
$GPRMC,225838.000,A,3748.7942,N,12217.8625,W,1.24,25.00,150710,,,A*46
$GPVTG,25.00,T,,M,1.24,N,2.3,K,A*3C
$GPGGA,225839.000,3748.7942,N,12217.8627,W,1,05,1.8,-5.4,M,-25.1,M,,0000*4E
$GPGSA,A,3,17,28,07,15,08,,,,,,,,2.8,1.8,2.2*36
$GPRMC,225839.000,A,3748.7942,N,12217.8627,W,0.58,10.23,150710,,,A*48
$GPVTG,10.23,T,,M,0.58,N,1.1,K,A*30
$GPGGA,225840.000,3748.7937,N,12217.8636,W,1,04,5.8,-7.2,M,-25.1,M,,0000*43
$GPGSA,A,3,28,07,15,08,,,,,,,,,7.7,5.8,5.0*3B
$GPGSV,2,1,08,28,63,024,23,17,63,180,10,08,56,101,31,26,47,286,34*74
$GPGSV,2,2,08,15,33,299,26,11,26,076,31,07,21,120,41,27,12,310,27*77
$GPRMC,225840.000,A,3748.7937,N,12217.8636,W,0.38,241.47,150710,,,A*76
$GPGGA,225841.000,3748.7931,N,12217.8645,W,1,05,1.8,-8.0,M,-25.1,M,,0000*48
$GPGSA,A,3,17,28,07,15,08,,,,,,,,2.8,1.8,2.2*36
$GPRMC,225841.000,A,3748.7931,N,12217.8645,W,0.73,248.34,150710,,,A*77
$GPVTG,248.34,T,,M,0.73,N,1.4,K,A*05
$GPGGA,225842.000,3748.7929,N,12217.8651,W,1,05,1.8,-8.6,M,-25.1,M,,0000*41
$GPGSA,A,3,17,28,07,15,08,,,,,,,,2.8,1.8,2.2*36
$GPRMC,225842.000,A,3748.7929,N,12217.8651,W,0.72,257.96,150710,,,A*7F
$GPVTG,257.96,T,,M,0.72,N,1.3,K,A*05
$GPGGA,225843.000,3748.7924,N,12217.8658,W,1,05,1.8,-8.7,M,-25.1,M,,0000*45
$GPGSA,A,3,17,28,07,15,08,,,,,,,,2.8,1.8,2.2*36
$GPRMC,225843.000,A,3748.7924,N,12217.8658,W,0.82,244.82,150710,,,A*72
$GPVTG,244.82,T,,M,0.82,N,1.5,K,A*0B
$GPGGA,225844.000,3748.7925,N,12217.8662,W,1,05,1.8,-10.1,M,-25.1,M,,0000*75
$GPGSA,A,3,17,28,07,15,08,,,,,,,,2.8,1.8,2.2*36
$GPRMC,225844.000,A,3748.7925,N,12217.8662,W,0.32,307.10,150710,,,A*7B
$GPVTG,307.10,T,,M,0.32,N,0.6,K,A*0F
$GPGGA,225845.000,3748.7928,N,12217.8663,W,1,05,1.8,-11.2,M,-25.1,M,,0000*7A
$GPGSA,A,3,17,28,07,15,08,,,,,,,,2.8,1.8,2.2*36
$GPGSV,2,1,08,28,63,024,26,17,63,180,20,08,56,101,34,26,47,286,34*77
$GPGSV,2,2,08,15,33,299,26,11,26,076,33,07,21,120,41,27,12,310,21*73
$GPRMC,225845.000,A,3748.7928,N,12217.8663,W,0.40,341.46,150710,,,A*72
$GPVTG,341.46,T,,M,0.40,N,0.7,K,A*0A
$GPGGA,225846.000,3748.7926,N,12217.8664,W,1,05,1.8,-11.1,M,-25.1,M,,0000*73
$GPGSA,A,3,17,28,07,15,08,,,,,,,,2.8,1.8,2.2*36
$GPRMC,225846.000,A,3748.7926,N,12217.8664,W,0.34,272.31,150710,,,A*7A
$GPVTG,272.31,T,,M,0.34,N,0.6,K,A*09
$GPGGA,225847.000,3748.7926,N,12217.8665,W,1,05,1.8,-11.4,M,-25.1,M,,0000*76
$GPGSA,A,3,17,28,07,15,08,,,,,,,,2.8,1.8,2.2*36
$GPRMC,225847.000,A,3748.7926,N,12217.8665,W,0.39,241.97,150710,,,A*7B
$GPVTG,241.97,T,,M,0.39,N,0.7,K,A*09
$GPGGA,225848.000,3748.7927,N,12217.8665,W,1,05,1.8,-11.8,M,-25.1,M,,0000*74
$GPGSA,A,3,17,28,07,15,08,,,,,,,,2.8,1.8,2.2*36
$GPRMC,225848.000,A,3748.7927,N,12217.8665,W,0.44,34.28,150710,,,A*4B
$GPVTG,34.28,T,,M,0.44,N,0.8,K,A*38
$GPGGA,225849.000,3748.7931,N,12217.8662,W,1,05,1.8,-11.9,M,-25.1,M,,0000*74
$GPGSA,A,3,17,28,07,15,08,,,,,,,,2.8,1.8,2.2*36
$GPRMC,225849.000,A,3748.7931,N,12217.8662,W,0.47,21.17,150710,,,A*41
$GPVTG,21.17,T,,M,0.47,N,0.9,K,A*32
$GPGGA,225850.000,3748.7929,N,12217.8664,W,1,05,1.8,-12.2,M,-25.1,M,,0000*7B
$GPGSA,A,3,17,28,07,15,08,,,,,,,,2.8,1.8,2.2*36
$GPGSV,2,1,08,28,63,024,19,17,63,180,21,08,56,101,26,26,47,286,34*79
$GPGSV,2,2,08,15,33,299,26,11,26,076,33,07,21,120,36,27,12,310,23*71
$GPRMC,225850.000,A,3748.7929,N,12217.8664,W,0.21,223.98,150710,,,A*71
$GPGGA,225851.000,3748.7934,N,12217.8663,W,1,05,1.8,-13.0,M,-25.1,M,,0000*72
$GPGSA,A,3,17,28,07,15,08,,,,,,,,2.8,1.8,2.2*36
$GPRMC,225851.000,A,3748.7934,N,12217.8663,W,0.26,221.87,150710,,,A*70
$GPVTG,221.87,T,,M,0.26,N,0.5,K,A*02
$GPGGA,225852.000,3748.7931,N,12217.8666,W,1,05,1.8,-13.1,M,-25.1,M,,0000*70
$GPGSA,A,3,17,28,07,15,08,,,,,,,,2.8,1.8,2.2*36
$GPRMC,225852.000,A,3748.7931,N,12217.8666,W,0.29,233.87,150710,,,A*7F
$GPVTG,233.87,T,,M,0.29,N,0.5,K,A*0E
$GPGGA,225853.000,3748.7931,N,12217.8667,W,1,05,1.8,-12.6,M,-25.1,M,,0000*76
$GPGSA,A,3,17,28,07,15,08,,,,,,,,2.8,1.8,2.2*36
$GPRMC,225853.000,A,3748.7931,N,12217.8667,W,0.71,12.85,150710,,,A*41
$GPVTG,12.85,T,,M,0.71,N,1.3,K,A*37
$GPGGA,225854.000,3748.7929,N,12217.8669,W,1,05,1.8,-12.8,M,-25.1,M,,0000*78
$GPGSA,A,3,17,28,07,15,08,,,,,,,,2.8,1.8,2.2*36
$GPRMC,225854.000,A,3748.7929,N,12217.8669,W,1.09,23.31,150710,,,A*42
$GPVTG,23.31,T,,M,1.09,N,2.0,K,A*34
$GPGGA,225855.000,3748.7927,N,12217.8670,W,1,05,1.8,-12.5,M,-25.1,M,,0000*72
$GPGSA,A,3,17,28,07,15,08,,,,,,,,2.8,1.8,2.2*36
$GPGSV,2,1,08,28,63,024,26,17,63,180,21,08,56,101,34,26,47,286,33*71
$GPGSV,2,2,08,15,33,299,27,11,26,076,32,07,21,120,35,27,12,310,30*70
$GPRMC,225855.000,A,3748.7927,N,12217.8670,W,0.58,43.50,150710,,,A*41
$GPVTG,43.50,T,,M,0.58,N,1.1,K,A*32
$GPGGA,225856.000,3748.7920,N,12217.8674,W,1,05,1.8,-11.2,M,-25.1,M,,0000*76
$GPGSA,A,3,17,28,07,15,08,,,,,,,,2.8,1.8,2.2*36
$GPRMC,225856.000,A,3748.7920,N,12217.8674,W,0.41,208.08,150710,,,A*79
$GPVTG,208.08,T,,M,0.41,N,0.8,K,A*02
$GPGGA,225857.000,3748.7921,N,12217.8672,W,1,04,5.7,-11.2,M,-25.1,M,,0000*7A
$GPGSA,A,3,28,07,15,08,,,,,,,,,7.6,5.7,5.0*35
$GPRMC,225857.000,A,3748.7921,N,12217.8672,W,0.32,64.46,150710,,,A*49
$GPVTG,64.46,T,,M,0.32,N,0.6,K,A*3A
$GPGGA,225858.000,3748.7922,N,12217.8674,W,1,04,5.7,-12.0,M,-25.1,M,,0000*71
$GPGSA,A,3,28,07,15,08,,,,,,,,,7.6,5.7,5.0*35
$GPRMC,225858.000,A,3748.7922,N,12217.8674,W,0.69,46.69,150710,,,A*40
$GPVTG,46.69,T,,M,0.69,N,1.3,K,A*3D
$GPGGA,225859.000,3748.7925,N,12217.8674,W,1,05,1.8,-12.7,M,-25.1,M,,0000*7A
$GPGSA,A,3,17,28,07,15,08,,,,,,,,2.8,1.8,2.2*36
$GPRMC,225859.000,A,3748.7925,N,12217.8674,W,0.11,20.38,150710,,,A*4D
$GPVTG,20.38,T,,M,0.11,N,0.2,K,A*36
$GPGGA,225900.000,3748.7917,N,12217.8682,W,1,05,1.8,-11.7,M,-25.1,M,,0000*7C
$GPGSA,A,3,17,28,07,15,08,,,,,,,,2.8,1.8,2.2*36
$GPGSV,2,1,08,28,63,024,32,17,63,180,20,08,56,101,29,26,47,286,33*79
$GPGSV,2,2,08,15,33,299,27,11,26,076,27,07,21,120,37,27,12,310,30*76
$GPRMC,225900.000,A,3748.7917,N,12217.8682,W,0.68,221.06,150710,,,A*78
$GPVTG,221.06,T,,M,0.68,N,1.3,K,A*06
$GPGGA,225901.000,3748.7918,N,12217.8680,W,1,05,1.8,-11.4,M,-25.1,M,,0000*73
$GPGSA,A,3,17,28,07,15,08,,,,,,,,2.8,1.8,2.2*36
$GPRMC,225901.000,A,3748.7918,N,12217.8680,W,0.18,75.35,150710,,,A*40
$GPVTG,75.35,T,,M,0.18,N,0.3,K,A*33
$GPGGA,225902.000,3748.7923,N,12217.8671,W,1,05,1.8,-10.5,M,-25.1,M,,0000*76
$GPGSA,A,3,17,28,07,15,08,,,,,,,,2.8,1.8,2.2*36
$GPRMC,225902.000,A,3748.7923,N,12217.8671,W,1.01,61.75,150710,,,A*4D
$GPVTG,61.75,T,,M,1.01,N,1.9,K,A*30
$GPGGA,225903.000,3748.7935,N,12217.8657,W,1,05,1.8,-10.6,M,-25.1,M,,0000*77
$GPGSA,A,3,17,28,07,15,08,,,,,,,,2.8,1.8,2.2*36
$GPRMC,225903.000,A,3748.7935,N,12217.8657,W,1.94,57.79,150710,,,A*4A
$GPVTG,57.79,T,,M,1.94,N,3.6,K,A*38
$GPGGA,225904.000,3748.7947,N,12217.8643,W,1,05,1.8,-11.0,M,-25.1,M,,0000*77
$GPGSA,A,3,17,28,07,15,08,,,,,,,,2.8,1.8,2.2*36
$GPRMC,225904.000,A,3748.7947,N,12217.8643,W,1.47,53.35,150710,,,A*4F
$GPVTG,53.35,T,,M,1.47,N,2.7,K,A*3A
$GPGGA,225905.000,3748.7954,N,12217.8638,W,1,05,1.8,-11.9,M,-25.1,M,,0000*71
$GPGSA,A,3,17,28,07,15,08,,,,,,,,2.8,1.8,2.2*36
$GPGSV,2,1,08,28,63,024,24,17,63,180,19,08,56,101,32,26,47,286,33*7E
$GPGSV,2,2,08,15,33,299,33,11,26,076,29,07,21,120,36,27,12,310,26*7B
$GPRMC,225905.000,A,3748.7954,N,12217.8638,W,0.78,35.71,150710,,,A*4D
$GPVTG,35.71,T,,M,0.78,N,1.4,K,A*37
$GPGGA,225906.000,3748.7955,N,12217.8638,W,1,04,5.7,-12.1,M,-25.1,M,,0000*72
$GPGSA,A,3,28,07,15,08,,,,,,,,,7.6,5.7,5.0*35
$GPRMC,225906.000,A,3748.7955,N,12217.8638,W,0.43,32.27,150710,,,A*43
$GPVTG,32.27,T,,M,0.43,N,0.8,K,A*36
$GPGGA,225907.000,3748.7948,N,12217.8644,W,1,04,5.7,-13.1,M,-25.1,M,,0000*75
$GPGSA,A,3,28,07,15,08,,,,,,,,,7.6,5.7,4.9*3D
$GPRMC,225907.000,A,3748.7948,N,12217.8644,W,0.30,212.15,150710,,,A*70
$GPVTG,212.15,T,,M,0.30,N,0.6,K,A*0D
$GPGGA,225908.000,3748.7951,N,12217.8644,W,1,05,1.8,-14.3,M,-25.1,M,,0000*7D
$GPGSA,A,3,17,28,07,15,08,,,,,,,,2.8,1.8,2.2*36
$GPRMC,225908.000,A,3748.7951,N,12217.8644,W,1.06,25.88,150710,,,A*41
$GPVTG,25.88,T,,M,1.06,N,2.0,K,A*3F
$GPGGA,225909.000,3748.7961,N,12217.8636,W,1,05,1.8,-15.6,M,-25.1,M,,0000*7E
$GPGSA,A,3,17,28,07,15,08,,,,,,,,2.8,1.8,2.2*36
$GPRMC,225909.000,A,3748.7961,N,12217.8636,W,1.66,30.61,150710,,,A*43
$GPVTG,30.61,T,,M,1.66,N,3.1,K,A*3A
$GPGGA,225910.000,3748.7965,N,12217.8637,W,1,04,1.9,-16.3,M,-25.1,M,,0000*75
$GPGSA,A,3,17,28,07,15,,,,,,,,,3.0,1.9,2.3*37
$GPGSV,2,1,08,17,63,180,16,28,63,024,24,08,56,102,16,26,47,285,30*74
$GPGSV,2,2,08,15,33,299,24,11,26,076,30,07,21,120,38,27,12,310,27*7A
$GPRMC,225910.000,A,3748.7965,N,12217.8637,W,0.75,23.87,150710,,,A*47
$GPVTG,23.87,T,,M,0.75,N,1.4,K,A*34
$GPGGA,225911.000,3748.7961,N,12217.8633,W,1,05,1.8,-14.8,M,-25.1,M,,0000*7D
$GPGSA,A,3,17,28,07,15,08,,,,,,,,2.8,1.8,2.2*36
$GPRMC,225911.000,A,3748.7961,N,12217.8633,W,0.36,79.86,150710,,,A*4F
$GPVTG,79.86,T,,M,0.36,N,0.7,K,A*3F
$GPGGA,225912.000,3748.7953,N,12217.8638,W,1,05,1.8,-13.7,M,-25.1,M,,0000*7C
$GPGSA,A,3,17,28,07,15,08,,,,,,,,2.8,1.8,2.2*36
$GPRMC,225912.000,A,3748.7953,N,12217.8638,W,0.53,191.89,150710,,,A*7D
$GPVTG,191.89,T,,M,0.53,N,1.0,K,A*02
$GPGGA,225913.000,3748.7945,N,12217.8638,W,1,05,1.8,-11.9,M,-25.1,M,,0000*76
$GPGSA,A,3,17,28,07,15,08,,,,,,,,2.8,1.8,2.2*36
$GPRMC,225913.000,A,3748.7945,N,12217.8638,W,0.96,204.58,150710,,,A*71
$GPVTG,204.58,T,,M,0.96,N,1.8,K,A*00
$GPGGA,225914.000,3748.7943,N,12217.8639,W,1,04,5.7,-11.4,M,-25.1,M,,0000*71
$GPGSA,A,3,28,07,15,08,,,,,,,,,7.5,5.7,4.9*3E
$GPRMC,225914.000,A,3748.7943,N,12217.8639,W,1.33,225.93,150710,,,A*7B
$GPVTG,225.93,T,,M,1.33,N,2.5,K,A*04
$GPGGA,225915.000,3748.7941,N,12217.8642,W,1,04,5.7,-11.1,M,-25.1,M,,0000*7B
$GPGSA,A,3,28,07,15,08,,,,,,,,,7.5,5.7,4.9*3E
$GPGSV,2,1,08,17,63,180,16,28,63,024,27,08,56,102,27,26,47,285,33*76
$GPGSV,2,2,08,15,33,299,23,11,26,076,36,07,21,120,38,27,12,310,15*7A
$GPRMC,225915.000,A,3748.7941,N,12217.8642,W,1.50,234.27,150710,,,A*7E
$GPVTG,234.27,T,,M,1.50,N,2.8,K,A*03
$GPGGA,225916.000,3748.7936,N,12217.8644,W,1,05,1.8,-10.2,M,-25.1,M,,0000*76
$GPGSA,A,3,17,28,07,15,08,,,,,,,,2.8,1.8,2.2*36
$GPRMC,225916.000,A,3748.7936,N,12217.8644,W,0.60,197.26,150710,,,A*72
$GPVTG,197.26,T,,M,0.60,N,1.1,K,A*00
$GPGGA,225917.000,3748.7934,N,12217.8650,W,1,05,1.8,-11.0,M,-25.1,M,,0000*73
$GPGSA,A,3,17,28,07,15,08,,,,,,,,2.8,1.8,2.2*36
$GPRMC,225917.000,A,3748.7934,N,12217.8650,W,0.48,95.48,150710,,,A*45
$GPVTG,95.48,T,,M,0.48,N,0.9,K,A*38
$GPGGA,225918.000,3748.7940,N,12217.8639,W,1,05,1.8,-10.0,M,-25.1,M,,0000*71
$GPGSA,A,3,17,28,07,15,08,,,,,,,,2.8,1.8,2.2*36
$GPRMC,225918.000,A,3748.7940,N,12217.8639,W,1.91,66.46,150710,,,A*41
$GPVTG,66.46,T,,M,1.91,N,3.5,K,A*30
$GPGGA,225919.000,3748.7946,N,12217.8629,W,1,04,3.6,-9.9,M,-25.1,M,,0000*4B
$GPGSA,A,3,17,28,07,08,,,,,,,,,6.3,3.6,5.1*35
$GPRMC,225919.000,A,3748.7946,N,12217.8629,W,2.99,61.58,150710,,,A*44
$GPVTG,61.58,T,,M,2.99,N,5.5,K,A*35
$GPGGA,225920.000,3748.7942,N,12217.8618,W,1,05,1.8,-6.9,M,-25.1,M,,0000*45
$GPGSA,A,3,17,28,07,15,08,,,,,,,,2.8,1.8,2.2*36
$GPGSV,2,1,08,17,63,180,14,28,63,024,26,08,56,102,28,26,47,285,32*7B
$GPGSV,2,2,08,15,33,299,16,11,26,076,37,07,21,120,39,27,12,310,18*71
$GPRMC,225920.000,A,3748.7942,N,12217.8618,W,3.26,68.07,150710,,,A*4E
$GPVTG,68.07,T,,M,3.26,N,6.0,K,A*35
$GPGGA,225921.000,3748.7948,N,12217.8617,W,1,05,1.8,-7.4,M,-25.1,M,,0000*4D
$GPGSA,A,3,17,28,07,15,08,,,,,,,,2.8,1.8,2.2*36
$GPRMC,225921.000,A,3748.7948,N,12217.8617,W,2.36,49.26,150710,,,A*4A
$GPVTG,49.26,T,,M,2.36,N,4.4,K,A*33
$GPGGA,225922.000,3748.7942,N,12217.8622,W,1,05,1.8,-6.9,M,-25.1,M,,0000*4E
$GPGSA,A,3,17,28,07,15,08,,,,,,,,2.8,1.8,2.2*36
$GPRMC,225922.000,A,3748.7942,N,12217.8622,W,1.31,49.97,150710,,,A*4B
$GPVTG,49.97,T,,M,1.31,N,2.4,K,A*3B
$GPGGA,225923.000,3748.7934,N,12217.8638,W,1,05,1.8,-8.0,M,-25.1,M,,0000*42
$GPGSA,A,3,17,28,07,15,08,,,,,,,,2.8,1.8,2.2*36
$GPRMC,225923.000,A,3748.7934,N,12217.8638,W,0.31,15.76,150710,,,A*47
$GPVTG,15.76,T,,M,0.31,N,0.6,K,A*3C
$GPGGA,225924.000,3748.7930,N,12217.8648,W,1,05,1.8,-9.1,M,-25.1,M,,0000*46
$GPGSA,A,3,17,28,07,15,08,,,,,,,,2.8,1.8,2.2*36
$GPRMC,225924.000,A,3748.7930,N,12217.8648,W,0.25,201.36,150710,,,A*75
$GPVTG,201.36,T,,M,0.25,N,0.5,K,A*09
$GPGGA,225925.000,3748.7926,N,12217.8653,W,1,05,1.8,-8.8,M,-25.1,M,,0000*42
$GPGSA,A,3,17,28,07,15,08,,,,,,,,2.8,1.8,2.2*36
$GPGSV,2,1,08,17,63,180,21,28,63,024,29,08,56,102,35,26,47,285,25*78
$GPGSV,2,2,08,15,33,299,26,11,26,076,36,07,21,120,35,27,12,310,25*71
$GPRMC,225925.000,A,3748.7926,N,12217.8653,W,0.88,183.00,150710,,,A*72
$GPGGA,225926.000,3748.7923,N,12217.8647,W,1,05,1.8,-7.3,M,-25.1,M,,0000*45
$GPGSA,A,3,17,28,07,15,08,,,,,,,,2.8,1.8,2.2*36
$GPRMC,225926.000,A,3748.7923,N,12217.8647,W,1.33,194.53,150710,,,A*70
$GPVTG,194.53,T,,M,1.33,N,2.5,K,A*01
$GPGGA,225927.000,3748.7921,N,12217.8648,W,1,05,1.8,-7.2,M,-25.1,M,,0000*48
$GPGSA,A,3,17,28,07,15,08,,,,,,,,2.8,1.8,2.2*36
$GPRMC,225927.000,A,3748.7921,N,12217.8648,W,0.56,200.67,150710,,,A*77
$GPVTG,200.67,T,,M,0.56,N,1.0,K,A*0C
$GPGGA,225928.000,3748.7919,N,12217.8649,W,1,05,1.8,-7.3,M,-25.1,M,,0000*4C
$GPGSA,A,3,17,28,07,15,08,,,,,,,,2.8,1.8,2.2*36
$GPRMC,225928.000,A,3748.7919,N,12217.8649,W,1.19,197.37,150710,,,A*70
$GPVTG,197.37,T,,M,1.19,N,2.2,K,A*0F
$GPGGA,225929.000,3748.7918,N,12217.8651,W,1,05,1.8,-6.8,M,-25.1,M,,0000*4F
$GPGSA,A,3,17,28,07,15,08,,,,,,,,2.8,1.8,2.2*36
$GPRMC,225929.000,A,3748.7918,N,12217.8651,W,0.65,182.30,150710,,,A*70
$GPVTG,182.30,T,,M,0.65,N,1.2,K,A*05
$GPGGA,225930.000,3748.7917,N,12217.8652,W,1,04,5.6,-6.3,M,-25.1,M,,0000*4B
$GPGSA,A,3,28,07,15,08,,,,,,,,,7.5,5.6,4.9*3F
$GPGSV,2,1,08,17,63,180,08,28,63,024,37,08,56,102,31,26,47,285,29*74
$GPGSV,2,2,08,15,33,299,35,11,26,076,34,07,21,120,27,27,12,310,35*73
$GPRMC,225930.000,A,3748.7917,N,12217.8652,W,0.41,207.19,150710,,,A*77
$GPVTG,207.19,T,,M,0.41,N,0.8,K,A*0D
$GPGGA,225931.000,3748.7916,N,12217.8653,W,1,04,5.6,-5.8,M,-25.1,M,,0000*42
$GPGSA,A,3,28,07,15,08,,,,,,,,,7.5,5.6,4.9*3F
$GPRMC,225931.000,A,3748.7916,N,12217.8653,W,0.41,206.88,150710,,,A*7F
$GPVTG,206.88,T,,M,0.41,N,0.8,K,A*04
$GPGGA,225932.000,3748.7915,N,12217.8652,W,1,04,5.6,-6.3,M,-25.1,M,,0000*4B
$GPGSA,A,3,28,07,15,08,,,,,,,,,7.5,5.6,4.9*3F
$GPRMC,225932.000,A,3748.7915,N,12217.8652,W,0.19,262.46,150710,,,A*73
$GPVTG,262.46,T,,M,0.19,N,0.4,K,A*05
$GPGGA,225933.000,3748.7912,N,12217.8650,W,1,04,5.6,-7.4,M,-25.1,M,,0000*49
$GPGSA,A,3,28,07,15,08,,,,,,,,,7.4,5.6,4.9*3E
$GPRMC,225933.000,A,3748.7912,N,12217.8650,W,0.37,188.71,150710,,,A*78
$GPVTG,188.71,T,,M,0.37,N,0.7,K,A*09
$GPGGA,225934.000,3748.7911,N,12217.8648,W,1,04,5.6,-8.4,M,-25.1,M,,0000*4B
$GPGSA,A,3,28,07,15,08,,,,,,,,,7.4,5.6,4.9*3E
$GPRMC,225934.000,A,3748.7911,N,12217.8648,W,0.14,205.85,150710,,,A*79
$GPVTG,205.85,T,,M,0.14,N,0.3,K,A*01
$GPGGA,225935.000,3748.7910,N,12217.8645,W,1,04,5.6,-9.5,M,-25.1,M,,0000*46
$GPGSA,A,3,28,07,15,08,,,,,,,,,7.4,5.6,4.9*3E
$GPGSV,2,1,08,17,63,180,,28,63,024,38,08,56,102,33,26,47,285,26*7E
$GPGSV,2,2,08,15,33,299,35,11,26,076,34,07,21,120,20,27,12,310,35*74
$GPRMC,225935.000,A,3748.7910,N,12217.8645,W,0.23,346.09,150710,,,A*72
$GPGGA,225936.000,3748.7911,N,12217.8645,W,1,04,5.6,-9.4,M,-25.1,M,,0000*45
$GPGSA,A,3,28,07,15,08,,,,,,,,,7.4,5.6,4.9*3E
$GPRMC,225936.000,A,3748.7911,N,12217.8645,W,0.18,10.97,150710,,,A*4F
$GPVTG,10.97,T,,M,0.18,N,0.3,K,A*38
$GPGGA,225937.000,3748.7912,N,12217.8645,W,1,04,5.6,-9.4,M,-25.1,M,,0000*47
$GPGSA,A,3,28,07,15,08,,,,,,,,,7.4,5.6,4.9*3E
$GPRMC,225937.000,A,3748.7912,N,12217.8645,W,0.24,6.03,150710,,,A*78
$GPVTG,6.03,T,,M,0.24,N,0.4,K,A*0A
$GPGGA,225938.000,3748.7912,N,12217.8645,W,1,04,5.6,-9.4,M,-25.1,M,,0000*48
$GPGSA,A,3,28,07,15,08,,,,,,,,,7.4,5.6,4.9*3E
$GPRMC,225938.000,A,3748.7912,N,12217.8645,W,0.06,27.10,150710,,,A*46
$GPVTG,27.10,T,,M,0.06,N,0.1,K,A*3E
$GPGGA,225939.000,3748.7913,N,12217.8644,W,1,04,5.6,-9.4,M,-25.1,M,,0000*49
$GPGSA,A,3,28,07,15,08,,,,,,,,,7.4,5.6,4.9*3E
$GPRMC,225939.000,A,3748.7913,N,12217.8644,W,0.03,139.00,150710,,,A*7D
$GPVTG,139.00,T,,M,0.03,N,0.1,K,A*04
$GPGGA,225940.000,3748.7913,N,12217.8644,W,1,04,5.6,-9.5,M,-25.1,M,,0000*46
$GPGSA,A,3,28,07,15,08,,,,,,,,,7.4,5.6,4.9*3E
$GPGSV,2,1,08,17,63,180,,28,63,025,38,08,55,102,33,26,47,285,*78
$GPGSV,2,2,08,15,33,298,34,11,26,076,34,07,21,120,28,27,12,310,35*7C
$GPRMC,225940.000,A,3748.7913,N,12217.8644,W,0.06,189.15,150710,,,A*79
$GPVTG,189.15,T,,M,0.06,N,0.1,K,A*0E
$GPGGA,225941.000,3748.7914,N,12217.8641,W,1,04,5.6,-10.8,M,-25.1,M,,0000*70
$GPGSA,A,3,28,07,15,08,,,,,,,,,7.4,5.6,4.9*3E
$GPRMC,225941.000,A,3748.7914,N,12217.8641,W,0.08,117.85,150710,,,A*7A
$GPVTG,117.85,T,,M,0.08,N,0.1,K,A*0E
$GPGGA,225942.000,3748.7915,N,12217.8641,W,1,04,5.6,-10.7,M,-25.1,M,,0000*7D
$GPGSA,A,3,28,07,15,08,,,,,,,,,7.4,5.6,4.9*3E
$GPRMC,225942.000,A,3748.7915,N,12217.8641,W,0.04,106.31,150710,,,A*7B
$GPVTG,106.31,T,,M,0.04,N,0.1,K,A*0D
$GPGGA,225943.000,3748.7916,N,12217.8641,W,1,04,5.6,-10.5,M,-25.1,M,,0000*7D
$GPGSA,A,3,28,07,15,08,,,,,,,,,7.4,5.6,4.9*3E
$GPRMC,225943.000,A,3748.7916,N,12217.8641,W,0.07,24.70,150710,,,A*4E
$GPVTG,24.70,T,,M,0.07,N,0.1,K,A*3A
$GPGGA,225944.000,3748.7916,N,12217.8643,W,1,04,5.6,-9.8,M,-25.1,M,,0000*4D
$GPGSA,A,3,28,07,15,08,,,,,,,,,7.4,5.6,4.9*3E
$GPRMC,225944.000,A,3748.7916,N,12217.8643,W,0.08,166.91,150710,,,A*7C
$GPVTG,166.91,T,,M,0.08,N,0.2,K,A*0E
$GPGGA,225945.000,3748.7916,N,12217.8645,W,1,04,5.6,-8.9,M,-25.1,M,,0000*4A
$GPGSA,A,3,28,07,15,08,,,,,,,,,7.4,5.6,4.9*3E
$GPGSV,2,1,08,17,63,180,,28,63,025,38,08,55,102,33,26,47,285,21*7B
$GPGSV,2,2,08,15,33,298,33,11,26,076,34,07,21,120,27,27,12,310,36*77
$GPRMC,225945.000,A,3748.7916,N,12217.8645,W,0.23,179.75,150710,,,A*76
$GPGGA,225946.000,3748.7916,N,12217.8644,W,1,03,3.8,-9.1,M,-25.1,M,,0000*4E
$GPGSA,A,2,28,15,08,,,,,,,,,,3.9,3.8,1.0*35
$GPRMC,225946.000,A,3748.7916,N,12217.8644,W,0.05,197.78,150710,,,A*7D
$GPVTG,197.78,T,,M,0.05,N,0.1,K,N*06
$GPGGA,225947.000,3748.7917,N,12217.8645,W,1,04,5.5,-8.6,M,-25.1,M,,0000*45
$GPGSA,A,3,28,07,15,08,,,,,,,,,7.4,5.5,4.9*3D
$GPRMC,225947.000,A,3748.7917,N,12217.8645,W,0.41,1.90,150710,,,A*74
$GPVTG,1.90,T,,M,0.41,N,0.8,K,A*08
$GPGGA,225948.000,3748.7919,N,12217.8646,W,1,04,5.5,-8.4,M,-25.1,M,,0000*45
$GPGSA,A,3,28,07,15,08,,,,,,,,,7.4,5.5,4.9*3D
$GPRMC,225948.000,A,3748.7919,N,12217.8646,W,0.46,346.39,150710,,,A*72
$GPVTG,346.39,T,,M,0.46,N,0.9,K,A*0D
$GPGGA,225949.000,3748.7908,N,12217.8659,W,1,04,1.9,-4.2,M,-25.1,M,,0000*48
$GPGSA,A,3,17,28,07,15,,,,,,,,,3.0,1.9,2.3*37
$GPRMC,225949.000,A,3748.7908,N,12217.8659,W,0.43,268.52,150710,,,A*78
$GPVTG,268.52,T,,M,0.43,N,0.8,K,A*09
$GPGGA,225950.000,3748.7904,N,12217.8666,W,1,05,1.8,-1.5,M,-25.1,M,,0000*42
$GPGSA,A,3,17,28,07,15,08,,,,,,,,2.8,1.8,2.2*36
$GPGSV,2,1,08,17,63,180,19,28,63,025,33,08,55,102,21,26,47,285,19*70
$GPGSV,2,2,08,15,33,298,28,11,26,076,31,07,21,120,24,27,12,310,35*78
$GPRMC,225950.000,A,3748.7904,N,12217.8666,W,0.80,212.33,150710,,,A*75
$GPVTG,212.33,T,,M,0.80,N,1.5,K,A*00
$GPGGA,225951.000,3748.7916,N,12217.8657,W,1,05,1.8,-4.0,M,-25.1,M,,0000*42
$GPGSA,A,3,17,28,07,15,08,,,,,,,,2.8,1.8,2.2*36
$GPRMC,225951.000,A,3748.7916,N,12217.8657,W,0.70,200.70,150710,,,A*7E
$GPVTG,200.70,T,,M,0.70,N,1.3,K,A*0D
$GPGGA,225952.000,3748.7931,N,12217.8647,W,1,05,1.8,-7.3,M,-25.1,M,,0000*45
$GPGSA,A,3,17,28,07,15,08,,,,,,,,2.8,1.8,2.2*36
$GPRMC,225952.000,A,3748.7931,N,12217.8647,W,0.26,307.73,150710,,,A*7F
$GPVTG,307.73,T,,M,0.26,N,0.5,K,A*0C
$GPGGA,225953.000,3748.7943,N,12217.8638,W,1,05,1.8,-9.8,M,-25.1,M,,0000*4C
$GPGSA,A,3,17,28,07,15,08,,,,,,,,2.8,1.8,2.2*36
$GPRMC,225953.000,A,3748.7943,N,12217.8638,W,0.63,358.75,150710,,,A*7E
$GPVTG,358.75,T,,M,0.63,N,1.2,K,A*07
$GPGGA,225954.000,3748.7945,N,12217.8637,W,1,05,1.8,-11.9,M,-25.1,M,,0000*7A
$GPGSA,A,3,17,28,07,15,08,,,,,,,,2.8,1.8,2.2*36
$GPRMC,225954.000,A,3748.7945,N,12217.8637,W,0.46,171.98,150710,,,A*7D
$GPVTG,171.98,T,,M,0.46,N,0.9,K,A*00
$GPGGA,225955.000,3748.7943,N,12217.8636,W,1,05,1.8,-13.8,M,-25.1,M,,0000*7F
$GPGSA,A,3,17,28,07,15,08,,,,,,,,2.8,1.8,2.2*36
$GPGSV,2,1,08,17,63,180,19,28,63,025,34,08,55,102,20,26,47,285,23*7F
$GPGSV,2,2,08,15,33,298,25,11,26,076,33,07,21,120,20,27,12,310,34*72
$GPRMC,225955.000,A,3748.7943,N,12217.8636,W,0.55,183.22,150710,,,A*75
$GPGGA,225956.000,3748.7936,N,12217.8637,W,1,05,1.8,-13.6,M,-25.1,M,,0000*71
$GPGSA,A,3,17,28,07,15,08,,,,,,,,2.8,1.8,2.2*36
$GPRMC,225956.000,A,3748.7936,N,12217.8637,W,0.90,197.68,150710,,,A*77
$GPVTG,197.68,T,,M,0.90,N,1.7,K,A*03
$GPGGA,225957.000,3748.7932,N,12217.8634,W,1,05,1.8,-14.5,M,-25.1,M,,0000*73
$GPGSA,A,3,17,28,07,15,08,,,,,,,,2.8,1.8,2.2*36
$GPRMC,225957.000,A,3748.7932,N,12217.8634,W,0.95,195.45,150710,,,A*79
$GPVTG,195.45,T,,M,0.95,N,1.8,K,A*04
$GPGGA,225958.000,3748.7931,N,12217.8633,W,1,05,1.8,-16.7,M,-25.1,M,,0000*78
$GPGSA,A,3,17,28,07,15,08,,,,,,,,2.8,1.8,2.2*36
$GPRMC,225958.000,A,3748.7931,N,12217.8633,W,0.76,191.37,150710,,,A*7E
$GPVTG,191.37,T,,M,0.76,N,1.4,K,A*04
$GPGGA,225959.000,3748.7925,N,12217.8638,W,1,05,1.8,-16.1,M,-25.1,M,,0000*71
$GPGSA,A,3,17,28,07,15,08,,,,,,,,2.8,1.8,2.2*36
$GPRMC,225959.000,A,3748.7925,N,12217.8638,W,0.51,189.26,150710,,,A*7D
$GPVTG,189.26,T,,M,0.51,N,0.9,K,A*04
$GPGGA,230000.000,3748.7919,N,12217.8650,W,1,05,1.8,-15.7,M,-25.1,M,,0000*74
$GPGSA,A,3,17,28,07,15,08,,,,,,,,2.8,1.8,2.2*36
$GPGSV,2,1,08,17,63,180,19,28,63,025,33,08,55,102,29,26,47,285,23*71
$GPGSV,2,2,08,15,33,298,32,11,26,076,34,07,21,120,29,27,12,310,29*76
$GPRMC,230000.000,A,3748.7919,N,12217.8650,W,0.94,187.91,150710,,,A*76
$GPVTG,187.91,T,,M,0.94,N,1.7,K,A*00
$GPGGA,230001.000,3748.7916,N,12217.8658,W,1,05,1.8,-14.9,M,-25.1,M,,0000*7D
$GPGSA,A,3,17,28,07,15,08,,,,,,,,2.8,1.8,2.2*36
$GPRMC,230001.000,A,3748.7916,N,12217.8658,W,0.75,254.58,150710,,,A*77
$GPVTG,254.58,T,,M,0.75,N,1.4,K,A*04
$GPGGA,230002.000,3748.7919,N,12217.8665,W,1,05,1.8,-15.0,M,-25.1,M,,0000*77
$GPGSA,A,3,17,28,07,15,08,,,,,,,,2.8,1.8,2.2*36
$GPRMC,230002.000,A,3748.7919,N,12217.8665,W,1.14,302.42,150710,,,A*7A
$GPVTG,302.42,T,,M,1.14,N,2.1,K,A*0D
$GPGGA,230003.000,3748.7918,N,12217.8672,W,1,06,1.5,-14.7,M,-25.1,M,,0000*79
$GPGSA,A,3,17,28,07,11,15,08,,,,,,,2.5,1.5,2.0*34
$GPRMC,230003.000,A,3748.7918,N,12217.8672,W,0.77,287.57,150710,,,A*70
$GPVTG,287.57,T,,M,0.77,N,1.4,K,A*07
$GPGGA,230004.000,3748.7908,N,12217.8682,W,1,06,1.5,-12.8,M,-25.1,M,,0000*79
$GPGSA,A,3,17,28,07,11,15,08,,,,,,,2.5,1.5,2.0*34
$GPRMC,230004.000,A,3748.7908,N,12217.8682,W,0.57,262.04,150710,,,A*76
$GPVTG,262.04,T,,M,0.57,N,1.1,K,A*0D
$GPGGA,230005.000,3748.7907,N,12217.8682,W,1,06,1.5,-11.7,M,-25.1,M,,0000*7B
$GPGSA,A,3,17,28,07,11,15,08,,,,,,,2.5,1.5,2.0*34
$GPGSV,2,1,08,17,64,180,22,28,63,025,31,08,55,102,40,26,47,285,25*75
$GPGSV,2,2,08,15,33,298,27,11,26,076,35,07,21,120,39,27,12,310,30*7A
$GPRMC,230005.000,A,3748.7907,N,12217.8682,W,0.35,234.53,150710,,,A*7D
$GPVTG,234.53,T,,M,0.35,N,0.6,K,A*0E
$GPGGA,230006.000,3748.7907,N,12217.8684,W,1,06,1.5,-11.2,M,-25.1,M,,0000*7B
$GPGSA,A,3,17,28,07,11,15,08,,,,,,,2.5,1.5,2.0*34
$GPRMC,230006.000,A,3748.7907,N,12217.8684,W,0.27,358.13,150710,,,A*74
$GPVTG,358.13,T,,M,0.27,N,0.5,K,A*01
$GPGGA,230007.000,3748.7906,N,12217.8684,W,1,06,1.5,-10.6,M,-25.1,M,,0000*7E
$GPGSA,A,3,17,28,07,11,15,08,,,,,,,2.5,1.5,2.0*34
$GPRMC,230007.000,A,3748.7906,N,12217.8684,W,0.23,128.62,150710,,,A*73
$GPVTG,128.62,T,,M,0.23,N,0.4,K,A*07
$GPGGA,230008.000,3748.7906,N,12217.8683,W,1,06,1.5,-9.9,M,-25.1,M,,0000*41
$GPGSA,A,3,17,28,07,11,15,08,,,,,,,2.5,1.5,2.0*34
$GPRMC,230008.000,A,3748.7906,N,12217.8683,W,0.35,64.76,150710,,,A*40
$GPVTG,64.76,T,,M,0.35,N,0.7,K,A*3F
$GPGGA,230009.000,3748.7898,N,12217.8686,W,1,05,1.8,-8.2,M,-25.1,M,,0000*47
$GPGSA,A,3,17,28,11,15,08,,,,,,,,3.3,1.8,2.8*31
$GPRMC,230009.000,A,3748.7898,N,12217.8686,W,0.42,285.82,150710,,,A*74
$GPVTG,285.82,T,,M,0.42,N,0.8,K,A*06
$GPGGA,230010.000,3748.7889,N,12217.8689,W,1,06,1.5,-6.4,M,-25.1,M,,0000*46
$GPGSA,A,3,17,28,07,11,15,08,,,,,,,2.5,1.5,2.0*34
$GPGSV,2,1,08,17,64,180,21,28,63,025,32,08,55,102,38,26,47,285,28*77
$GPGSV,2,2,08,15,33,298,27,11,26,076,33,07,21,120,26,27,12,310,25*76
$GPRMC,230010.000,A,3748.7889,N,12217.8689,W,0.57,211.03,150710,,,A*73
$GPVTG,211.03,T,,M,0.57,N,1.1,K,A*0E
$GPGGA,230011.000,3748.7889,N,12217.8692,W,1,06,1.5,-6.1,M,-25.1,M,,0000*48
$GPGSA,A,3,17,28,07,11,15,08,,,,,,,2.5,1.5,2.0*34
$GPRMC,230011.000,A,3748.7889,N,12217.8692,W,0.51,284.64,150710,,,A*73
$GPVTG,284.64,T,,M,0.51,N,1.0,K,A*04
$GPGGA,230012.000,3748.7891,N,12217.8696,W,1,06,1.5,-6.1,M,-25.1,M,,0000*46
$GPGSA,A,3,17,28,07,11,15,08,,,,,,,2.5,1.5,2.0*34
