$ADVER,3080,2.3
$GPRMC,181325.720,A,3748.8003,N,12217.8591,W,0.04,158.74,260711,,,A*7C
$GPGGA,181326.720,3748.8023,N,12217.8575,W,1,04,2.5,-15.2,M,-25.1,M,,0000*7E
$GPGSA,A,3,13,23,19,08,,,,,,,,,4.6,2.5,3.8*3F
$GPRMC,181326.720,A,3748.8023,N,12217.8575,W,0.87,42.17,260711,,,A*43
$GPVTG,42.17,T,,M,0.87,N,1.6,K,A*35
$GPGGA,181327.720,3748.8006,N,12217.8588,W,1,04,2.5,-13.7,M,-25.1,M,,0000*79
$GPGSA,A,3,13,23,19,08,,,,,,,,,4.6,2.5,3.8*3F
$GPRMC,181327.720,A,3748.8006,N,12217.8588,W,0.15,52.92,260711,,,A*40
$GPVTG,52.92,T,,M,0.15,N,0.3,K,A*36
$GPGGA,181328.000,3748.8006,N,12217.8589,W,1,04,2.5,-13.6,M,-25.1,M,,0000*73
$GPGSA,A,3,13,23,19,08,,,,,,,,,4.6,2.5,3.8*3F
$GPRMC,181328.000,A,3748.8006,N,12217.8589,W,0.05,132.08,260711,,,A*7E
$GPVTG,132.08,T,,M,0.05,N,0.1,K,A*01
$GPGGA,181329.000,3748.8009,N,12217.8586,W,1,04,2.5,-13.9,M,-25.1,M,,0000*7D
$GPGSA,A,3,13,23,19,08,,,,,,,,,4.6,2.5,3.8*3F
$GPGSV,3,1,11,13,58,125,34,08,49,298,34,19,29,091,24,23,28,134,32*75
$GPGSV,3,2,11,07,66,346,34,10,38,249,21,28,29,218,22,03,24,057,27*77
$GPGSV,3,3,11,05,20,307,30,06,14,046,22,16,07,043,22*4F
$GPRMC,181329.000,A,3748.8009,N,12217.8586,W,0.11,122.90,260711,,,A*7A
$GPVTG,122.90,T,,M,0.11,N,0.2,K,A*07
$GPGGA,181330.000,3748.8009,N,12217.8585,W,1,04,2.5,-13.9,M,-25.1,M,,0000*76
$GPGSA,A,3,13,23,19,08,,,,,,,,,4.6,2.5,3.8*3F
$GPRMC,181330.000,A,3748.8009,N,12217.8585,W,0.42,69.19,260711,,,A*48
$GPVTG,69.19,T,,M,0.42,N,0.8,K,A*34
$GPGGA,181331.000,3748.8008,N,12217.8586,W,1,04,2.5,-13.9,M,-25.1,M,,0000*75
$GPGSA,A,3,13,23,19,08,,,,,,,,,4.6,2.5,3.8*3F
$GPRMC,181331.000,A,3748.8008,N,12217.8586,W,0.20,181.56,260711,,,A*73
$GPVTG,181.56,T,,M,0.20,N,0.4,K,A*00
$GPGGA,181332.000,3748.8006,N,12217.8586,W,1,04,2.5,-13.9,M,-25.1,M,,0000*78
$GPGSA,A,3,13,23,19,08,,,,,,,,,4.6,2.5,3.8*3F
$GPRMC,181332.000,A,3748.8006,N,12217.8586,W,0.31,139.70,260711,,,A*79
$GPVTG,139.70,T,,M,0.31,N,0.6,K,A*05
$GPGGA,181333.000,3748.8005,N,12217.8587,W,1,04,2.5,-13.1,M,-25.1,M,,0000*73
$GPGSA,A,3,13,23,19,08,,,,,,,,,4.6,2.5,3.8*3F
$GPRMC,181333.000,A,3748.8005,N,12217.8587,W,0.50,178.08,260711,,,A*77
$GPVTG,178.08,T,,M,0.50,N,0.9,K,A*07
$GPGGA,181334.000,3748.8012,N,12217.8583,W,1,05,2.2,-11.0,M,-25.1,M,,0000*73
$GPGSA,A,3,13,23,19,07,08,,,,,,,,4.0,2.2,3.3*32
$GPGSV,3,1,11,13,58,125,28,08,49,298,34,19,29,091,28,23,28,134,21*76
$GPGSV,3,2,11,07,66,346,34,10,38,249,23,28,29,218,22,03,24,057,27*75
$GPGSV,3,3,11,05,20,307,30,06,14,046,24,16,07,043,23*48
$GPRMC,181334.000,A,3748.8012,N,12217.8583,W,0.54,189.46,260711,,,A*72
$GPVTG,189.46,T,,M,0.54,N,1.0,K,A*0F
$GPGGA,181335.000,3748.8021,N,12217.8579,W,1,05,2.2,-8.3,M,-25.1,M,,0000*4C
$GPGSA,A,3,13,23,19,07,08,,,,,,,,4.0,2.2,3.3*32
$GPRMC,181335.000,A,3748.8021,N,12217.8579,W,0.05,41.07,260711,,,A*42
$GPVTG,41.07,T,,M,0.05,N,0.1,K,A*3B
$GPGGA,181336.000,3748.8019,N,12217.8580,W,1,05,2.2,-8.0,M,-25.1,M,,0000*41
$GPGSA,A,3,13,23,19,07,08,,,,,,,,4.0,2.2,3.3*32
$GPRMC,181336.000,A,3748.8019,N,12217.8580,W,0.34,21.09,260711,,,A*46
$GPVTG,21.09,T,,M,0.34,N,0.6,K,A*36
$GPGGA,181337.000,3748.8015,N,12217.8583,W,1,05,2.2,-7.9,M,-25.1,M,,0000*49
$GPGSA,A,3,13,23,19,07,08,,,,,,,,4.0,2.2,3.3*32
$GPRMC,181337.000,A,3748.8015,N,12217.8583,W,0.19,183.17,260711,,,A*71
$GPVTG,183.17,T,,M,0.19,N,0.3,K,A*0A
$GPGGA,181338.000,3748.8009,N,12217.8586,W,1,05,2.2,-8.9,M,-25.1,M,,0000*41
$GPGSA,A,3,13,23,19,07,08,,,,,,,,4.0,2.2,3.3*32
$GPRMC,181338.000,A,3748.8009,N,12217.8586,W,0.65,179.80,260711,,,A*76
$GPVTG,179.80,T,,M,0.65,N,1.2,K,A*0A
$GPGGA,181339.000,3748.8006,N,12217.8588,W,1,05,2.2,-8.8,M,-25.1,M,,0000*40
$GPGSA,A,3,13,23,19,07,08,,,,,,,,4.0,2.2,3.3*32
$GPGSV,3,1,11,07,66,346,34,13,58,125,31,08,49,298,34,10,38,249,18*7C
$GPGSV,3,2,11,19,29,091,25,28,29,218,22,23,28,134,27,03,24,057,24*77
$GPGSV,3,3,11,05,20,307,29,06,14,046,25,16,07,043,23*41
$GPVTG,146.04,T,,M,0.17,N,0.3,K,A*0F
$GPGGA,181340.000,3748.8011,N,12217.8584,W,1,05,2.2,-8.4,M,-25.1,M,,0000*48
$GPGSA,A,3,13,23,19,07,08,,,,,,,,4.0,2.2,3.3*32
$GPRMC,181340.000,A,3748.8011,N,12217.8584,W,0.57,66.19,260711,,,A*4C
$GPVTG,66.19,T,,M,0.57,N,1.1,K,A*37
$GPGGA,181341.000,3748.8017,N,12217.8580,W,1,05,2.2,-8.2,M,-25.1,M,,0000*4D
$GPGSA,A,3,13,23,19,07,08,,,,,,,,4.0,2.2,3.3*32
$GPRMC,181341.000,A,3748.8017,N,12217.8580,W,1.33,38.70,260711,,,A*48
$GPVTG,38.70,T,,M,1.33,N,2.5,K,A*37
$GPGGA,181342.000,3748.8023,N,12217.8579,W,1,05,2.2,-11.3,M,-25.1,M,,0000*76
$GPGSA,A,3,13,23,19,07,08,,,,,,,,4.0,2.2,3.4*35
$GPRMC,181342.000,A,3748.8023,N,12217.8579,W,1.45,46.15,260711,,,A*41
$GPVTG,46.15,T,,M,1.45,N,2.7,K,A*3E
$GPGGA,181343.000,3748.8029,N,12217.8573,W,1,05,2.2,-12.8,M,-25.1,M,,0000*7F
$GPGSA,A,3,13,23,19,07,08,,,,,,,,4.0,2.2,3.4*35
$GPRMC,181343.000,A,3748.8029,N,12217.8573,W,2.49,45.64,260711,,,A*4A
$GPVTG,45.64,T,,M,2.49,N,4.6,K,A*33
$GPGGA,181344.000,3748.8037,N,12217.8563,W,1,05,2.2,-16.0,M,-25.1,M,,0000*7A
$GPGSA,A,3,13,23,19,07,08,,,,,,,,4.0,2.2,3.4*35
$GPGSV,3,1,11,07,66,346,20,13,58,125,25,08,49,298,33,10,38,249,21*71
$GPGSV,3,2,11,19,29,091,14,28,29,218,,23,28,134,19,03,24,057,15*7A
$GPGSV,3,3,11,05,20,307,23,06,14,046,16,16,07,043,14*4F
$GPRMC,181344.000,A,3748.8037,N,12217.8563,W,4.01,39.18,260711,,,A*49
$GPVTG,39.18,T,,M,4.01,N,7.4,K,A*38
$GPGGA,181345.000,3748.8041,N,12217.8558,W,1,04,2.5,-17.7,M,-25.1,M,,0000*72
$GPGSA,A,3,13,23,19,08,,,,,,,,,4.6,2.5,3.9*3E
$GPRMC,181345.000,A,3748.8041,N,12217.8558,W,4.26,35.74,260711,,,A*42
$GPVTG,35.74,T,,M,4.26,N,7.9,K,A*36
$GPGGA,181346.000,3748.8037,N,12217.8560,W,1,05,2.2,-18.7,M,-25.1,M,,0000*72
$GPGSA,A,3,13,23,19,07,08,,,,,,,,4.0,2.2,3.4*35
$GPRMC,181346.000,A,3748.8037,N,12217.8560,W,3.21,45.60,260711,,,A*49
$GPVTG,45.60,T,,M,3.21,N,5.9,K,A*36
$GPGGA,181347.000,3748.8038,N,12217.8559,W,1,05,2.2,-19.5,M,-25.1,M,,0000*75
$GPGSA,A,3,13,23,19,07,08,,,,,,,,4.0,2.2,3.4*35
$GPRMC,181347.000,A,3748.8038,N,12217.8559,W,2.54,30.30,260711,,,A*49
$GPVTG,30.30,T,,M,2.54,N,4.7,K,A*3D
$GPGGA,181348.000,3748.8047,N,12217.8555,W,1,05,2.2,-19.1,M,-25.1,M,,0000*7A
$GPGSA,A,3,13,23,19,07,08,,,,,,,,4.0,2.2,3.4*35
$GPRMC,181348.000,A,3748.8047,N,12217.8555,W,1.80,18.97,260711,,,A*4F
$GPVTG,18.97,T,,M,1.80,N,3.3,K,A*33
$GPGGA,181349.000,3748.8035,N,12217.8567,W,1,05,2.2,-18.5,M,-25.1,M,,0000*7A
$GPGSA,A,3,13,23,19,07,08,,,,,,,,4.0,2.2,3.4*35
$GPGSV,3,1,11,07,66,346,20,13,58,125,25,08,49,298,26,10,38,249,14*73
$GPGSV,3,2,11,19,29,091,17,28,29,218,,23,28,134,20,03,24,057,15*73
$GPGSV,3,3,11,05,20,307,24,06,14,046,15,16,07,043,*4E
$GPRMC,181349.000,A,3748.8035,N,12217.8567,W,0.76,231.35,260711,,,A*73
$GPVTG,231.35,T,,M,0.76,N,1.4,K,A*0F
$GPGGA,181350.000,3748.8022,N,12217.8578,W,1,05,2.2,-17.3,M,-25.1,M,,0000*73
$GPGSA,A,3,13,23,19,07,08,,,,,,,,4.0,2.2,3.4*35
$GPRMC,181350.000,A,3748.8022,N,12217.8578,W,1.33,216.95,260711,,,A*7C
$GPVTG,216.95,T,,M,1.33,N,2.5,K,A*02
$GPGGA,181351.000,3748.8027,N,12217.8578,W,1,05,2.2,-15.3,M,-25.1,M,,0000*75
$GPGSA,A,3,13,23,19,07,08,,,,,,,,4.0,2.2,3.4*35
$GPRMC,181351.000,A,3748.8027,N,12217.8578,W,0.45,212.95,260711,,,A*7C
$GPVTG,212.95,T,,M,0.45,N,0.8,K,A*09
$GPGGA,181352.000,3748.8024,N,12217.8580,W,1,05,2.2,-14.6,M,-25.1,M,,0000*76
$GPGSA,A,3,13,23,19,07,08,,,,,,,,4.0,2.2,3.4*35
$GPRMC,181352.000,A,3748.8024,N,12217.8580,W,0.36,196.45,260711,,,A*7D
$GPVTG,196.45,T,,M,0.36,N,0.7,K,A*00
$GPGGA,181353.000,3748.8020,N,12217.8583,W,1,05,2.2,-13.6,M,-25.1,M,,0000*77
$GPGSA,A,3,13,23,19,07,08,,,,,,,,4.0,2.2,3.4*35
$GPRMC,181353.000,A,3748.8020,N,12217.8583,W,0.25,212.59,260711,,,A*7B
$GPVTG,212.59,T,,M,0.25,N,0.5,K,A*02
$GPGGA,181354.000,3748.8010,N,12217.8589,W,1,05,2.2,-13.3,M,-25.1,M,,0000*7C
$GPGSA,A,3,13,23,19,07,08,,,,,,,,4.0,2.2,3.4*35
$GPGSV,3,1,11,07,66,346,27,13,58,125,24,08,49,298,37,10,38,249,28*7A
$GPGSV,3,2,11,19,29,091,27,28,29,218,26,23,28,134,22,03,24,057,25*75
$GPGSV,3,3,11,05,20,307,31,06,14,046,22,16,07,043,*4E
$GPRMC,181354.000,A,3748.8010,N,12217.8589,W,0.26,231.73,260711,,,A*7F
$GPGGA,181355.000,3748.7998,N,12217.8596,W,1,05,2.2,-12.5,M,-25.1,M,,0000*72
$GPGSA,A,3,13,23,19,07,08,,,,,,,,4.0,2.2,3.4*35
$GPRMC,181355.000,A,3748.7998,N,12217.8596,W,1.31,221.36,260711,,,A*71
$GPVTG,221.36,T,,M,1.31,N,2.4,K,A*0C
$GPGGA,181356.000,3748.7995,N,12217.8598,W,1,05,2.2,-9.9,M,-25.1,M,,0000*44
$GPGSA,A,3,13,23,19,07,08,,,,,,,,4.0,2.2,3.4*35
$GPRMC,181356.000,A,3748.7995,N,12217.8598,W,1.05,260.44,260711,,,A*76
$GPVTG,260.44,T,,M,1.05,N,2.0,K,A*0F
$GPGGA,181357.000,3748.7993,N,12217.8599,W,1,05,2.2,-7.9,M,-25.1,M,,0000*4C
$GPGSA,A,3,13,23,19,07,08,,,,,,,,4.0,2.2,3.4*35
$GPRMC,181357.000,A,3748.7993,N,12217.8599,W,0.23,167.93,260711,,,A*7B
$GPVTG,167.93,T,,M,0.23,N,0.4,K,A*02
$GPGGA,181358.000,3748.7991,N,12217.8599,W,1,05,2.2,-6.3,M,-25.1,M,,0000*4A
$GPGSA,A,3,13,23,19,07,08,,,,,,,,4.0,2.2,3.4*35
$GPRMC,181358.000,A,3748.7991,N,12217.8599,W,0.25,135.57,260711,,,A*7F
$GPVTG,135.57,T,,M,0.25,N,0.5,K,A*0A
$GPGGA,181359.000,3748.7990,N,12217.8600,W,1,05,2.2,-5.1,M,-25.1,M,,0000*48
$GPGSA,A,3,13,23,19,07,08,,,,,,,,4.0,2.2,3.4*35
$GPGSV,3,1,12,07,66,346,37,13,58,125,37,08,49,298,33,10,38,249,32*75
$GPGSV,3,2,12,19,29,091,38,28,29,218,28,23,28,134,37,03,24,057,38*7E
$GPGSV,3,3,12,05,20,307,27,06,14,046,36,16,07,043,32,48,44,197,29*76
$GPRMC,181359.000,A,3748.7990,N,12217.8600,W,0.27,138.74,260711,,,A*72
$GPVTG,138.74,T,,M,0.27,N,0.5,K,A*04
$GPGGA,181400.000,3748.7987,N,12217.8601,W,1,05,2.2,-4.1,M,-25.1,M,,0000*45
$GPGSA,A,3,13,23,19,07,08,,,,,,,,4.0,2.2,3.4*35
$GPRMC,181400.000,A,3748.7987,N,12217.8601,W,0.38,76.66,260711,,,A*48
$GPVTG,76.66,T,,M,0.38,N,0.7,K,A*30
$GPGGA,181401.000,3748.7986,N,12217.8601,W,1,05,2.2,-3.4,M,-25.1,M,,0000*47
$GPGSA,A,3,13,23,19,07,08,,,,,,,,4.0,2.2,3.4*35
$GPRMC,181401.000,A,3748.7986,N,12217.8601,W,0.23,109.58,260711,,,A*76
$GPVTG,109.58,T,,M,0.23,N,0.4,K,A*0D
$GPGGA,181402.000,3748.7985,N,12217.8601,W,1,05,2.2,-2.4,M,-25.1,M,,0000*46
$GPGSA,A,3,13,23,19,07,08,,,,,,,,4.0,2.2,3.4*35
$GPRMC,181402.000,A,3748.7985,N,12217.8601,W,0.32,136.30,260711,,,A*74
$GPVTG,136.30,T,,M,0.32,N,0.6,K,A*0D
$GPGGA,181403.000,3748.7984,N,12217.8603,W,1,05,2.2,-1.9,M,-25.1,M,,0000*4A
$GPGSA,A,3,13,23,19,07,08,,,,,,,,4.0,2.2,3.4*35
$GPRMC,181403.000,A,3748.7984,N,12217.8603,W,0.31,152.27,260711,,,A*71
$GPVTG,152.27,T,,M,0.31,N,0.6,K,A*0A
$GPGGA,181404.000,3748.7985,N,12217.8603,W,1,05,2.2,-1.9,M,-25.1,M,,0000*4C
$GPGSA,A,3,13,23,19,07,08,,,,,,,,4.0,2.2,3.4*35
$GPGSV,3,1,12,07,66,346,36,13,58,125,36,08,49,298,33,10,38,249,32*75
$GPGSV,3,2,12,19,29,091,37,28,29,218,25,23,28,134,37,03,24,057,37*73
$GPGSV,3,3,12,05,20,307,29,06,14,046,34,16,07,043,29,48,44,197,28*71
$GPRMC,181404.000,A,3748.7985,N,12217.8603,W,0.33,120.32,260711,,,A*74
$GPVTG,120.32,T,,M,0.33,N,0.6,K,A*09
$GPGGA,181405.000,3748.7986,N,12217.8604,W,1,05,2.2,-1.8,M,-25.1,M,,0000*48
$GPGSA,A,3,13,23,19,07,08,,,,,,,,4.0,2.2,3.4*35
$GPRMC,181405.000,A,3748.7986,N,12217.8604,W,0.34,98.04,260711,,,A*41
$GPVTG,98.04,T,,M,0.34,N,0.6,K,A*39
$GPGGA,181406.000,3748.7988,N,12217.8603,W,1,05,2.2,-1.7,M,-25.1,M,,0000*4D
$GPGSA,A,3,13,23,19,07,08,,,,,,,,4.0,2.2,3.4*35
$GPRMC,181406.000,A,3748.7988,N,12217.8603,W,0.33,70.77,260711,,,A*4E
$GPVTG,70.77,T,,M,0.33,N,0.6,K,A*3C
$GPGGA,181407.000,3748.7986,N,12217.8603,W,1,05,2.2,-1.2,M,-25.1,M,,0000*47
$GPGSA,A,3,13,23,19,07,08,,,,,,,,4.0,2.2,3.4*35
$GPRMC,181407.000,A,3748.7986,N,12217.8603,W,0.32,114.22,260711,,,A*73
$GPVTG,114.22,T,,M,0.32,N,0.6,K,A*0E
$GPGGA,181408.000,3748.7985,N,12217.8603,W,1,05,2.2,-1.4,M,-25.1,M,,0000*4D
$GPGSA,A,3,13,23,19,07,08,,,,,,,,4.0,2.2,3.4*35
$GPRMC,181408.000,A,3748.7985,N,12217.8603,W,0.23,107.62,260711,,,A*79
$GPVTG,107.62,T,,M,0.23,N,0.4,K,A*0A
$GPGGA,181409.000,3748.7984,N,12217.8604,W,1,05,2.2,-1.3,M,-25.1,M,,0000*4D
$GPGSA,A,3,13,23,19,07,08,,,,,,,,4.0,2.2,3.4*35
$GPGSV,3,1,11,07,66,346,22,13,58,125,32,08,49,298,23,10,38,249,21*74
$GPGSV,3,2,11,19,29,091,22,28,29,218,24,23,28,134,30,03,24,057,26*72
$GPGSV,3,3,11,05,20,307,21,06,14,046,24,16,07,043,24*4F
$GPRMC,181409.000,A,3748.7984,N,12217.8604,W,0.27,92.66,260711,,,A*43
$GPGGA,181410.000,3748.7982,N,12217.8606,W,1,05,2.2,-1.4,M,-25.1,M,,0000*46
$GPGSA,A,3,13,23,19,07,08,,,,,,,,4.0,2.2,3.4*35
$GPRMC,181410.000,A,3748.7982,N,12217.8606,W,0.01,16.92,260711,,,A*4C
$GPVTG,16.92,T,,M,0.01,N,0.0,K,A*30
$GPGGA,181411.000,3748.7989,N,12217.8602,W,1,05,2.2,-2.6,M,-25.1,M,,0000*49
$GPGSA,A,3,13,23,19,07,08,,,,,,,,4.0,2.2,3.4*35
$GPRMC,181411.000,A,3748.7989,N,12217.8602,W,0.59,70.32,260711,,,A*45
$GPVTG,70.32,T,,M,0.59,N,1.1,K,A*37
$GPGGA,181412.000,3748.8001,N,12217.8594,W,1,05,2.2,-3.6,M,-25.1,M,,0000*41
$GPGSA,A,3,13,23,19,07,08,,,,,,,,4.0,2.2,3.4*35
$GPRMC,181412.000,A,3748.8001,N,12217.8594,W,1.29,42.87,260711,,,A*45
$GPVTG,42.87,T,,M,1.29,N,2.4,K,A*38
$GPGGA,181413.000,3748.8004,N,12217.8598,W,1,05,2.2,-4.8,M,-25.1,M,,0000*40
$GPGSA,A,3,13,23,19,07,08,,,,,,,,4.0,2.2,3.4*35
$GPRMC,181413.000,A,3748.8004,N,12217.8598,W,0.05,126.83,260711,,,A*75
$GPVTG,126.83,T,,M,0.05,N,0.1,K,A*07
$GPGGA,181414.000,3748.8012,N,12217.8595,W,1,05,2.2,-5.9,M,-25.1,M,,0000*4D
$GPGSA,A,3,13,23,19,07,08,,,,,,,,4.0,2.2,3.4*35
$GPGSV,3,1,11,07,66,346,29,13,58,125,30,08,49,298,25,10,38,249,22*78
$GPGSV,3,2,11,19,29,091,22,28,29,218,25,23,28,134,32,03,24,057,26*71
$GPGSV,3,3,11,05,20,307,31,06,14,046,21,16,07,043,14*48
$GPRMC,181414.000,A,3748.8012,N,12217.8595,W,0.17,316.47,260711,,,A*72
$GPVTG,316.47,T,,M,0.17,N,0.3,K,A*0F
$GPGGA,181415.000,3748.8014,N,12217.8600,W,1,05,2.2,-6.0,M,-25.1,M,,0000*4F
$GPGSA,A,3,13,23,19,07,08,,,,,,,,4.0,2.2,3.4*35
$GPRMC,181415.000,A,3748.8014,N,12217.8600,W,0.44,275.78,260711,,,A*74
$GPVTG,275.78,T,,M,0.44,N,0.8,K,A*0A
$GPGGA,181416.000,3748.8022,N,12217.8601,W,1,05,2.2,-5.9,M,-25.1,M,,0000*42
$GPGSA,A,3,13,23,19,07,08,,,,,,,,4.0,2.2,3.4*35
$GPRMC,181416.000,A,3748.8022,N,12217.8601,W,1.09,323.72,260711,,,A*73
$GPVTG,323.72,T,,M,1.09,N,2.0,K,A*00
$GPGGA,181417.000,3748.8024,N,12217.8597,W,1,05,2.2,-4.6,M,-25.1,M,,0000*47
$GPGSA,A,3,13,23,19,07,08,,,,,,,,4.0,2.2,3.4*35
$GPRMC,181417.000,A,3748.8024,N,12217.8597,W,1.40,345.54,260711,,,A*71
$GPVTG,345.54,T,,M,1.40,N,2.6,K,A*0F
$GPGGA,181418.000,3748.8033,N,12217.8586,W,1,05,2.2,-2.3,M,-25.1,M,,0000*4D
$GPGSA,A,3,13,23,19,07,08,,,,,,,,4.0,2.2,3.4*35
$GPRMC,181418.000,A,3748.8033,N,12217.8586,W,2.13,39.83,260711,,,A*4F
$GPVTG,39.83,T,,M,2.13,N,3.9,K,A*36
$GPGGA,181419.000,3748.8035,N,12217.8581,W,1,05,2.2,-0.3,M,-25.1,M,,0000*4F
$GPGSA,A,3,13,23,19,07,08,,,,,,,,4.0,2.2,3.4*35
$GPGSV,3,1,11,07,66,346,28,13,58,125,30,08,49,298,21,10,38,249,29*76
$GPGSV,3,2,11,19,29,091,23,28,29,218,31,23,28,134,21,03,24,057,27*76
$GPGSV,3,3,11,05,20,307,21,06,14,046,25,16,07,043,33*48
$GPRMC,181419.000,A,3748.8035,N,12217.8581,W,1.75,35.99,260711,,,A*4B
$GPVTG,35.99,T,,M,1.75,N,3.2,K,A*39
$GPGGA,181420.000,3748.8037,N,12217.8583,W,1,05,2.2,0.0,M,-25.1,M,,0000*6B
$GPGSA,A,3,13,23,19,07,08,,,,,,,,4.0,2.2,3.4*35
$GPRMC,181420.000,A,3748.8037,N,12217.8583,W,0.38,5.61,260711,,,A*7D
$GPVTG,5.61,T,,M,0.38,N,0.7,K,A*03
$GPGGA,181421.000,3748.8026,N,12217.8595,W,1,05,2.2,-0.6,M,-25.1,M,,0000*46
$GPGSA,A,3,13,23,19,07,08,,,,,,,,4.0,2.2,3.4*35
$GPRMC,181421.000,A,3748.8026,N,12217.8595,W,1.34,206.56,260711,,,A*73
$GPVTG,206.56,T,,M,1.34,N,2.5,K,A*0B
$GPGGA,181422.000,3748.8015,N,12217.8604,W,1,05,2.2,0.2,M,-25.1,M,,0000*67
$GPGSA,A,3,13,23,19,07,08,,,,,,,,4.0,2.2,3.4*35
$GPRMC,181422.000,A,3748.8015,N,12217.8604,W,1.36,199.01,260711,,,A*7E
$GPVTG,199.01,T,,M,1.36,N,2.5,K,A*0E
$GPGGA,181423.000,3748.8005,N,12217.8613,W,1,05,2.2,1.0,M,-25.1,M,,0000*62
$GPGSA,A,3,13,23,19,07,08,,,,,,,,4.0,2.2,3.4*35
$GPRMC,181423.000,A,3748.8005,N,12217.8613,W,0.65,205.59,260711,,,A*74
$GPVTG,205.59,T,,M,0.65,N,1.2,K,A*06
$GPGGA,181424.000,3748.7999,N,12217.8616,W,1,05,2.2,2.0,M,-25.1,M,,0000*60
$GPGSA,A,3,13,23,19,07,08,,,,,,,,4.0,2.2,3.4*35
$GPGSV,3,1,11,07,66,346,24,13,58,125,18,08,49,298,28,10,38,249,27*77
$GPGSV,3,2,11,19,29,091,28,28,29,218,20,23,28,134,15,03,24,057,29*74
$GPGSV,3,3,11,05,20,307,31,06,14,046,30,16,07,043,34*4A
$GPRMC,181424.000,A,3748.7999,N,12217.8616,W,0.56,175.21,260711,,,A*7E
$GPGGA,181425.000,3748.8003,N,12217.8611,W,1,05,2.2,3.9,M,-25.1,M,,0000*6B
$GPGSA,A,3,13,23,19,07,08,,,,,,,,4.0,2.2,3.4*35
$GPRMC,181425.000,A,3748.8003,N,12217.8611,W,0.93,37.55,260711,,,A*40
$GPVTG,37.55,T,,M,0.93,N,1.7,K,A*35
$GPGGA,181426.000,3748.8008,N,12217.8605,W,1,05,2.2,5.0,M,-25.1,M,,0000*69
$GPGSA,A,3,13,23,19,07,08,,,,,,,,4.0,2.2,3.4*35
$GPRMC,181426.000,A,3748.8008,N,12217.8605,W,1.10,1.98,260711,,,A*73
$GPVTG,1.98,T,,M,1.10,N,2.0,K,A*0F
$GPGGA,181427.000,3748.8011,N,12217.8606,W,1,05,2.2,4.0,M,-25.1,M,,0000*62
$GPGSA,A,3,13,23,19,07,08,,,,,,,,4.0,2.2,3.4*35
$GPRMC,181427.000,A,3748.8011,N,12217.8606,W,0.69,352.30,260711,,,A*71
$GPVTG,352.30,T,,M,0.69,N,1.3,K,A*07
$GPGGA,181428.000,3748.8003,N,12217.8604,W,1,05,2.2,6.0,M,-25.1,M,,0000*6E
$GPGSA,A,3,13,23,19,07,08,,,,,,,,4.0,2.2,3.4*35
$GPRMC,181428.000,A,3748.8003,N,12217.8604,W,1.44,186.33,260711,,,A*79
$GPVTG,186.33,T,,M,1.44,N,2.7,K,A*06
$GPGGA,181429.000,3748.8005,N,12217.8596,W,1,05,2.2,9.2,M,-25.1,M,,0000*6C
$GPGSA,A,3,13,23,19,07,08,,,,,,,,4.0,2.2,3.4*35
$GPGSV,3,1,11,07,66,346,22,13,58,125,21,08,49,298,23,10,38,249,36*70
$GPGSV,3,2,11,19,29,091,23,28,29,218,33,23,28,134,20,03,24,057,33*70
$GPGSV,3,3,11,05,20,307,24,06,14,046,32,16,07,043,33*4B
$GPRMC,181429.000,A,3748.8005,N,12217.8596,W,0.78,92.52,260711,,,A*4B
$GPVTG,92.52,T,,M,0.78,N,1.4,K,A*3B
$GPGGA,181430.000,3748.7997,N,12217.8593,W,1,05,2.2,10.2,M,-25.1,M,,0000*54
$GPGSA,A,3,13,23,19,07,08,,,,,,,,4.0,2.2,3.4*35
$GPRMC,181430.000,A,3748.7997,N,12217.8593,W,0.75,131.05,260711,,,A*7C
$GPVTG,131.05,T,,M,0.75,N,1.4,K,A*0C
$GPGGA,181431.000,3748.7983,N,12217.8591,W,1,05,2.2,11.9,M,-25.1,M,,0000*58
$GPGSA,A,3,13,23,19,07,08,,,,,,,,4.0,2.2,3.4*35
$GPRMC,181431.000,A,3748.7983,N,12217.8591,W,1.53,172.91,260711,,,A*75
$GPVTG,172.91,T,,M,1.53,N,2.8,K,A*0C
$GPGGA,181432.000,3748.7968,N,12217.8592,W,1,05,2.2,12.0,M,-25.1,M,,0000*57
$GPGSA,A,3,13,23,19,07,08,,,,,,,,4.0,2.2,3.4*35
$GPRMC,181432.000,A,3748.7968,N,12217.8592,W,2.23,181.88,260711,,,A*70
$GPVTG,181.88,T,,M,2.23,N,4.1,K,A*03
$GPGGA,181433.000,3748.7968,N,12217.8587,W,1,04,2.8,14.8,M,-25.1,M,,0000*57
$GPGSA,A,3,23,19,07,08,,,,,,,,,6.9,2.8,6.3*34
$GPRMC,181433.000,A,3748.7968,N,12217.8587,W,1.17,177.62,260711,,,A*7C
$GPVTG,177.62,T,,M,1.17,N,2.2,K,A*0F
$GPGGA,181434.000,3748.7972,N,12217.8582,W,1,04,2.8,17.0,M,-25.1,M,,0000*55
$GPGSA,A,3,23,19,07,08,,,,,,,,,6.9,2.8,6.3*34
$GPGSV,3,1,11,07,66,346,18,13,58,125,16,08,49,298,29,10,38,249,33*72
$GPGSV,3,2,11,19,29,091,29,28,29,218,34,23,28,134,23,03,24,057,37*7A
$GPGSV,3,3,11,05,20,307,25,06,14,046,31,16,07,043,35*4F
$GPRMC,181434.000,A,3748.7972,N,12217.8582,W,0.46,127.28,260711,,,A*7B
$GPVTG,127.28,T,,M,0.46,N,0.8,K,A*09
$GPGGA,181435.000,3748.7973,N,12217.8579,W,1,05,2.2,16.5,M,-25.1,M,,0000*5E
$GPGSA,A,3,13,23,19,07,08,,,,,,,,4.0,2.2,3.4*35
$GPRMC,181435.000,A,3748.7973,N,12217.8579,W,0.46,92.13,260711,,,A*48
$GPVTG,92.13,T,,M,0.46,N,0.8,K,A*3E
$GPGGA,181436.000,3748.7974,N,12217.8575,W,1,05,2.2,15.8,M,-25.1,M,,0000*58
$GPGSA,A,3,13,23,19,07,08,,,,,,,,4.0,2.2,3.4*35
$GPRMC,181436.000,A,3748.7974,N,12217.8575,W,0.62,99.12,260711,,,A*4C
$GPVTG,99.12,T,,M,0.62,N,1.1,K,A*3A
$GPGGA,181437.000,3748.7973,N,12217.8579,W,1,04,2.8,13.8,M,-25.1,M,,0000*5F
$GPGSA,A,3,23,19,07,08,,,,,,,,,6.9,2.8,6.3*34
$GPRMC,181437.000,A,3748.7973,N,12217.8579,W,0.49,123.76,260711,,,A*7D
$GPVTG,123.76,T,,M,0.49,N,0.9,K,A*08
$GPGGA,181438.000,3748.7972,N,12217.8580,W,1,04,2.8,12.6,M,-25.1,M,,0000*58
$GPGSA,A,3,23,19,07,08,,,,,,,,,6.9,2.8,6.3*34
$GPRMC,181438.000,A,3748.7972,N,12217.8580,W,0.34,120.53,260711,,,A*7B
$GPVTG,120.53,T,,M,0.34,N,0.6,K,A*09
$GPGGA,181439.000,3748.7972,N,12217.8582,W,1,04,2.8,11.7,M,-25.1,M,,0000*59
$GPGSA,A,3,23,19,07,08,,,,,,,,,6.9,2.8,6.3*34
$GPGSV,3,1,12,07,66,346,26,13,58,125,08,08,49,298,29,10,38,249,12*70
$GPGSV,3,2,12,19,29,091,38,28,29,218,17,23,28,134,29,03,24,057,40*72
$GPGSV,3,3,12,05,20,307,14,06,14,046,40,16,07,043,29,51,43,156,33*74
$GPRMC,181439.000,A,3748.7972,N,12217.8582,W,0.24,138.71,260711,,,A*70
$GPGGA,181440.000,3748.7978,N,12217.8585,W,1,05,2.2,9.0,M,-25.1,M,,0000*6F
$GPGSA,A,3,13,23,19,07,08,,,,,,,,4.0,2.2,3.4*35
$GPRMC,181440.000,A,3748.7978,N,12217.8585,W,0.31,165.90,260711,,,A*70
$GPVTG,165.90,T,,M,0.31,N,0.6,K,A*02
$GPGGA,181441.000,3748.7974,N,12217.8588,W,1,05,2.2,7.9,M,-25.1,M,,0000*68
$GPGSA,A,3,13,23,19,07,08,,,,,,,,4.0,2.2,3.4*35
$GPRMC,181441.000,A,3748.7974,N,12217.8588,W,0.19,158.66,260711,,,A*7D
$GPVTG,158.66,T,,M,0.19,N,0.4,K,A*0D
$GPGGA,181442.000,3748.7971,N,12217.8592,W,1,05,2.2,8.0,M,-25.1,M,,0000*63
$GPGSA,A,3,13,23,19,07,08,,,,,,,,4.0,2.2,3.4*35
$GPRMC,181442.000,A,3748.7971,N,12217.8592,W,0.18,197.83,260711,,,A*79
$GPVTG,197.83,T,,M,0.18,N,0.3,K,A*03
$GPGGA,181443.000,3748.7968,N,12217.8595,W,1,05,2.2,8.6,M,-25.1,M,,0000*6B
$GPGSA,A,3,13,23,19,07,08,,,,,,,,4.0,2.2,3.4*35
$GPRMC,181443.000,A,3748.7968,N,12217.8595,W,0.28,133.81,260711,,,A*78
$GPVTG,133.81,T,,M,0.28,N,0.5,K,A*0A
$GPGGA,181444.000,3748.7966,N,12217.8597,W,1,05,2.2,8.5,M,-25.1,M,,0000*63
$GPGSA,A,3,13,23,19,07,08,,,,,,,,4.0,2.2,3.4*35
$GPGSV,3,1,12,07,66,346,26,13,58,125,27,08,49,298,20,10,38,249,29*7C
$GPGSV,3,2,12,19,29,091,31,28,29,218,26,23,28,134,33,03,24,057,40*72
$GPGSV,3,3,12,05,20,307,17,06,14,046,41,16,07,043,30,51,43,156,30*7D
$GPRMC,181444.000,A,3748.7966,N,12217.8597,W,0.39,116.64,260711,,,A*7F
$GPVTG,116.64,T,,M,0.39,N,0.7,K,A*04
$GPGGA,181445.000,3748.7964,N,12217.8598,W,1,05,2.2,8.4,M,-25.1,M,,0000*6E
$GPGSA,A,3,13,23,19,07,08,,,,,,,,4.0,2.2,3.4*35
$GPRMC,181445.000,A,3748.7964,N,12217.8598,W,0.32,116.33,260711,,,A*7A
$GPVTG,116.33,T,,M,0.32,N,0.6,K,A*0C
$GPGGA,181446.000,3748.7963,N,12217.8602,W,1,05,2.2,7.7,M,-25.1,M,,0000*66
$GPGSA,A,3,13,23,19,07,08,,,,,,,,4.0,2.2,3.4*35
$GPRMC,181446.000,A,3748.7963,N,12217.8602,W,0.17,135.23,260711,,,A*79
$GPVTG,135.23,T,,M,0.17,N,0.3,K,A*0E
$GPGGA,181447.000,3748.7963,N,12217.8601,W,1,05,2.2,7.7,M,-25.1,M,,0000*64
$GPGSA,A,3,13,23,19,07,08,,,,,,,,4.0,2.2,3.4*35
$GPRMC,181447.000,A,3748.7963,N,12217.8601,W,0.08,171.18,260711,,,A*7D
$GPVTG,171.18,T,,M,0.08,N,0.2,K,A*09
$GPGGA,181448.000,3748.7963,N,12217.8598,W,1,05,2.2,8.0,M,-25.1,M,,0000*60
$GPGSA,A,3,13,23,19,07,08,,,,,,,,4.0,2.2,3.4*35
$GPRMC,181448.000,A,3748.7963,N,12217.8598,W,0.14,115.66,260711,,,A*77
$GPVTG,115.66,T,,M,0.14,N,0.3,K,A*0E
$GPGGA,181449.000,3748.7962,N,12217.8596,W,1,05,2.2,8.2,M,-25.1,M,,0000*6C
$GPGSA,A,3,13,23,19,07,08,,,,,,,,4.0,2.2,3.4*35
$GPGSV,3,1,12,07,66,346,27,13,58,125,31,08,49,298,27,10,38,249,28*7C
$GPGSV,3,2,12,19,29,091,34,28,29,218,29,23,28,134,30,03,24,057,33*7F
$GPGSV,3,3,12,05,20,307,22,06,14,046,41,16,07,043,31,51,43,156,31*7B
$GPRMC,181449.000,A,3748.7962,N,12217.8596,W,0.18,128.43,260711,,,A*7C
$GPVTG,128.43,T,,M,0.18,N,0.3,K,A*0B
$GPGGA,181450.000,3748.7956,N,12217.8596,W,1,05,2.2,7.4,M,-25.1,M,,0000*6A
$GPGSA,A,3,13,23,19,07,08,,,,,,,,4.0,2.2,3.4*35
$GPRMC,181450.000,A,3748.7956,N,12217.8596,W,0.23,159.44,260711,,,A*7A
$GPVTG,159.44,T,,M,0.23,N,0.4,K,A*05
$GPGGA,181451.000,3748.7950,N,12217.8596,W,1,05,2.2,6.6,M,-25.1,M,,0000*6E
$GPGSA,A,3,13,23,19,07,08,,,,,,,,4.0,2.2,3.4*35
$GPRMC,181451.000,A,3748.7950,N,12217.8596,W,0.79,185.57,260711,,,A*71
$GPVTG,185.57,T,,M,0.79,N,1.5,K,A*09
$GPGGA,181452.000,3748.7950,N,12217.8596,W,1,05,2.2,6.7,M,-25.1,M,,0000*6C
$GPGSA,A,3,13,23,19,07,08,,,,,,,,4.0,2.2,3.4*35
$GPRMC,181452.000,A,3748.7950,N,12217.8596,W,0.64,217.53,260711,,,A*72
$GPVTG,217.53,T,,M,0.64,N,1.2,K,A*0E
$GPGGA,181453.000,3748.7960,N,12217.8585,W,1,05,2.2,10.0,M,-25.1,M,,0000*5C
$GPGSA,A,3,13,23,19,07,08,,,,,,,,4.0,2.2,3.4*35
$GPRMC,181453.000,A,3748.7960,N,12217.8585,W,0.29,65.75,260711,,,A*48
$GPVTG,65.75,T,,M,0.29,N,0.5,K,A*32
$GPGGA,181454.000,3748.7967,N,12217.8578,W,1,05,2.2,11.3,M,-25.1,M,,0000*5C
$GPGSA,A,3,13,23,19,07,08,,,,,,,,4.0,2.2,3.4*35
$GPGSV,3,1,11,07,66,346,21,13,58,125,24,08,49,298,24,10,38,249,27*71
$GPGSV,3,2,11,19,29,091,18,28,29,218,24,23,28,134,25,03,24,057,26*7F
$GPGSV,3,3,11,05,20,307,27,06,14,046,24,16,07,043,24*49
$GPRMC,181454.000,A,3748.7967,N,12217.8578,W,1.39,50.30,260711,,,A*4D
$GPGGA,181455.000,3748.7982,N,12217.8576,W,1,05,2.2,10.8,M,-25.1,M,,0000*52
$GPGSA,A,3,13,23,19,07,08,,,,,,,,4.0,2.2,3.4*35
$GPRMC,181455.000,A,3748.7982,N,12217.8576,W,1.33,27.62,260711,,,A*44
$GPVTG,27.62,T,,M,1.33,N,2.5,K,A*3A
$GPGGA,181456.000,3748.7992,N,12217.8575,W,1,05,2.2,10.5,M,-25.1,M,,0000*5E
$GPGSA,A,3,13,23,19,07,08,,,,,,,,4.0,2.2,3.4*35
$GPRMC,181456.000,A,3748.7992,N,12217.8575,W,0.97,29.52,260711,,,A*47
$GPVTG,29.52,T,,M,0.97,N,1.8,K,A*36
$GPGGA,181457.000,3748.8001,N,12217.8575,W,1,05,2.2,9.1,M,-25.1,M,,0000*6F
$GPGSA,A,3,13,23,19,07,08,,,,,,,,4.0,2.2,3.4*35
$GPRMC,181457.000,A,3748.8001,N,12217.8575,W,0.97,21.44,260711,,,A*45
$GPVTG,21.44,T,,M,0.97,N,1.8,K,A*39
$GPGGA,181458.000,3748.7995,N,12217.8589,W,1,06,1.5,6.7,M,-25.1,M,,0000*66
$GPGSA,A,3,13,28,23,19,07,08,,,,,,,3.5,1.5,3.1*3C
$GPRMC,181458.000,A,3748.7995,N,12217.8589,W,0.20,300.35,260711,,,A*78
$GPVTG,300.35,T,,M,0.20,N,0.4,K,A*0E
$GPGGA,181459.000,3748.7993,N,12217.8596,W,1,06,1.5,6.3,M,-25.1,M,,0000*6B
$GPGSA,A,3,13,28,23,19,07,08,,,,,,,3.5,1.5,3.1*3C
$GPGSV,3,1,12,07,66,348,22,13,57,126,25,08,49,299,27,10,38,249,33*75
$GPGSV,3,2,12,19,30,090,36,28,30,219,33,23,27,134,32,03,23,056,25*7A
$GPGSV,3,3,12,05,20,306,21,06,14,045,28,16,06,043,26,51,43,156,30*73
$GPRMC,181459.000,A,3748.7993,N,12217.8596,W,0.06,66.99,260711,,,A*40
$GPVTG,66.99,T,,M,0.06,N,0.1,K,A*3A
$GPGGA,181500.000,3748.7995,N,12217.8600,W,1,06,1.5,5.4,M,-25.1,M,,0000*68
$GPGSA,A,3,13,28,23,19,07,08,,,,,,,3.5,1.5,3.1*3C
$GPRMC,181500.000,A,3748.7995,N,12217.8600,W,0.21,282.97,260711,,,A*74
$GPVTG,282.97,T,,M,0.21,N,0.4,K,A*0C
$GPGGA,181501.000,3748.7995,N,12217.8603,W,1,06,1.5,4.8,M,-25.1,M,,0000*67
$GPGSA,A,3,13,28,23,19,07,08,,,,,,,3.5,1.5,3.1*3C
$GPRMC,181501.000,A,3748.7995,N,12217.8603,W,0.29,330.23,260711,,,A*79
$GPVTG,330.23,T,,M,0.29,N,0.5,K,A*02
$GPGGA,181502.000,3748.7996,N,12217.8604,W,1,06,1.5,4.5,M,-25.1,M,,0000*6D
$GPGSA,A,3,13,28,23,19,07,08,,,,,,,3.5,1.5,3.1*3C
$GPRMC,181502.000,A,3748.7996,N,12217.8604,W,0.20,357.87,260711,,,A*78
$GPVTG,357.87,T,,M,0.20,N,0.4,K,A*05
$GPGGA,181503.000,3748.7999,N,12217.8601,W,1,06,1.5,5.2,M,-25.1,M,,0000*60
$GPGSA,A,3,13,28,23,19,07,08,,,,,,,3.5,1.5,3.1*3C
$GPRMC,181503.000,A,3748.7999,N,12217.8601,W,0.13,28.85,260711,,,A*4A
$GPVTG,28.85,T,,M,0.13,N,0.2,K,A*3A
$GPGGA,181504.000,3748.8003,N,12217.8603,W,1,06,1.5,5.5,M,-25.1,M,,0000*67
$GPGSA,A,3,13,28,23,19,07,08,,,,,,,3.5,1.5,3.1*3C
$GPGSV,3,1,11,07,66,348,23,13,57,126,29,08,49,299,27,10,38,249,32*7A
$GPGSV,3,2,11,19,30,090,39,28,30,219,31,23,27,134,31,03,23,056,39*7A
$GPGSV,3,3,11,05,20,306,27,06,14,045,35,16,06,043,34*4B
$GPRMC,181504.000,A,3748.8003,N,12217.8603,W,0.10,2.96,260711,,,A*73
$GPVTG,2.96,T,,M,0.10,N,0.2,K,A*03
$GPGGA,181505.000,3748.8001,N,12217.8605,W,1,06,1.5,2.2,M,-25.1,M,,0000*62
$GPGSA,A,3,13,28,23,19,07,08,,,,,,,3.5,1.5,3.1*3C
$GPRMC,181505.000,A,3748.8001,N,12217.8605,W,0.22,7.83,260711,,,A*76
$GPVTG,7.83,T,,M,0.22,N,0.4,K,A*05
$GPGGA,181506.000,3748.8002,N,12217.8608,W,1,06,1.5,0.4,M,-25.1,M,,0000*6B
$GPGSA,A,3,13,28,23,19,07,08,,,,,,,3.5,1.5,3.1*3C
$GPRMC,181506.000,A,3748.8002,N,12217.8608,W,0.41,339.88,260711,,,A*7B
$GPVTG,339.88,T,,M,0.41,N,0.8,K,A*09
$GPGGA,181507.000,3748.8006,N,12217.8610,W,1,06,1.5,-2.7,M,-25.1,M,,0000*4B
$GPGSA,A,3,13,28,23,19,07,08,,,,,,,3.5,1.5,3.1*3C
$GPRMC,181507.000,A,3748.8006,N,12217.8610,W,0.33,19.30,260711,,,A*40
$GPVTG,19.30,T,,M,0.33,N,0.6,K,A*30
$GPGGA,181508.000,3748.8008,N,12217.8610,W,1,06,1.5,-4.3,M,-25.1,M,,0000*48
$GPGSA,A,3,13,28,23,19,07,08,,,,,,,3.5,1.5,3.1*3C
$GPRMC,181508.000,A,3748.8008,N,12217.8610,W,0.24,285.13,260711,,,A*71
$GPVTG,285.13,T,,M,0.24,N,0.4,K,A*02
$GPGGA,181509.000,3748.8008,N,12217.8612,W,1,06,1.5,-5.2,M,-25.1,M,,0000*4B
$GPGSA,A,3,13,28,23,19,07,08,,,,,,,3.5,1.5,3.1*3C
$GPGSV,3,1,12,07,66,348,24,13,57,126,28,08,49,299,28,10,38,249,28*7B
$GPGSV,3,2,12,19,30,090,30,28,30,219,26,23,27,134,33,03,23,056,32*7F
$GPGSV,3,3,12,05,20,306,26,06,14,045,31,16,06,043,30,51,43,156,26*7C
$GPRMC,181509.000,A,3748.8008,N,12217.8612,W,0.33,255.48,260711,,,A*77
$GPGGA,181510.000,3748.8005,N,12217.8613,W,1,06,1.5,-6.0,M,-25.1,M,,0000*4E
$GPGSA,A,3,13,28,23,19,07,08,,,,,,,3.5,1.5,3.1*3C
$GPRMC,181510.000,A,3748.8005,N,12217.8613,W,0.38,315.21,260711,,,A*72
$GPVTG,315.21,T,,M,0.38,N,0.7,K,A*05
$GPGGA,181511.000,3748.8005,N,12217.8613,W,1,06,1.5,-6.9,M,-25.1,M,,0000*46
$GPGSA,A,3,13,28,23,19,07,08,,,,,,,3.5,1.5,3.1*3C
$GPRMC,181511.000,A,3748.8005,N,12217.8613,W,0.47,341.76,260711,,,A*78
$GPVTG,341.76,T,,M,0.47,N,0.9,K,A*00
$GPGGA,181512.000,3748.8010,N,12217.8616,W,1,06,1.5,-8.5,M,-25.1,M,,0000*46
$GPGSA,A,3,13,28,23,19,07,08,,,,,,,3.5,1.5,3.1*3C
$GPRMC,181512.000,A,3748.8010,N,12217.8616,W,0.55,318.16,260711,,,A*73
$GPVTG,318.16,T,,M,0.55,N,1.0,K,A*01
$GPGGA,181513.000,3748.8012,N,12217.8616,W,1,06,1.5,-10.7,M,-25.1,M,,0000*7E
$GPGSA,A,3,13,28,23,19,07,08,,,,,,,3.5,1.5,3.1*3C
$GPRMC,181513.000,A,3748.8012,N,12217.8616,W,0.73,346.49,260711,,,A*75
$GPVTG,346.49,T,,M,0.73,N,1.3,K,A*07
$GPGGA,181514.000,3748.8015,N,12217.8617,W,1,06,1.5,-12.5,M,-25.1,M,,0000*7F
$GPGSA,A,3,13,28,23,19,07,08,,,,,,,3.5,1.5,3.1*3C
$GPGSV,3,1,12,07,66,348,31,13,57,126,28,08,49,299,35,10,38,249,30*7A
$GPGSV,3,2,12,19,30,090,32,28,30,219,37,23,27,134,25,03,23,056,29*70
$GPGSV,3,3,12,05,20,306,31,06,14,045,32,16,06,043,27,51,43,156,26*7F
$GPRMC,181514.000,A,3748.8015,N,12217.8617,W,0.56,352.75,260711,,,A*79
$GPVTG,352.75,T,,M,0.56,N,1.0,K,A*09
$GPGGA,181515.000,3748.8021,N,12217.8621,W,1,06,1.5,-12.6,M,-25.1,M,,0000*7F
$GPGSA,A,3,13,28,23,19,07,08,,,,,,,3.5,1.5,3.1*3C
$GPRMC,181515.000,A,3748.8021,N,12217.8621,W,0.56,350.14,260711,,,A*7F
$GPVTG,350.14,T,,M,0.56,N,1.0,K,A*0C
$GPGGA,181516.000,3748.8026,N,12217.8624,W,1,06,1.5,-12.9,M,-25.1,M,,0000*71
$GPGSA,A,3,13,28,23,19,07,08,,,,,,,3.5,1.5,3.1*3C
$GPRMC,181516.000,A,3748.8026,N,12217.8624,W,0.40,21.78,260711,,,A*46
$GPVTG,21.78,T,,M,0.40,N,0.7,K,A*32
$GPGGA,181517.000,3748.8017,N,12217.8619,W,1,06,1.5,-9.2,M,-25.1,M,,0000*4D
$GPGSA,A,3,13,28,23,19,07,08,,,,,,,3.5,1.5,3.1*3C
$GPRMC,181517.000,A,3748.8017,N,12217.8619,W,0.27,122.60,260711,,,A*71
$GPVTG,122.60,T,,M,0.27,N,0.5,K,A*0A
$GPGGA,181518.000,3748.8011,N,12217.8616,W,1,06,1.5,-6.4,M,-25.1,M,,0000*42
$GPGSA,A,3,13,28,23,19,07,08,,,,,,,3.5,1.5,3.1*3C
$GPRMC,181518.000,A,3748.8011,N,12217.8616,W,0.38,205.88,260711,,,A*79
$GPVTG,205.88,T,,M,0.38,N,0.7,K,A*06
$GPGGA,181519.000,3748.8007,N,12217.8618,W,1,06,1.5,-4.1,M,-25.1,M,,0000*4D
$GPGSA,A,3,13,28,23,19,07,08,,,,,,,3.5,1.5,3.1*3C
$GPGSV,3,1,12,07,66,348,26,13,57,126,29,08,49,299,25,10,38,248,30*7D
$GPGSV,3,2,12,19,30,090,32,28,30,219,26,23,27,134,23,03,23,056,34*7A
$GPGSV,3,3,12,05,20,306,26,06,14,045,25,16,06,043,28,51,43,156,26*70
$GPRMC,181519.000,A,3748.8007,N,12217.8618,W,0.24,5.92,260711,,,A*75
$GPVTG,5.92,T,,M,0.24,N,0.4,K,A*01
$GPGGA,181520.000,3748.8005,N,12217.8619,W,1,06,1.5,-2.2,M,-25.1,M,,0000*41
$GPGSA,A,3,13,28,23,19,07,08,,,,,,,3.5,1.5,3.1*3C
$GPRMC,181520.000,A,3748.8005,N,12217.8619,W,0.05,245.23,260711,,,A*73
$GPVTG,245.23,T,,M,0.05,N,0.1,K,A*0B
$GPGGA,181521.000,3748.8004,N,12217.8621,W,1,06,1.5,-1.6,M,-25.1,M,,0000*4D
$GPGSA,A,3,13,28,23,19,07,08,,,,,,,3.5,1.5,3.1*3C
$GPRMC,181521.000,A,3748.8004,N,12217.8621,W,0.22,196.19,260711,,,A*79
$GPVTG,196.19,T,,M,0.22,N,0.4,K,A*0F
$GPGGA,181522.000,3748.8007,N,12217.8619,W,1,06,1.5,-2.8,M,-25.1,M,,0000*4B
$GPGSA,A,3,13,28,23,19,07,08,,,,,,,3.5,1.5,3.1*3C
$GPRMC,181522.000,A,3748.8007,N,12217.8619,W,0.43,105.24,260711,,,A*71
$GPVTG,105.24,T,,M,0.43,N,0.8,K,A*00
$GPGGA,181523.000,3748.8009,N,12217.8618,W,1,06,1.5,-3.3,M,-25.1,M,,0000*4F
$GPGSA,A,3,13,28,23,19,07,08,,,,,,,3.5,1.5,3.1*3C
$GPRMC,181523.000,A,3748.8009,N,12217.8618,W,0.23,56.59,260711,,,A*44
$GPVTG,56.59,T,,M,0.23,N,0.4,K,A*37
$GPGGA,181524.000,3748.8011,N,12217.8617,W,1,06,1.5,-3.9,M,-25.1,M,,0000*44
$GPGSA,A,3,13,28,23,19,07,08,,,,,,,3.5,1.5,3.1*3C
$GPGSV,3,1,12,07,66,348,31,13,57,126,29,08,49,299,27,10,38,248,27*7F
$GPGSV,3,2,12,19,30,090,33,28,30,219,32,23,27,134,31,03,23,056,33*7A
$GPGSV,3,3,12,05,20,306,32,06,14,045,24,16,06,043,31,51,43,156,34*7F
$GPVTG,59.85,T,,M,0.10,N,0.2,K,A*3F
$GPGGA,181525.000,3748.8014,N,12217.8616,W,1,06,1.5,-4.3,M,-25.1,M,,0000*4C
$GPGSA,A,3,13,28,23,19,07,08,,,,,,,3.5,1.5,3.1*3C
$GPRMC,181525.000,A,3748.8014,N,12217.8616,W,0.25,56.66,260711,,,A*4A
$GPVTG,56.66,T,,M,0.25,N,0.5,K,A*3C
$GPGGA,181526.000,3748.8014,N,12217.8618,W,1,06,1.5,-4.6,M,-25.1,M,,0000*44
$GPGSA,A,3,13,28,23,19,07,08,,,,,,,3.5,1.5,3.1*3C
$GPRMC,181526.000,A,3748.8014,N,12217.8618,W,0.06,269.77,260711,,,A*78
$GPVTG,269.77,T,,M,0.06,N,0.1,K,A*07
$GPGGA,181527.000,3748.8014,N,12217.8617,W,1,06,1.5,-4.2,M,-25.1,M,,0000*4E
$GPGSA,A,3,13,28,23,19,07,08,,,,,,,3.5,1.5,3.1*3C
$GPRMC,181527.000,A,3748.8014,N,12217.8617,W,0.19,188.80,260711,,,A*7C
$GPVTG,188.80,T,,M,0.19,N,0.3,K,A*0F
$GPGGA,181528.000,3748.8013,N,12217.8619,W,1,07,1.1,-4.9,M,-25.1,M,,0000*46
$GPGSA,A,3,13,28,23,19,07,08,16,,,,,,2.0,1.1,1.7*3F
$GPRMC,181528.000,A,3748.8013,N,12217.8619,W,0.49,175.18,260711,,,A*7C
$GPVTG,175.18,T,,M,0.49,N,0.9,K,A*03
$GPGGA,181529.000,3748.8010,N,12217.8620,W,1,07,1.1,-4.3,M,-25.1,M,,0000*44
$GPGSA,A,3,13,28,23,19,07,08,16,,,,,,2.0,1.1,1.7*3F
$GPGSV,3,1,12,07,66,348,29,13,57,126,25,08,49,299,35,10,38,248,27*79
$GPGSV,3,2,12,19,30,090,31,28,30,219,25,23,27,134,21,03,23,056,22*7F
$GPGSV,3,3,12,05,20,306,36,06,14,045,20,16,06,043,21,51,43,156,36*7C
$GPRMC,181529.000,A,3748.8010,N,12217.8620,W,0.38,110.83,260711,,,A*73
$GPVTG,110.83,T,,M,0.38,N,0.7,K,A*0A
$GPGGA,181530.000,3748.8010,N,12217.8619,W,1,07,1.1,-3.8,M,-25.1,M,,0000*4A
$GPGSA,A,3,13,28,23,19,07,08,16,,,,,,2.0,1.1,1.7*3F
$GPRMC,181530.000,A,3748.8010,N,12217.8619,W,0.22,188.95,260711,,,A*7C
$GPVTG,188.95,T,,M,0.22,N,0.4,K,A*04
$GPGGA,181531.000,3748.8012,N,12217.8620,W,1,07,1.1,-4.3,M,-25.1,M,,0000*4F
$GPGSA,A,3,13,28,23,19,07,08,16,,,,,,2.0,1.1,1.7*3F
$GPRMC,181531.000,A,3748.8012,N,12217.8620,W,0.67,163.47,260711,,,A*7E
$GPVTG,163.47,T,,M,0.67,N,1.2,K,A*08
$GPGGA,181532.000,3748.8014,N,12217.8621,W,1,07,1.1,-6.0,M,-25.1,M,,0000*4A
$GPGSA,A,3,13,28,23,19,07,08,16,,,,,,2.0,1.1,1.7*3F
$GPRMC,181532.000,A,3748.8014,N,12217.8621,W,0.52,83.03,260711,,,A*43
$GPVTG,83.03,T,,M,0.52,N,1.0,K,A*33
$GPGGA,181533.000,3748.8015,N,12217.8619,W,1,07,1.1,-5.5,M,-25.1,M,,0000*47
$GPGSA,A,3,13,28,23,19,07,08,16,,,,,,2.0,1.1,1.7*3F
$GPRMC,181533.000,A,3748.8015,N,12217.8619,W,0.57,12.33,260711,,,A*46
$GPVTG,12.33,T,,M,0.57,N,1.0,K,A*3D
$GPGGA,181534.000,3748.8016,N,12217.8618,W,1,07,1.1,-5.7,M,-25.1,M,,0000*40
$GPGSA,A,3,13,28,23,19,07,08,16,,,,,,2.0,1.1,1.7*3F
$GPGSV,3,1,12,07,66,348,27,13,57,126,22,08,49,299,35,10,38,248,31*77
$GPGSV,3,2,12,19,30,090,31,28,30,219,34,23,27,134,28,03,23,056,24*70
$GPGSV,3,3,12,05,20,306,34,06,14,045,22,16,06,043,24,51,43,156,31*7E
$GPRMC,181534.000,A,3748.8016,N,12217.8618,W,0.60,23.07,260711,,,A*42
$GPVTG,23.07,T,,M,0.60,N,1.1,K,A*3D
$GPGGA,181535.000,3748.8013,N,12217.8618,W,1,07,1.1,-4.6,M,-25.1,M,,0000*44
$GPGSA,A,3,13,28,23,19,07,08,16,,,,,,2.0,1.1,1.7*3F
$GPRMC,181535.000,A,3748.8013,N,12217.8618,W,0.25,328.89,260711,,,A*79
$GPVTG,328.89,T,,M,0.25,N,0.5,K,A*07
$GPGGA,181536.000,3748.8014,N,12217.8620,W,1,07,1.1,-4.9,M,-25.1,M,,0000*44
$GPGSA,A,3,13,28,23,19,07,08,16,,,,,,2.0,1.1,1.7*3F
$GPRMC,181536.000,A,3748.8014,N,12217.8620,W,0.21,38.25,260711,,,A*46
$GPVTG,38.25,T,,M,0.21,N,0.4,K,A*36
$GPGGA,181537.000,3748.8015,N,12217.8619,W,1,07,1.1,-5.2,M,-25.1,M,,0000*44
$GPGSA,A,3,13,28,23,19,07,08,16,,,,,,2.0,1.1,1.7*3F
$GPRMC,181537.000,A,3748.8015,N,12217.8619,W,0.28,54.61,260711,,,A*4F
$GPVTG,54.61,T,,M,0.28,N,0.5,K,A*34
$GPGGA,181538.000,3748.8013,N,12217.8616,W,1,07,1.1,-4.3,M,-25.1,M,,0000*42
$GPGSA,A,3,13,28,23,19,07,08,16,,,,,,2.0,1.1,1.7*3F
$GPRMC,181538.000,A,3748.8013,N,12217.8616,W,0.32,224.19,260711,,,A*78
$GPVTG,224.19,T,,M,0.32,N,0.6,K,A*06
$GPGGA,181539.000,3748.8012,N,12217.8616,W,1,07,1.1,-3.4,M,-25.1,M,,0000*42
$GPGSA,A,3,13,28,23,19,07,08,16,,,,,,2.0,1.1,1.7*3F
$GPGSV,3,1,12,07,66,348,38,13,57,126,30,08,49,299,42,10,38,248,41*7D
$GPGSV,3,2,12,19,30,090,27,28,30,219,41,23,27,134,31,03,23,056,27*7E
$GPRMC,181539.000,A,3748.8012,N,12217.8616,W,0.42,116.53,260711,,,A*73
$GPVTG,116.53,T,,M,0.42,N,0.8,K,A*03
$GPGGA,181540.000,3748.8010,N,12217.8615,W,1,07,1.1,-2.9,M,-25.1,M,,0000*41
$GPGSA,A,3,13,28,23,19,07,08,16,,,,,,2.0,1.1,1.7*3F
$GPRMC,181540.000,A,3748.8010,N,12217.8615,W,0.09,105.32,260711,,,A*76
$GPVTG,105.32,T,,M,0.09,N,0.2,K,A*03
$GPGGA,181541.000,3748.8009,N,12217.8614,W,1,07,1.1,-2.4,M,-25.1,M,,0000*44
$GPGSA,A,3,13,28,23,19,07,08,16,,,,,,2.0,1.1,1.7*3F
$GPRMC,181541.000,A,3748.8009,N,12217.8614,W,0.10,93.01,260711,,,A*48
$GPVTG,93.01,T,,M,0.10,N,0.2,K,A*35
$GPGGA,181542.000,3748.8008,N,12217.8614,W,1,07,1.1,-2.1,M,-25.1,M,,0000*43
$GPGSA,A,3,13,28,23,19,07,08,16,,,,,,2.0,1.1,1.7*3F
$GPRMC,181542.000,A,3748.8008,N,12217.8614,W,0.01,6.11,260711,,,A*77
$GPVTG,6.11,T,,M,0.01,N,0.0,K,A*0A
$GPGGA,181543.000,3748.8007,N,12217.8613,W,1,07,1.1,-2.1,M,-25.1,M,,0000*4A
$GPGSA,A,3,13,28,23,19,07,08,16,,,,,,2.0,1.1,1.7*3F
$GPRMC,181543.000,A,3748.8007,N,12217.8613,W,0.15,174.20,260711,,,A*7D
$GPVTG,174.20,T,,M,0.15,N,0.3,K,A*0A
$GPGGA,181544.000,3748.8006,N,12217.8613,W,1,07,1.1,-2.4,M,-25.1,M,,0000*49
$GPGSA,A,3,13,28,23,19,07,08,16,,,,,,2.0,1.1,1.7*3F
$GPGSV,3,1,12,07,66,348,25,13,57,126,29,08,49,299,36,10,38,248,41*7A
$GPGSV,3,2,12,19,30,090,22,28,30,219,37,23,27,134,34,03,23,056,24*7C
$GPGSV,3,3,12,05,20,306,34,06,14,045,20,16,06,043,27,51,43,156,36*78
$GPRMC,181544.000,A,3748.8006,N,12217.8613,W,0.11,172.73,260711,,,A*7F
$GPVTG,172.73,T,,M,0.11,N,0.2,K,A*0F
$GPGGA,181545.000,3748.8006,N,12217.8613,W,1,07,1.1,-2.4,M,-25.1,M,,0000*48
$GPGSA,A,3,13,28,23,19,07,08,16,,,,,,2.0,1.1,1.7*3F
$GPRMC,181545.000,A,3748.8006,N,12217.8613,W,0.14,125.05,260711,,,A*78
$GPVTG,125.05,T,,M,0.14,N,0.3,K,A*08
$GPGGA,181546.000,3748.8006,N,12217.8614,W,1,07,1.1,-2.6,M,-25.1,M,,0000*4E
$GPGSA,A,3,13,28,23,19,07,08,16,,,,,,2.0,1.1,1.7*3F
$GPRMC,181546.000,A,3748.8006,N,12217.8614,W,0.05,109.19,260711,,,A*7F
$GPVTG,109.19,T,,M,0.05,N,0.1,K,A*09
$GPGGA,181547.000,3748.8005,N,12217.8616,W,1,07,1.1,-2.3,M,-25.1,M,,0000*4B
$GPGSA,A,3,13,28,23,19,07,08,16,,,,,,2.0,1.1,1.7*3F
$GPRMC,181547.000,A,3748.8005,N,12217.8616,W,0.09,99.49,260711,,,A*4E
$GPVTG,99.49,T,,M,0.09,N,0.2,K,A*3B
$GPGGA,181548.000,3748.8004,N,12217.8617,W,1,07,1.1,-1.5,M,-25.1,M,,0000*41
$GPGSA,A,3,13,28,23,19,07,08,16,,,,,,2.0,1.1,1.7*3F
$GPRMC,181548.000,A,3748.8004,N,12217.8617,W,0.12,106.60,260711,,,A*77
$GPVTG,106.60,T,,M,0.12,N,0.2,K,A*0D
$GPGGA,181549.000,3748.8003,N,12217.8618,W,1,07,1.1,-0.4,M,-25.1,M,,0000*48
$GPGSA,A,3,13,28,23,19,07,08,16,,,,,,2.0,1.1,1.7*3F
$GPGSV,3,1,12,07,66,349,26,13,57,126,21,08,49,299,37,10,38,248,40*70
$GPGSV,3,2,12,28,30,219,39,19,30,090,30,23,27,134,38,03,23,056,26*7F
$GPGSV,3,3,12,05,20,306,29,06,14,045,21,16,06,043,30,51,43,156,34*71
$GPRMC,181549.000,A,3748.8003,N,12217.8618,W,0.19,153.37,260711,,,A*77
$GPVTG,153.37,T,,M,0.19,N,0.3,K,A*05
$GPGGA,181550.000,3748.8002,N,12217.8618,W,1,07,1.1,-0.2,M,-25.1,M,,0000*47
$GPGSA,A,3,13,28,23,19,07,08,16,,,,,,2.0,1.1,1.7*3F
$GPRMC,181550.000,A,3748.8002,N,12217.8618,W,0.50,112.05,260711,,,A*77
$GPVTG,112.05,T,,M,0.50,N,0.9,K,A*06
$GPGGA,181551.000,3748.7999,N,12217.8618,W,1,07,1.1,-1.4,M,-25.1,M,,0000*45
$GPGSA,A,3,13,28,23,19,07,08,16,,,,,,2.0,1.1,1.7*3F
$GPRMC,181551.000,A,3748.7999,N,12217.8618,W,0.06,240.13,260711,,,A*72
$GPVTG,240.13,T,,M,0.06,N,0.1,K,A*0E
$GPGGA,181552.000,3748.7997,N,12217.8619,W,1,07,1.1,-2.1,M,-25.1,M,,0000*4F
$GPGSA,A,3,13,28,23,19,07,08,16,,,,,,2.0,1.1,1.7*3F
$GPRMC,181552.000,A,3748.7997,N,12217.8619,W,0.11,142.09,260711,,,A*72
$GPVTG,142.09,T,,M,0.11,N,0.2,K,A*01
$GPGGA,181553.000,3748.7997,N,12217.8620,W,1,07,1.1,-2.6,M,-25.1,M,,0000*43
$GPGSA,A,3,13,28,23,19,07,08,16,,,,,,2.0,1.1,1.7*3F
$GPRMC,181553.000,A,3748.7997,N,12217.8620,W,0.09,274.80,260711,,,A*77
$GPVTG,274.80,T,,M,0.09,N,0.2,K,A*0F
$GPGGA,181554.000,3748.7996,N,12217.8621,W,1,07,1.1,-2.6,M,-25.1,M,,0000*44
$GPGSA,A,3,13,28,23,19,07,08,16,,,,,,2.0,1.1,1.7*3F
$GPGSV,3,1,12,07,66,349,29,13,57,126,26,08,49,299,33,10,38,248,35*7E
$GPGSV,3,2,12,28,30,219,38,19,30,090,30,23,27,134,37,03,23,056,26*71
$GPGSV,3,3,12,05,20,306,22,06,14,045,19,16,06,043,32,51,43,156,41*71
$GPRMC,181554.000,A,3748.7996,N,12217.8621,W,0.07,101.69,260711,,,A*78
$GPVTG,101.69,T,,M,0.07,N,0.1,K,A*04
$GPGGA,181555.000,3748.7995,N,12217.8621,W,1,07,1.1,-2.8,M,-25.1,M,,0000*48
$GPGSA,A,3,13,28,23,19,07,08,16,,,,,,2.0,1.1,1.7*3F
$GPRMC,181555.000,A,3748.7995,N,12217.8621,W,0.10,122.99,260711,,,A*72
$GPVTG,122.99,T,,M,0.10,N,0.2,K,A*0F
$GPGGA,181556.000,3748.7996,N,12217.8622,W,1,07,1.1,-3.6,M,-25.1,M,,0000*44
$GPGSA,A,3,13,28,23,19,07,08,16,,,,,,2.0,1.1,1.7*3F
$GPRMC,181556.000,A,3748.7996,N,12217.8622,W,0.04,21.02,260711,,,A*44
$GPVTG,21.02,T,,M,0.04,N,0.1,K,A*39
$GPGGA,181557.000,3748.7997,N,12217.8624,W,1,07,1.1,-4.4,M,-25.1,M,,0000*47
$GPGSA,A,3,13,28,23,19,07,08,16,,,,,,2.0,1.1,1.7*3F
$GPRMC,181557.000,A,3748.7997,N,12217.8624,W,0.19,317.55,260711,,,A*7A
$GPVTG,317.55,T,,M,0.19,N,0.3,K,A*03
$GPGGA,181558.000,3748.7998,N,12217.8625,W,1,07,1.1,-5.4,M,-25.1,M,,0000*47
$GPGSA,A,3,13,28,23,19,07,08,16,,,,,,2.0,1.1,1.7*3F
$GPRMC,181558.000,A,3748.7998,N,12217.8625,W,0.05,51.30,260711,,,A*44
$GPVTG,51.30,T,,M,0.05,N,0.1,K,A*3E
$GPGGA,181559.000,3748.8000,N,12217.8626,W,1,07,1.1,-7.5,M,-25.1,M,,0000*41
$GPGSA,A,3,13,28,23,19,07,08,16,,,,,,2.0,1.1,1.7*3F
$GPGSV,3,1,12,07,66,349,29,13,57,126,25,08,49,299,39,10,38,248,37*75
$GPGSV,3,2,12,28,30,219,39,19,30,090,21,23,27,134,26,03,23,056,22*74
$GPGSV,3,3,12,05,20,306,34,06,14,045,23,16,06,043,29,51,43,156,33*70
$GPRMC,181559.000,A,3748.8000,N,12217.8626,W,0.14,103.40,260711,,,A*70
$GPGGA,181600.000,3748.7997,N,12217.8626,W,1,07,1.1,-6.7,M,-25.1,M,,0000*45
$GPGSA,A,3,13,28,23,19,07,08,16,,,,,,2.0,1.1,1.7*3F
$GPRMC,181600.000,A,3748.7997,N,12217.8626,W,0.05,315.68,260711,,,A*78
$GPVTG,315.68,T,,M,0.05,N,0.1,K,A*00
$GPGGA,181601.000,3748.7998,N,12217.8627,W,1,07,1.1,-6.1,M,-25.1,M,,0000*4C
$GPGSA,A,3,13,28,23,19,07,08,16,,,,,,2.0,1.1,1.7*3F
$GPRMC,181601.000,A,3748.7998,N,12217.8627,W,0.36,273.62,260711,,,A*7C
$GPVTG,273.62,T,,M,0.36,N,0.7,K,A*0D
$GPGGA,181602.000,3748.7998,N,12217.8629,W,1,07,1.1,-5.8,M,-25.1,M,,0000*4B
$GPGSA,A,3,13,28,23,19,07,08,16,,,,,,2.0,1.1,1.7*3F
$GPRMC,181602.000,A,3748.7998,N,12217.8629,W,0.40,281.78,260711,,,A*76
$GPVTG,281.78,T,,M,0.40,N,0.7,K,A*0A
$GPGGA,181603.000,3748.7999,N,12217.8631,W,1,07,1.1,-5.2,M,-25.1,M,,0000*48
$GPGSA,A,3,13,28,23,19,07,08,16,,,,,,2.0,1.1,1.7*3F
$GPRMC,181603.000,A,3748.7999,N,12217.8631,W,0.17,266.69,260711,,,A*74
$GPVTG,266.69,T,,M,0.17,N,0.3,K,A*05
$GPGGA,181604.000,3748.8000,N,12217.8633,W,1,07,1.1,-5.2,M,-25.1,M,,0000*4B
$GPGSA,A,3,13,28,23,19,07,08,16,,,,,,2.0,1.1,1.7*3F
$GPGSV,3,1,12,07,66,349,24,13,57,126,19,08,49,299,38,10,38,248,37*76
$GPGSV,3,2,12,28,30,219,39,19,30,090,20,23,27,134,28,03,23,056,22*7B
$GPGSV,3,3,12,05,20,306,33,06,14,045,17,16,06,043,34,51,43,156,33*7C
$GPRMC,181604.000,A,3748.8000,N,12217.8633,W,0.08,64.89,260711,,,A*47
$GPVTG,64.89,T,,M,0.08,N,0.2,K,A*34
$GPGGA,181605.000,3748.7995,N,12217.8634,W,1,07,1.1,-2.4,M,-25.1,M,,0000*46
$GPGSA,A,3,13,28,23,19,07,08,16,,,,,,2.0,1.1,1.7*3F
$GPRMC,181605.000,A,3748.7995,N,12217.8634,W,0.01,93.64,260711,,,A*49
$GPVTG,93.64,T,,M,0.01,N,0.0,K,A*34
$GPGGA,181606.000,3748.7991,N,12217.8635,W,1,07,1.1,0.0,M,-25.1,M,,0000*6B
$GPGSA,A,3,13,28,23,19,07,08,16,,,,,,2.0,1.1,1.7*3F
$GPRMC,181606.000,A,3748.7991,N,12217.8635,W,0.12,128.39,260711,,,A*74
$GPVTG,128.39,T,,M,0.12,N,0.2,K,A*0D
$GPGGA,181607.000,3748.7987,N,12217.8636,W,1,07,1.1,3.2,M,-25.1,M,,0000*6F
$GPGSA,A,3,13,28,23,19,07,08,16,,,,,,2.0,1.1,1.7*3F
$GPRMC,181607.000,A,3748.7987,N,12217.8636,W,0.35,105.90,260711,,,A*78
$GPVTG,105.90,T,,M,0.35,N,0.6,K,A*00
$GPGGA,181608.000,3748.7983,N,12217.8636,W,1,07,1.1,5.8,M,-25.1,M,,0000*68
$GPGSA,A,3,13,28,23,19,07,08,16,,,,,,2.0,1.1,1.7*3F
$GPRMC,181608.000,A,3748.7983,N,12217.8636,W,0.33,105.80,260711,,,A*74
$GPVTG,105.80,T,,M,0.33,N,0.6,K,A*07
$GPGGA,181609.000,3748.7980,N,12217.8637,W,1,07,1.1,8.7,M,-25.1,M,,0000*69
$GPGSA,A,3,13,28,23,19,07,08,16,,,,,,2.0,1.1,1.7*3F
$GPGSV,3,1,12,07,66,349,25,13,57,126,19,08,49,299,38,10,38,248,37*77
$GPGSV,3,2,12,28,30,219,38,19,30,090,22,23,27,134,30,03,23,056,22*71
$GPGSV,3,3,12,05,20,306,32,06,14,045,,16,06,043,35,51,43,156,34*7D
$GPRMC,181609.000,A,3748.7980,N,12217.8637,W,0.28,116.66,260711,,,A*77
$GPVTG,116.66,T,,M,0.28,N,0.5,K,A*04
$GPGGA,181610.000,3748.7976,N,12217.8637,W,1,07,1.1,11.2,M,-25.1,M,,0000*55
$GPGSA,A,3,13,28,23,19,07,08,16,,,,,,2.0,1.1,1.7*3F
$GPRMC,181610.000,A,3748.7976,N,12217.8637,W,0.19,116.24,260711,,,A*72
$GPVTG,116.24,T,,M,0.19,N,0.4,K,A*01
$GPGGA,181611.000,3748.7972,N,12217.8641,W,1,07,1.1,13.0,M,-25.1,M,,0000*51
$GPGSA,A,3,13,28,23,19,07,08,16,,,,,,2.0,1.1,1.7*3F
$GPRMC,181611.000,A,3748.7972,N,12217.8641,W,0.04,124.17,260711,,,A*7B
$GPVTG,124.17,T,,M,0.04,N,0.1,K,A*09
$GPGGA,181612.000,3748.7968,N,12217.8643,W,1,07,1.1,14.6,M,-25.1,M,,0000*5A
$GPGSA,A,3,13,28,23,19,07,08,16,,,,,,2.0,1.1,1.7*3F
$GPRMC,181612.000,A,3748.7968,N,12217.8643,W,0.07,167.41,260711,,,A*76
$GPVTG,167.41,T,,M,0.07,N,0.1,K,A*0E
$GPGGA,181613.000,3748.7965,N,12217.8643,W,1,07,1.1,16.5,M,-25.1,M,,0000*57
$GPGSA,A,3,13,28,23,19,07,08,16,,,,,,2.0,1.1,1.7*3F
$GPRMC,181613.000,A,3748.7965,N,12217.8643,W,0.39,116.77,260711,,,A*74
$GPVTG,116.77,T,,M,0.39,N,0.7,K,A*06
$GPGGA,181614.000,3748.7961,N,12217.8642,W,1,07,1.1,18.4,M,-25.1,M,,0000*5A
$GPGSA,A,3,13,28,23,19,07,08,16,,,,,,2.0,1.1,1.7*3F
$GPGSV,3,1,12,07,66,349,21,13,57,127,21,08,49,299,38,10,37,248,37*76
$GPGSV,3,2,12,28,30,219,38,19,30,090,24,23,27,134,31,03,23,056,21*75
$GPGSV,3,3,12,05,20,306,32,06,13,045,22,16,06,043,35,51,43,156,35*7B
$GPRMC,181614.000,A,3748.7961,N,12217.8642,W,0.36,122.08,260711,,,A*76
$GPVTG,122.08,T,,M,0.36,N,0.7,K,A*06
$GPGGA,181615.000,3748.7958,N,12217.8642,W,1,07,1.1,20.3,M,-25.1,M,,0000*5D
$GPGSA,A,3,13,28,23,19,07,08,16,,,,,,2.0,1.1,1.7*3F
$GPRMC,181615.000,A,3748.7958,N,12217.8642,W,0.37,111.98,260711,,,A*75
$GPVTG,111.98,T,,M,0.37,N,0.7,K,A*0E
$GPGGA,181616.000,3748.7955,N,12217.8641,W,1,07,1.1,22.1,M,-25.1,M,,0000*50
$GPGSA,A,3,13,28,23,19,07,08,16,,,,,,2.0,1.1,1.7*3F
$GPRMC,181616.000,A,3748.7955,N,12217.8641,W,0.29,106.21,260711,,,A*73
$GPVTG,106.21,T,,M,0.29,N,0.5,K,A*07
$GPGGA,181617.000,3748.7952,N,12217.8641,W,1,07,1.1,23.9,M,-25.1,M,,0000*5F
$GPGSA,A,3,13,28,23,19,07,08,16,,,,,,2.0,1.1,1.7*3F
$GPRMC,181617.000,A,3748.7952,N,12217.8641,W,0.19,89.28,260711,,,A*49
$GPVTG,89.28,T,,M,0.19,N,0.3,K,A*3D
$GPGGA,181618.000,3748.7949,N,12217.8641,W,1,07,1.1,25.5,M,-25.1,M,,0000*50
$GPGSA,A,3,13,28,23,19,07,08,16,,,,,,2.0,1.1,1.7*3F
$GPRMC,181618.000,A,3748.7949,N,12217.8641,W,0.20,100.20,260711,,,A*7E
$GPVTG,100.20,T,,M,0.20,N,0.4,K,A*08
$GPGGA,181619.000,3748.7947,N,12217.8641,W,1,07,1.1,27.1,M,-25.1,M,,0000*59
$GPGSA,A,3,13,28,23,19,07,08,16,,,,,,2.0,1.1,1.7*3F
$GPGSV,3,1,12,07,66,349,25,13,57,127,19,08,49,299,38,10,37,248,37*79
$GPGSV,3,2,12,28,30,219,38,19,30,090,24,23,27,134,31,03,23,056,20*74
$GPGSV,3,3,12,05,20,306,31,06,13,045,18,16,06,043,35,51,43,156,34*70
$GPRMC,181619.000,A,3748.7947,N,12217.8641,W,0.18,93.77,260711,,,A*43
$GPGGA,181620.000,3748.7945,N,12217.8640,W,2,07,1.1,28.7,M,-25.1,M,2.8,0000*7E
$GPGSA,A,3,13,28,23,19,07,08,16,,,,,,2.0,1.1,1.7*3F
$GPRMC,181620.000,A,3748.7945,N,12217.8640,W,0.37,104.51,260711,,,D*79
$GPVTG,104.51,T,,M,0.37,N,0.7,K,D*0A
$GPGGA,181621.000,3748.7942,N,12217.8638,W,2,07,1.1,30.4,M,-25.1,M,2.8,0000*7D
$GPGSA,A,3,13,28,23,19,07,08,16,,,,,,2.0,1.1,1.7*3F
$GPRMC,181621.000,A,3748.7942,N,12217.8638,W,0.24,111.53,260711,,,D*74
$GPVTG,111.53,T,,M,0.24,N,0.5,K,D*0C
$GPGGA,181622.000,3748.7940,N,12217.8638,W,2,07,1.1,31.9,M,-25.1,M,2.8,0000*70
$GPGSA,A,3,13,28,23,19,07,08,16,,,,,,2.0,1.1,1.7*3F
$GPRMC,181622.000,A,3748.7940,N,12217.8638,W,0.10,97.29,260711,,,D*40
$GPVTG,97.29,T,,M,0.10,N,0.2,K,D*3E
$GPGGA,181623.000,3748.7938,N,12217.8637,W,2,07,1.1,33.5,M,-25.1,M,2.8,0000*7F
$GPGSA,A,3,13,28,23,19,07,08,16,,,,,,2.0,1.1,1.7*3F
$GPRMC,181623.000,A,3748.7938,N,12217.8637,W,0.07,53.43,260711,,,D*43
$GPVTG,53.43,T,,M,0.07,N,0.1,K,D*3F
$GPGGA,181624.000,3748.7937,N,12217.8636,W,2,07,1.1,35.3,M,-25.1,M,3.8,0000*77
$GPGSA,A,3,13,28,23,19,07,08,16,,,,,,2.0,1.1,1.7*3F
$GPGSV,3,1,12,07,66,349,25,13,57,127,19,08,49,299,36,10,37,248,37*77
$GPGSV,3,2,12,28,30,219,38,19,30,090,24,23,27,134,31,03,23,056,26*72
$GPGSV,3,3,12,05,20,306,31,06,13,045,20,16,06,043,35,51,43,156,35*7A
$GPRMC,181624.000,A,3748.7937,N,12217.8636,W,0.29,105.87,260711,,,D*7C
$GPVTG,105.87,T,,M,0.29,N,0.5,K,D*0D
$GPGGA,181625.000,3748.7935,N,12217.8636,W,2,07,1.1,36.8,M,-25.1,M,4.8,0000*7B
$GPGSA,A,3,13,28,23,19,07,08,16,,,,,,2.0,1.1,1.7*3F
$GPRMC,181625.000,A,3748.7935,N,12217.8636,W,0.10,25.36,260711,,,D*4C
$GPVTG,25.36,T,,M,0.10,N,0.2,K,D*39
$GPGGA,181626.000,3748.7933,N,12217.8635,W,2,07,1.1,38.4,M,-25.1,M,2.8,0000*79
$GPGSA,A,3,13,28,23,19,07,08,16,,,,,,2.0,1.1,1.7*3F
$GPRMC,181626.000,A,3748.7933,N,12217.8635,W,0.25,116.05,260711,,,D*7D
$GPVTG,116.05,T,,M,0.25,N,0.5,K,D*09
$GPGGA,181627.000,3748.7932,N,12217.8633,W,2,07,1.1,40.1,M,-25.1,M,2.8,0000*75
$GPGSA,A,3,13,28,23,19,07,08,16,,,,,,2.0,1.1,1.7*3F
$GPRMC,181627.000,A,3748.7932,N,12217.8633,W,0.11,149.30,260711,,,D*70
$GPVTG,149.30,T,,M,0.11,N,0.2,K,D*05
$GPGGA,181628.000,3748.7930,N,12217.8632,W,2,07,1.1,41.2,M,-25.1,M,2.8,0000*7B
$GPGSA,A,3,13,28,23,19,07,08,16,,,,,,2.0,1.1,1.7*3F
$GPRMC,181628.000,A,3748.7930,N,12217.8632,W,0.11,92.37,260711,,,D*4C
$GPVTG,92.37,T,,M,0.11,N,0.2,K,D*35
$GPGGA,181629.000,3748.7929,N,12217.8632,W,2,07,1.1,42.0,M,-25.1,M,2.8,0000*73
$GPGSA,A,3,13,28,23,19,07,08,16,,,,,,2.0,1.1,1.7*3F
$GPGSV,3,1,12,07,66,349,31,13,57,127,28,08,49,299,34,10,37,248,38*7D
$GPGSV,3,2,12,28,30,219,39,19,30,090,22,23,27,134,31,03,23,056,21*72
$GPGSV,3,3,12,05,20,306,37,06,13,045,13,16,06,043,29,51,43,156,37*73
$GPRMC,181629.000,A,3748.7929,N,12217.8632,W,0.13,120.54,260711,,,D*7A
$GPVTG,120.54,T,,M,0.13,N,0.2,K,D*0A
$GPGGA,181630.000,3748.7927,N,12217.8631,W,2,07,1.1,42.8,M,-25.1,M,3.8,0000*7F
$GPGSA,A,3,13,28,23,19,07,08,16,,,,,,2.0,1.1,1.7*3F
$GPRMC,181630.000,A,3748.7927,N,12217.8631,W,0.28,117.21,260711,,,D*71
$GPVTG,117.21,T,,M,0.28,N,0.5,K,D*03
$GPGGA,181631.000,3748.7925,N,12217.8630,W,2,07,1.1,43.4,M,-25.1,M,4.8,0000*77
$GPGSA,A,3,13,28,23,19,07,08,16,,,,,,2.0,1.1,1.7*3F
$GPRMC,181631.000,A,3748.7925,N,12217.8630,W,0.33,122.10,260711,,,D*7D
$GPVTG,122.10,T,,M,0.33,N,0.6,K,D*0E
$GPGGA,181632.000,3748.7923,N,12217.8629,W,2,07,1.1,44.2,M,-25.1,M,2.8,0000*7D
$GPGSA,A,3,13,28,23,19,07,08,16,,,,,,2.0,1.1,1.7*3F
$GPRMC,181632.000,A,3748.7923,N,12217.8629,W,0.36,114.03,260711,,,D*72
$GPVTG,114.03,T,,M,0.36,N,0.7,K,D*0D
$GPGGA,181633.000,3748.7922,N,12217.8627,W,2,07,1.1,45.5,M,-25.1,M,2.8,0000*75
$GPGSA,A,3,13,28,23,19,07,08,16,,,,,,2.0,1.1,1.7*3F
$GPRMC,181633.000,A,3748.7922,N,12217.8627,W,0.38,112.14,260711,,,D*72
$GPVTG,112.14,T,,M,0.38,N,0.7,K,D*03
$GPGGA,181634.000,3748.7920,N,12217.8626,W,2,07,1.1,46.5,M,-25.1,M,2.8,0000*72
$GPGSA,A,3,13,28,23,19,07,08,16,,,,,,2.0,1.1,1.7*3F
$GPGSV,3,1,12,07,66,349,24,13,57,127,24,08,49,299,35,10,37,248,39*75
$GPGSV,3,2,12,28,30,219,40,19,30,090,24,23,27,134,33,03,23,056,22*7B
$GPGSV,3,3,12,05,20,306,33,06,13,045,23,16,06,043,34,51,43,156,37*78
$GPRMC,181634.000,A,3748.7920,N,12217.8626,W,0.26,115.04,260711,,,D*7F
$GPVTG,115.04,T,,M,0.26,N,0.5,K,D*08
$GPGGA,181635.000,3748.7919,N,12217.8626,W,2,07,1.1,47.4,M,-25.1,M,2.8,0000*79
$GPGSA,A,3,13,28,23,19,07,08,16,,,,,,2.0,1.1,1.7*3F
$GPRMC,181635.000,A,3748.7919,N,12217.8626,W,0.11,324.77,260711,,,D*74
$GPVTG,324.77,T,,M,0.11,N,0.2,K,D*0F
$GPGGA,181636.000,3748.7919,N,12217.8626,W,2,07,1.1,48.3,M,-25.1,M,2.8,0000*72
$GPGSA,A,3,13,28,23,19,07,08,16,,,,,,2.0,1.1,1.7*3F
$GPRMC,181636.000,A,3748.7919,N,12217.8626,W,0.05,319.27,260711,,,D*79
$GPVTG,319.27,T,,M,0.05,N,0.1,K,D*02
$GPGGA,181637.000,3748.7919,N,12217.8624,W,2,07,1.1,48.9,M,-25.1,M,3.8,0000*7A
$GPGSA,A,3,13,28,23,19,07,08,16,,,,,,2.0,1.1,1.7*3F
$GPRMC,181637.000,A,3748.7919,N,12217.8624,W,0.14,98.13,260711,,,D*47
$GPVTG,98.13,T,,M,0.14,N,0.3,K,D*3D
$GPGGA,181638.000,3748.7920,N,12217.8623,W,2,07,1.1,50.5,M,-25.1,M,4.8,0000*7A
$GPGSA,A,3,13,28,23,19,07,08,16,,,,,,2.0,1.1,1.7*3F
$GPRMC,181638.000,A,3748.7920,N,12217.8623,W,0.19,4.85,260711,,,D*72
$GPVTG,4.85,T,,M,0.19,N,0.3,K,D*0A
$GPGGA,181639.000,3748.7920,N,12217.8622,W,2,07,1.1,50.9,M,-25.1,M,2.8,0000*70
$GPGSA,A,3,13,28,23,19,07,08,16,,,,,,2.0,1.1,1.7*3F
$GPGSV,3,1,12,07,66,349,35,13,57,127,23,08,49,299,34,10,37,248,39*73
$GPGSV,3,2,12,28,30,219,40,19,30,090,21,23,27,134,34,03,23,056,22*79
$GPGSV,3,3,12,05,20,306,25,06,13,045,18,16,06,043,28,51,43,156,35*78
$GPRMC,181639.000,A,3748.7920,N,12217.8622,W,0.01,334.13,260711,,,D*74
$GPGGA,181640.000,3748.7920,N,12217.8622,W,2,07,1.1,50.4,M,-25.1,M,2.8,0000*73
$GPGSA,A,3,13,28,23,19,07,08,16,,,,,,2.0,1.1,1.7*3F
$GPRMC,181640.000,A,3748.7920,N,12217.8622,W,0.20,74.23,260711,,,D*4D
$GPVTG,74.23,T,,M,0.20,N,0.4,K,D*3C
$GPGGA,181641.000,3748.7919,N,12217.8622,W,2,07,1.1,49.7,M,-25.1,M,2.8,0000*73
$GPGSA,A,3,13,28,23,19,07,08,16,,,,,,2.0,1.1,1.7*3F
$GPRMC,181641.000,A,3748.7919,N,12217.8622,W,0.23,126.23,260711,,,D*73
$GPVTG,126.23,T,,M,0.23,N,0.4,K,D*09
$GPGGA,181642.000,3748.7919,N,12217.8623,W,2,07,1.1,48.4,M,-25.1,M,3.8,0000*72
$GPGSA,A,3,13,28,23,19,07,08,16,,,,,,2.0,1.1,1.7*3F
$GPRMC,181642.000,A,3748.7919,N,12217.8623,W,0.07,60.25,260711,,,D*42
$GPVTG,60.25,T,,M,0.07,N,0.1,K,D*3F
$GPGGA,181643.000,3748.7920,N,12217.8626,W,2,07,1.1,46.6,M,-25.1,M,4.8,0000*77
$GPGSA,A,3,13,28,23,19,07,08,16,,,,,,2.0,1.1,1.7*3F
$GPRMC,181643.000,A,3748.7920,N,12217.8626,W,0.15,115.75,260711,,,D*79
$GPVTG,115.75,T,,M,0.15,N,0.3,K,D*08
$GPGGA,181644.000,3748.7921,N,12217.8627,W,2,07,1.1,45.3,M,-25.1,M,5.8,0000*77
$GPGSA,A,3,13,28,23,19,07,08,16,,,,,,2.0,1.1,1.7*3F
$GPGSV,3,1,12,07,66,350,35,13,56,127,33,08,50,300,41,10,37,248,39*70
$GPGSV,3,2,12,28,30,219,41,19,30,089,24,23,27,135,31,03,23,056,25*76
$GPGSV,3,3,12,05,20,306,39,06,13,045,31,16,06,043,30,51,43,156,40*75
$GPRMC,181644.000,A,3748.7921,N,12217.8627,W,0.07,345.98,260711,,,D*79
$GPVTG,345.98,T,,M,0.07,N,0.1,K,D*0D
$GPGGA,181645.000,3748.7923,N,12217.8629,W,2,07,1.1,44.1,M,-25.1,M,2.8,0000*7E
$GPGSA,A,3,13,28,23,19,07,08,16,,,,,,2.0,1.1,1.7*3F
$GPRMC,181645.000,A,3748.7923,N,12217.8629,W,0.15,111.03,260711,,,D*76
$GPVTG,111.03,T,,M,0.15,N,0.3,K,D*0D
$GPGGA,181646.000,3748.7923,N,12217.8630,W,2,07,1.1,43.1,M,-25.1,M,1.8,0000*71
$GPGSA,A,3,13,28,23,19,07,08,16,,,,,,2.0,1.1,1.7*3F
$GPRMC,181646.000,A,3748.7923,N,12217.8630,W,0.03,185.23,260711,,,D*75
$GPVTG,185.23,T,,M,0.03,N,0.1,K,D*07
$GPGGA,181647.000,3748.7924,N,12217.8632,W,2,07,1.1,42.2,M,-25.1,M,2.8,0000*74
$GPGSA,A,3,13,28,23,19,07,08,16,,,,,,2.0,1.1,1.7*3F
$GPRMC,181647.000,A,3748.7924,N,12217.8632,W,0.07,248.20,260711,,,D*74
$GPVTG,248.20,T,,M,0.07,N,0.1,K,D*02
$GPGGA,181648.000,3748.7925,N,12217.8633,W,2,07,1.1,41.3,M,-25.1,M,3.8,0000*78
$GPGSA,A,3,13,28,23,19,07,08,16,,,,,,2.0,1.1,1.7*3F
$GPRMC,181648.000,A,3748.7925,N,12217.8633,W,0.18,261.78,260711,,,D*73
$GPVTG,261.78,T,,M,0.18,N,0.3,K,D*08
$GPGGA,181649.000,3748.7925,N,12217.8634,W,2,07,1.1,40.7,M,-25.1,M,4.8,0000*7C
$GPGSA,A,3,13,28,23,19,07,08,16,,,,,,2.0,1.1,1.7*3F
$GPGSV,3,1,12,07,66,350,34,13,56,127,30,08,50,300,38,10,37,248,40*72
$GPGSV,3,2,12,28,30,219,40,19,30,089,26,23,27,135,28,03,23,055,*79
$GPGSV,3,3,12,05,20,306,41,06,13,045,23,16,06,043,23,51,43,156,41*7A
$GPRMC,181649.000,A,3748.7925,N,12217.8634,W,0.21,181.53,260711,,,D*7B
$GPVTG,181.53,T,,M,0.21,N,0.4,K,D*01
$GPGGA,181650.000,3748.7926,N,12217.8635,W,2,07,1.1,39.9,M,-25.1,M,5.8,0000*77
$GPGSA,A,3,13,28,23,19,07,08,16,,,,,,2.0,1.1,1.7*3F
$GPRMC,181650.000,A,3748.7926,N,12217.8635,W,0.03,165.68,260711,,,D*73
$GPVTG,165.68,T,,M,0.03,N,0.1,K,D*06
$GPGGA,181651.000,3748.7927,N,12217.8635,W,2,07,1.1,39.1,M,-25.1,M,2.8,0000*78
$GPGSA,A,3,13,28,23,19,07,08,16,,,,,,2.0,1.1,1.7*3F
$GPRMC,181651.000,A,3748.7927,N,12217.8635,W,0.13,299.25,260711,,,D*7B
$GPVTG,299.25,T,,M,0.13,N,0.2,K,D*0D
$GPGGA,181652.000,3748.7928,N,12217.8635,W,2,07,1.1,37.9,M,-25.1,M,2.8,0000*72
$GPGSA,A,3,13,28,23,19,07,08,16,,,,,,2.0,1.1,1.7*3F
$GPRMC,181652.000,A,3748.7928,N,12217.8635,W,0.37,70.76,260711,,,D*42
$GPVTG,70.76,T,,M,0.37,N,0.7,K,D*3D
$GPGGA,181653.000,3748.7929,N,12217.8634,W,2,07,1.1,37.9,M,-25.1,M,2.8,0000*73
$GPGSA,A,3,13,28,23,19,07,08,16,,,,,,2.0,1.1,1.7*3F
$GPRMC,181653.000,A,3748.7929,N,12217.8634,W,0.23,29.50,260711,,,D*4E
$GPVTG,29.50,T,,M,0.23,N,0.4,K,D*33
$GPGGA,181654.000,3748.7927,N,12217.8632,W,2,07,1.1,38.3,M,-25.1,M,3.8,0000*78
$GPGSA,A,3,13,28,23,19,07,08,16,,,,,,2.0,1.1,1.7*3F
$GPGSV,3,1,12,07,66,350,27,13,56,127,20,08,50,300,32,10,37,248,41*7A
$GPGSV,3,2,12,28,30,219,40,19,30,089,27,23,27,135,25,03,23,055,21*76
$GPGSV,3,3,12,05,20,306,41,06,13,045,16,16,06,043,21,51,43,156,37*7F
$GPRMC,181654.000,A,3748.7927,N,12217.8632,W,0.30,131.40,260711,,,D*7A
$GPVTG,131.40,T,,M,0.30,N,0.6,K,D*0A
$GPGGA,181655.000,3748.7925,N,12217.8631,W,2,06,1.2,39.0,M,-25.1,M,4.8,0000*7F
$GPGSA,A,3,13,28,23,07,08,16,,,,,,,2.0,1.2,1.7*34
$GPRMC,181655.000,A,3748.7925,N,12217.8631,W,0.34,134.76,260711,,,D*7E
$GPVTG,134.76,T,,M,0.34,N,0.6,K,D*0E
$GPGGA,181656.000,3748.7924,N,12217.8629,W,2,07,1.1,38.0,M,-25.1,M,5.8,0000*76
$GPGSA,A,3,13,28,23,19,07,08,16,,,,,,2.0,1.1,1.7*3F
$GPRMC,181656.000,A,3748.7924,N,12217.8629,W,0.31,96.93,260711,,,D*42
$GPVTG,96.93,T,,M,0.31,N,0.6,K,D*39
$GPGGA,181657.000,3748.7923,N,12217.8624,W,2,07,1.1,37.1,M,-25.1,M,2.8,0000*74
$GPGSA,A,3,13,28,23,19,07,08,16,,,,,,2.0,1.1,1.7*3F
$GPRMC,181657.000,A,3748.7923,N,12217.8624,W,0.15,143.09,260711,,,D*75
$GPVTG,143.09,T,,M,0.15,N,0.3,K,D*00
$GPGGA,181658.000,3748.7925,N,12217.8626,W,2,07,1.1,35.7,M,-25.1,M,2.8,0000*7B
$GPGSA,A,3,13,28,23,19,07,08,16,,,,,,2.0,1.1,1.7*3F
$GPRMC,181658.000,A,3748.7925,N,12217.8626,W,0.02,49.77,260711,,,D*4A
$GPVTG,49.77,T,,M,0.02,N,0.0,K,D*37
$GPGGA,181659.000,3748.7925,N,12217.8627,W,2,07,1.1,35.4,M,-25.1,M,2.8,0000*78
$GPGSA,A,3,13,28,23,19,07,08,16,,,,,,2.0,1.1,1.7*3F
$GPGSV,3,1,12,07,66,350,32,13,56,127,27,08,50,300,22,10,37,248,34*7A
$GPGSV,3,2,12,28,30,219,40,19,30,089,19,23,27,135,25,03,23,055,*78
$GPGSV,3,3,12,05,20,306,35,06,13,045,24,16,06,043,24,51,43,156,38*77
$GPRMC,181659.000,A,3748.7925,N,12217.8627,W,0.20,136.91,260711,,,D*7B
$GPGGA,181700.000,3748.7926,N,12217.8629,W,2,07,1.1,34.2,M,-25.1,M,3.8,0000*7E
$GPGSA,A,3,13,28,23,19,07,08,16,,,,,,2.0,1.1,1.7*3F
$GPRMC,181700.000,A,3748.7926,N,12217.8629,W,0.30,303.96,260711,,,D*79
$GPVTG,303.96,T,,M,0.30,N,0.6,K,D*02
$GPGGA,181701.000,3748.7929,N,12217.8627,W,2,07,1.1,32.3,M,-25.1,M,2.8,0000*78
$GPGSA,A,3,13,28,23,19,07,08,16,,,,,,2.0,1.1,1.7*3F
$GPRMC,181701.000,A,3748.7929,N,12217.8627,W,0.02,193.33,260711,,,D*7C
$GPVTG,193.33,T,,M,0.02,N,0.0,K,D*01
$GPGGA,181702.000,3748.7930,N,12217.8628,W,2,07,1.1,31.1,M,-25.1,M,2.8,0000*7D
$GPGSA,A,3,13,28,23,19,07,08,16,,,,,,2.0,1.1,1.7*3F
$GPRMC,181702.000,A,3748.7930,N,12217.8628,W,0.21,71.54,260711,,,D*45
$GPVTG,71.54,T,,M,0.21,N,0.4,K,D*38
$GPGGA,181703.000,3748.7932,N,12217.8627,W,2,07,1.1,29.7,M,-25.1,M,2.8,0000*7E
$GPGSA,A,3,13,28,23,19,07,08,16,,,,,,2.0,1.1,1.7*3F
$GPRMC,181703.000,A,3748.7932,N,12217.8627,W,0.33,59.72,260711,,,D*44
$GPVTG,59.72,T,,M,0.33,N,0.6,K,D*37
$GPGGA,181704.000,3748.7934,N,12217.8627,W,2,06,1.2,28.3,M,-25.1,M,2.8,0000*78
$GPGSA,A,3,13,28,23,19,08,16,,,,,,,2.3,1.2,2.0*3C
$GPGSV,3,1,12,07,66,350,21,13,56,127,27,08,50,300,33,10,37,248,38*74
$GPGSV,3,2,12,28,30,219,37,19,30,089,18,23,27,135,30,03,23,055,19*75
$GPGSV,3,3,12,05,20,306,35,06,13,045,22,16,06,043,23,51,43,156,31*7F
$GPWPL,3748.7934,N,12217.8627,W,00001*65
$ADPMB,5,0
$GPRMC,181704.000,A,3748.7934,N,12217.8627,W,0.50,58.42,260711,,,D*42
$GPVTG,58.42,T,,M,0.50,N,0.9,K,D*3F
$GPGGA,181705.000,3748.7934,N,12217.8625,W,2,07,1.1,28.3,M,-25.1,M,2.8,0000*79
$GPGSA,A,3,13,28,23,19,07,08,16,,,,,,2.0,1.1,1.7*3F
$GPRMC,181705.000,A,3748.7934,N,12217.8625,W,0.40,68.81,260711,,,D*4C
$GPVTG,68.81,T,,M,0.40,N,0.7,K,D*3C
$GPGGA,181706.000,3748.7933,N,12217.8624,W,2,07,1.1,27.2,M,-25.1,M,3.8,0000*73
