$ADVER,3080,2.3
$GPRMC,205128.557,A,3748.7615,N,12217.1573,W,0.08,282.82,081011,,,A*7E
$GPGGA,205129.557,3748.7615,N,12217.1573,W,1,03,3.1,25.1,M,-25.1,M,,0000*52
$GPGSA,A,2,25,09,29,,,,,,,,,,3.3,3.1,1.0*35
$GPRMC,205129.557,A,3748.7615,N,12217.1573,W,0.16,132.38,081011,,,A*79
$GPVTG,132.38,T,,M,0.16,N,0.3,K,N*0D
$GPGGA,205130.557,3748.7614,N,12217.1573,W,1,03,3.1,25.1,M,-25.1,M,,0000*5B
$GPGSA,A,2,25,09,29,,,,,,,,,,3.3,3.1,1.0*35
$GPGSV,3,1,11,25,39,314,39,09,30,209,39,27,22,199,39,29,17,273,38*7F
$GPGSV,3,2,11,02,79,085,32,12,74,325,32,04,34,048,26,10,28,088,*7D
$GPGSV,3,3,11,05,20,148,37,17,02,078,,48,00,000,42*46
$GPRMC,205130.557,A,3748.7614,N,12217.1573,W,0.28,111.86,081011,,,A*79
$GPVTG,111.86,T,,M,0.28,N,0.5,K,N*02
$GPGGA,205131.557,3748.7614,N,12217.1573,W,1,03,3.1,25.1,M,-25.1,M,,0000*5A
$GPGSA,A,2,25,09,29,,,,,,,,,,3.3,3.1,1.0*35
$GPRMC,205131.557,A,3748.7614,N,12217.1573,W,0.31,102.27,081011,,,A*79
$GPVTG,102.27,T,,M,0.31,N,0.6,K,N*00
$GPGGA,205132.557,3748.7614,N,12217.1573,W,1,03,3.1,25.1,M,-25.1,M,,0000*59
$GPGSA,A,2,25,09,29,,,,,,,,,,3.3,3.1,1.0*35
$GPRMC,205132.557,A,3748.7614,N,12217.1573,W,0.43,119.22,081011,,,A*70
$GPVTG,119.22,T,,M,0.43,N,0.8,K,N*04
$GPGGA,205133.557,3748.7612,N,12217.1573,W,1,03,3.1,25.1,M,-25.1,M,,0000*5E
$GPGSA,A,2,25,09,29,,,,,,,,,,3.3,3.1,1.0*35
$GPRMC,205133.557,A,3748.7612,N,12217.1573,W,0.92,159.88,081011,,,A*7F
$GPVTG,159.88,T,,M,0.92,N,1.7,K,N*02
$GPGGA,205134.557,3748.7675,N,12217.1451,W,1,04,1.8,24.5,M,-25.1,M,,0000*50
$GPGSA,A,3,25,09,29,05,,,,,,,,,4.6,1.8,4.3*3E
$GPRMC,205134.557,A,3748.7675,N,12217.1451,W,1.15,25.04,081011,,,A*48
$GPVTG,25.04,T,,M,1.15,N,2.1,K,A*38
$GPGGA,205135.557,3748.7669,N,12217.1461,W,1,04,1.8,33.2,M,-25.1,M,,0000*5E
$GPGSA,A,3,25,09,29,05,,,,,,,,,4.6,1.8,4.3*3E
$GPGSV,3,1,11,25,39,314,22,09,30,209,39,27,22,199,35,05,20,148,36*76
$GPGSV,3,2,11,29,17,273,29,02,79,085,27,12,74,325,23,04,34,048,23*77
$GPGSV,3,3,11,10,28,088,22,17,02,078,,48,44,197,33*4A
$GPRMC,205135.557,A,3748.7669,N,12217.1461,W,0.18,350.59,081011,,,A*72
$GPVTG,350.59,T,,M,0.18,N,0.3,K,A*0D
$GPGGA,205136.557,3748.7659,N,12217.1471,W,1,04,1.8,31.7,M,-25.1,M,,0000*58
$GPGSA,A,3,25,09,29,05,,,,,,,,,4.6,1.8,4.3*3E
$GPRMC,205136.557,A,3748.7659,N,12217.1471,W,0.15,219.26,081011,,,A*7A
$GPVTG,219.26,T,,M,0.15,N,0.3,K,A*04
$GPGGA,205137.000,3748.7657,N,12217.1473,W,1,04,1.8,31.0,M,-25.1,M,,0000*55
$GPGSA,A,3,25,09,29,05,,,,,,,,,4.6,1.8,4.3*3E
$GPRMC,205137.000,A,3748.7657,N,12217.1473,W,0.29,204.18,081011,,,A*7E
$GPVTG,204.18,T,,M,0.29,N,0.5,K,A*0C
$GPGGA,205138.000,3748.7656,N,12217.1480,W,1,04,1.8,29.3,M,-25.1,M,,0000*5D
$GPGSA,A,3,25,09,29,05,,,,,,,,,4.6,1.8,4.3*3E
$GPRMC,205138.000,A,3748.7656,N,12217.1480,W,0.14,199.55,081011,,,A*7C
$GPVTG,199.55,T,,M,0.14,N,0.3,K,A*0A
$GPGGA,205139.000,3748.7652,N,12217.1480,W,1,04,1.8,28.1,M,-25.1,M,,0000*5B
$GPGSA,A,3,25,09,29,05,,,,,,,,,4.6,1.8,4.3*3E
$GPRMC,205139.000,A,3748.7652,N,12217.1480,W,0.26,150.95,081011,,,A*71
$GPVTG,150.95,T,,M,0.26,N,0.5,K,A*04
$GPGGA,205140.000,3748.7650,N,12217.1480,W,1,04,1.8,24.7,M,-25.1,M,,0000*5D
$GPGSA,A,3,25,09,29,05,,,,,,,,,4.6,1.8,4.3*3E
$GPGSV,3,1,11,25,39,314,24,09,30,209,36,27,22,199,36,05,20,148,37*7D
$GPGSV,3,2,11,29,17,273,27,02,79,085,28,12,74,325,26,04,34,048,22*72
$GPGSV,3,3,11,10,28,088,24,17,02,078,,48,44,197,34*4B
$GPVTG,149.98,T,,M,0.22,N,0.4,K,A*04
$GPGGA,205141.000,3748.7652,N,12217.1472,W,1,04,1.8,29.7,M,-25.1,M,,0000*5E
$GPGSA,A,3,25,09,29,05,,,,,,,,,4.6,1.8,4.3*3E
$GPRMC,205141.000,A,3748.7652,N,12217.1472,W,0.48,177.47,081011,,,A*71
$GPVTG,177.47,T,,M,0.48,N,0.9,K,A*0A
$GPGGA,205142.000,3748.7649,N,12217.1475,W,1,04,1.8,26.5,M,-25.1,M,,0000*5D
$GPGSA,A,3,25,09,29,05,,,,,,,,,4.6,1.8,4.3*3E
$GPRMC,205142.000,A,3748.7649,N,12217.1475,W,0.08,31.47,081011,,,A*48
$GPVTG,31.47,T,,M,0.08,N,0.1,K,A*35
$GPGGA,205143.000,3748.7646,N,12217.1478,W,1,04,1.8,23.5,M,-25.1,M,,0000*5B
$GPGSA,A,3,25,09,29,05,,,,,,,,,4.6,1.8,4.3*3E
$GPRMC,205143.000,A,3748.7646,N,12217.1478,W,0.48,319.99,081011,,,A*75
$GPVTG,319.99,T,,M,0.48,N,0.9,K,A*03
$GPGGA,205144.000,3748.7642,N,12217.1482,W,1,04,1.8,20.5,M,-25.1,M,,0000*5E
$GPGSA,A,3,25,09,29,05,,,,,,,,,4.6,1.8,4.3*3E
$GPRMC,205144.000,A,3748.7642,N,12217.1482,W,0.26,222.57,081011,,,A*70
$GPVTG,222.57,T,,M,0.26,N,0.5,K,A*0C
$GPGGA,205145.000,3748.7640,N,12217.1484,W,1,04,1.8,18.3,M,-25.1,M,,0000*56
$GPGSA,A,3,25,09,29,05,,,,,,,,,4.6,1.8,4.3*3E
$GPGSV,3,1,11,02,79,085,33,12,74,325,32,25,39,314,21,04,34,048,21*7B
$GPGSV,3,2,11,09,30,209,40,10,28,088,21,27,22,199,35,05,20,148,36*78
$GPGSV,3,3,11,29,17,273,26,17,02,078,,48,44,197,38*45
$GPRMC,205145.000,A,3748.7640,N,12217.1484,W,0.46,224.65,081011,,,A*74
$GPVTG,224.65,T,,M,0.46,N,0.9,K,A*01
$GPGGA,205146.000,3748.7640,N,12217.1484,W,1,04,1.8,17.9,M,-25.1,M,,0000*50
$GPGSA,A,3,25,09,29,05,,,,,,,,,4.6,1.8,4.3*3E
$GPRMC,205146.000,A,3748.7640,N,12217.1484,W,0.66,209.82,081011,,,A*73
$GPVTG,209.82,T,,M,0.66,N,1.2,K,A*0F
$GPGGA,205147.000,3748.7641,N,12217.1483,W,1,04,1.8,17.5,M,-25.1,M,,0000*5B
$GPGSA,A,3,25,09,29,05,,,,,,,,,4.7,1.8,4.3*3F
$GPRMC,205147.000,A,3748.7641,N,12217.1483,W,0.29,235.42,081011,,,A*7C
$GPVTG,235.42,T,,M,0.29,N,0.5,K,A*01
$GPGGA,205148.000,3748.7642,N,12217.1482,W,1,04,1.8,15.2,M,-25.1,M,,0000*53
$GPGSA,A,3,25,09,29,05,,,,,,,,,4.7,1.8,4.3*3F
$GPRMC,205148.000,A,3748.7642,N,12217.1482,W,0.19,73.11,081011,,,A*44
$GPVTG,73.11,T,,M,0.19,N,0.4,K,A*35
$GPGGA,205149.000,3748.7642,N,12217.1482,W,1,04,1.8,12.6,M,-25.1,M,,0000*51
$GPGSA,A,3,25,09,29,05,,,,,,,,,4.7,1.8,4.3*3F
$GPRMC,205149.000,A,3748.7642,N,12217.1482,W,0.22,273.52,081011,,,A*78
$GPVTG,273.52,T,,M,0.22,N,0.4,K,A*08
$GPGGA,205150.000,3748.7642,N,12217.1482,W,1,04,1.8,10.8,M,-25.1,M,,0000*55
$GPGSA,A,3,25,09,29,05,,,,,,,,,4.7,1.8,4.3*3F
$GPGSV,3,1,11,02,79,085,38,12,74,325,37,25,39,314,37,04,34,048,33*71
$GPGSV,3,2,11,09,30,209,33,10,28,088,35,27,22,199,32,05,20,148,37*7F
$GPGSV,3,3,11,29,17,273,27,17,02,078,,48,44,197,36*4A
$GPRMC,205150.000,A,3748.7642,N,12217.1482,W,0.15,255.68,081011,,,A*79
$GPVTG,255.68,T,,M,0.15,N,0.3,K,A*06
$GPGGA,205151.000,3748.7642,N,12217.1483,W,1,04,1.8,9.5,M,-25.1,M,,0000*60
$GPGSA,A,3,25,09,29,05,,,,,,,,,4.7,1.8,4.3*3F
$GPRMC,205151.000,A,3748.7642,N,12217.1483,W,0.25,266.90,081011,,,A*7D
$GPVTG,266.90,T,,M,0.25,N,0.5,K,A*04
$GPGGA,205152.000,3748.7642,N,12217.1485,W,1,04,1.8,8.5,M,-25.1,M,,0000*64
$GPGSA,A,3,25,09,29,05,,,,,,,,,4.7,1.8,4.3*3F
$GPRMC,205152.000,A,3748.7642,N,12217.1485,W,0.50,247.73,081011,,,A*74
$GPVTG,247.73,T,,M,0.50,N,0.9,K,A*04
$GPGGA,205153.000,3748.7642,N,12217.1485,W,1,04,1.8,7.6,M,-25.1,M,,0000*69
$GPGSA,A,3,25,09,29,05,,,,,,,,,4.7,1.8,4.3*3F
$GPRMC,205153.000,A,3748.7642,N,12217.1485,W,0.08,218.86,081011,,,A*78
$GPVTG,218.86,T,,M,0.08,N,0.1,K,A*01
$GPGGA,205154.000,3748.7642,N,12217.1486,W,1,04,1.8,6.8,M,-25.1,M,,0000*62
$GPGSA,A,3,25,09,29,05,,,,,,,,,4.7,1.8,4.3*3F
$GPRMC,205154.000,A,3748.7642,N,12217.1486,W,0.48,238.14,081011,,,A*71
$GPVTG,238.14,T,,M,0.48,N,0.9,K,A*04
$GPGGA,205155.000,3748.7643,N,12217.1487,W,1,04,1.8,6.2,M,-25.1,M,,0000*69
$GPGSA,A,3,25,09,29,05,,,,,,,,,4.7,1.8,4.3*3F
$GPGSV,3,1,11,02,79,085,37,12,74,325,38,25,39,314,38,04,34,048,24*78
$GPGSV,3,2,11,09,30,209,39,10,28,088,25,27,22,199,34,05,20,148,37*72
$GPGSV,3,3,11,29,17,273,35,17,02,078,,48,44,197,40*48
$GPRMC,205155.000,A,3748.7643,N,12217.1487,W,0.20,265.19,081011,,,A*7B
$GPGGA,205156.000,3748.7643,N,12217.1487,W,1,04,1.8,5.6,M,-25.1,M,,0000*6D
$GPGSA,A,3,25,09,29,05,,,,,,,,,4.7,1.8,4.3*3F
$GPRMC,205156.000,A,3748.7643,N,12217.1487,W,0.23,240.30,081011,,,A*77
$GPVTG,240.30,T,,M,0.23,N,0.4,K,A*0D
$GPGGA,205157.000,3748.7643,N,12217.1487,W,1,04,1.8,5.1,M,-25.1,M,,0000*6B
$GPGSA,A,3,25,09,29,05,,,,,,,,,4.7,1.8,4.3*3F
$GPRMC,205157.000,A,3748.7643,N,12217.1487,W,0.07,241.07,081011,,,A*75
$GPVTG,241.07,T,,M,0.07,N,0.1,K,A*0B
$GPGGA,205158.000,3748.7644,N,12217.1487,W,1,04,1.8,4.7,M,-25.1,M,,0000*64
$GPGSA,A,3,25,09,29,05,,,,,,,,,4.7,1.8,4.3*3F
$GPRMC,205158.000,A,3748.7644,N,12217.1487,W,0.07,226.73,081011,,,A*7F
$GPVTG,226.73,T,,M,0.07,N,0.1,K,A*09
$GPGGA,205159.000,3748.7644,N,12217.1487,W,1,04,1.8,4.4,M,-25.1,M,,0000*66
$GPGSA,A,3,25,09,29,05,,,,,,,,,4.7,1.8,4.3*3F
$GPRMC,205159.000,A,3748.7644,N,12217.1487,W,0.07,226.28,081011,,,A*70
$GPVTG,226.28,T,,M,0.07,N,0.1,K,A*07
$GPGGA,205200.000,3748.7644,N,12217.1487,W,1,04,1.8,4.2,M,-25.1,M,,0000*6F
$GPGSA,A,3,25,09,29,05,,,,,,,,,4.7,1.8,4.3*3F
$GPGSV,3,1,11,02,79,085,27,12,74,325,34,25,39,314,38,04,34,048,26*77
$GPGSV,3,2,11,09,30,209,37,10,28,088,26,27,22,199,26,05,20,148,33*78
$GPGSV,3,3,11,29,17,273,36,17,02,078,,48,44,197,40*4B
$GPRMC,205200.000,A,3748.7644,N,12217.1487,W,0.07,205.98,081011,,,A*75
$GPVTG,205.98,T,,M,0.07,N,0.1,K,A*0D
$GPGGA,205201.000,3748.7644,N,12217.1486,W,1,04,1.8,3.9,M,-25.1,M,,0000*63
$GPGSA,A,3,25,09,29,05,,,,,,,,,4.7,1.8,4.3*3F
$GPRMC,205201.000,A,3748.7644,N,12217.1486,W,0.04,207.87,081011,,,A*7A
$GPVTG,207.87,T,,M,0.04,N,0.1,K,A*02
$GPGGA,205202.000,3748.7645,N,12217.1486,W,1,04,1.8,3.7,M,-25.1,M,,0000*6F
$GPGSA,A,3,25,09,29,05,,,,,,,,,4.7,1.8,4.3*3F
$GPRMC,205202.000,A,3748.7645,N,12217.1486,W,0.02,299.39,081011,,,A*7C
$GPVTG,299.39,T,,M,0.02,N,0.0,K,A*07
$GPGGA,205203.000,3748.7645,N,12217.1486,W,1,04,1.8,3.5,M,-25.1,M,,0000*6C
$GPGSA,A,3,25,09,29,05,,,,,,,,,4.7,1.8,4.3*3F
$GPRMC,205203.000,A,3748.7645,N,12217.1486,W,0.03,229.82,081011,,,A*77
$GPVTG,229.82,T,,M,0.03,N,0.1,K,A*0C
$GPGGA,205204.000,3748.7645,N,12217.1485,W,1,06,1.8,4.4,M,-25.1,M,,0000*6C
$GPGSA,A,3,02,25,09,29,12,05,,,,,,,2.9,1.8,2.2*31
$GPRMC,205204.000,A,3748.7645,N,12217.1485,W,0.13,62.94,081011,,,A*48
$GPVTG,62.94,T,,M,0.13,N,0.2,K,A*34
$GPGGA,205205.000,3748.7645,N,12217.1484,W,1,06,1.8,4.7,M,-25.1,M,,0000*6F
$GPGSA,A,3,02,25,09,29,12,05,,,,,,,2.9,1.8,2.2*31
$GPGSV,3,1,11,02,79,084,38,12,74,325,40,25,39,314,37,04,34,048,39*7A
$GPGSV,3,2,11,09,30,209,35,10,28,088,33,27,21,199,27,05,20,148,34*7B
$GPGSV,3,3,11,29,17,273,36,17,02,078,,48,44,197,38*44
$GPRMC,205205.000,A,3748.7645,N,12217.1484,W,0.07,78.88,081011,,,A*4B
$GPVTG,78.88,T,,M,0.07,N,0.1,K,A*34
$GPGGA,205206.000,3748.7645,N,12217.1484,W,1,06,1.8,5.0,M,-25.1,M,,0000*6A
$GPGSA,A,3,02,25,09,29,12,05,,,,,,,2.9,1.8,2.2*31
$GPRMC,205206.000,A,3748.7645,N,12217.1484,W,0.03,92.60,081011,,,A*4E
$GPVTG,92.60,T,,M,0.03,N,0.1,K,A*32
$GPGGA,205207.000,3748.7645,N,12217.1484,W,1,06,1.8,5.2,M,-25.1,M,,0000*69
$GPGSA,A,3,02,25,09,29,12,05,,,,,,,2.9,1.8,2.2*31
$GPRMC,205207.000,A,3748.7645,N,12217.1484,W,0.04,136.61,081011,,,A*76
$GPVTG,136.61,T,,M,0.04,N,0.1,K,A*0B
$GPGGA,205208.000,3748.7645,N,12217.1484,W,1,06,1.8,5.4,M,-25.1,M,,0000*60
$GPGSA,A,3,02,25,09,29,12,05,,,,,,,2.9,1.8,2.2*31
$GPRMC,205208.000,A,3748.7645,N,12217.1484,W,0.04,166.60,081011,,,A*7D
$GPVTG,166.60,T,,M,0.04,N,0.1,K,A*0F
$GPGGA,205209.000,3748.7645,N,12217.1484,W,1,06,1.8,5.6,M,-25.1,M,,0000*63
$GPGSA,A,3,02,25,09,29,12,05,,,,,,,2.9,1.8,2.2*31
$GPRMC,205209.000,A,3748.7645,N,12217.1484,W,0.06,208.31,081011,,,A*71
$GPVTG,208.31,T,,M,0.06,N,0.1,K,A*02
$GPGGA,205210.000,3748.7645,N,12217.1484,W,1,06,1.8,5.8,M,-25.1,M,,0000*65
$GPGSA,A,3,02,25,09,29,12,05,,,,,,,2.9,1.8,2.2*31
$GPGSV,3,1,11,02,79,084,38,12,74,325,40,25,39,314,37,04,34,048,39*7A
$GPGSV,3,2,11,09,30,209,35,10,28,088,34,27,21,199,27,05,20,148,34*7C
$GPGSV,3,3,11,29,17,273,37,17,02,078,,48,44,197,38*45
$GPRMC,205210.000,A,3748.7645,N,12217.1484,W,0.06,185.21,081011,,,A*7E
$GPVTG,185.21,T,,M,0.06,N,0.1,K,A*05
$GPGGA,205211.000,3748.7644,N,12217.1484,W,1,06,1.8,5.9,M,-25.1,M,,0000*64
$GPGSA,A,3,02,25,09,29,12,05,,,,,,,2.9,1.8,2.2*31
$GPRMC,205211.000,A,3748.7644,N,12217.1484,W,0.09,206.87,081011,,,A*75
$GPVTG,206.87,T,,M,0.09,N,0.2,K,A*0D
$GPGGA,205212.000,3748.7644,N,12217.1485,W,1,06,1.8,6.1,M,-25.1,M,,0000*6D
$GPGSA,A,3,02,25,09,29,12,05,,,,,,,2.9,1.8,2.2*31
$GPRMC,205212.000,A,3748.7644,N,12217.1485,W,0.10,212.43,081011,,,A*72
$GPVTG,212.43,T,,M,0.10,N,0.2,K,A*08
$GPGGA,205213.000,3748.7644,N,12217.1485,W,1,06,1.8,6.2,M,-25.1,M,,0000*6F
$GPGSA,A,3,02,25,09,29,12,05,,,,,,,2.9,1.8,2.2*31
$GPRMC,205213.000,A,3748.7644,N,12217.1485,W,0.12,205.13,081011,,,A*72
$GPVTG,205.13,T,,M,0.12,N,0.2,K,A*09
$GPGGA,205214.000,3748.7644,N,12217.1485,W,1,06,1.8,6.4,M,-25.1,M,,0000*6E
$GPGSA,A,3,02,25,09,29,12,05,,,,,,,2.9,1.8,2.2*31
$GPRMC,205214.000,A,3748.7644,N,12217.1485,W,0.12,217.11,081011,,,A*74
$GPVTG,217.11,T,,M,0.12,N,0.2,K,A*08
$GPGGA,205215.000,3748.7644,N,12217.1485,W,1,06,1.8,6.5,M,-25.1,M,,0000*6E
$GPGSA,A,3,02,25,09,29,12,05,,,,,,,2.9,1.8,2.2*31
$GPGSV,3,1,11,02,79,084,39,12,74,325,40,25,39,314,38,04,34,048,39*74
$GPGSV,3,2,11,09,30,209,35,10,28,088,34,27,21,199,26,05,20,148,35*7C
$GPGSV,3,3,11,29,17,273,36,17,02,078,,48,44,197,38*44
$GPRMC,205215.000,A,3748.7644,N,12217.1485,W,0.11,201.63,081011,,,A*74
$GPVTG,201.63,T,,M,0.11,N,0.2,K,A*09
$GPGGA,205216.000,3748.7643,N,12217.1486,W,1,06,1.8,6.7,M,-25.1,M,,0000*6B
$GPGSA,A,3,02,25,09,29,12,05,,,,,,,2.9,1.8,2.2*31
$GPRMC,205216.000,A,3748.7643,N,12217.1486,W,0.12,207.30,081011,,,A*70
$GPVTG,207.30,T,,M,0.12,N,0.2,K,A*0A
$GPGGA,205217.000,3748.7643,N,12217.1486,W,1,06,1.8,6.8,M,-25.1,M,,0000*65
$GPGSA,A,3,02,25,09,29,12,05,,,,,,,2.9,1.8,2.2*31
$GPRMC,205217.000,A,3748.7643,N,12217.1486,W,0.12,207.90,081011,,,A*7B
$GPVTG,207.90,T,,M,0.12,N,0.2,K,A*00
$GPGGA,205218.000,3748.7643,N,12217.1486,W,1,06,1.8,7.0,M,-25.1,M,,0000*63
$GPGSA,A,3,02,25,09,29,12,05,,,,,,,2.9,1.8,2.2*31
$GPRMC,205218.000,A,3748.7643,N,12217.1486,W,0.15,219.53,081011,,,A*73
$GPVTG,219.53,T,,M,0.15,N,0.3,K,A*06
$GPGGA,205219.000,3748.7643,N,12217.1486,W,2,06,1.8,7.1,M,-25.1,M,1.8,0000*47
$GPGSA,A,3,02,25,09,29,12,05,,,,,,,2.9,1.8,2.2*31
$GPRMC,205219.000,A,3748.7643,N,12217.1486,W,0.11,191.43,081011,,,D*71
$GPVTG,191.43,T,,M,0.11,N,0.2,K,D*04
$GPGGA,205220.000,3748.7642,N,12217.1486,W,2,06,1.8,7.3,M,-25.1,M,0.8,0000*4F
$GPGSA,A,3,02,25,09,29,12,05,,,,,,,2.9,1.8,2.2*31
$GPGSV,3,1,11,02,79,083,39,12,74,325,39,25,39,314,38,04,34,048,39*7D
$GPGSV,3,2,11,09,30,209,35,10,28,088,34,27,21,199,27,05,20,148,34*7C
$GPGSV,3,3,11,29,17,273,36,17,02,078,,48,44,197,38*44
$GPRMC,205220.000,A,3748.7642,N,12217.1486,W,0.14,208.77,081011,,,D*7B
$GPVTG,208.77,T,,M,0.14,N,0.3,K,D*04
$GPGGA,205221.000,3748.7642,N,12217.1487,W,2,06,1.8,7.4,M,-25.1,M,1.8,0000*49
$GPGSA,A,3,02,25,09,29,12,05,,,,,,,2.9,1.8,2.2*31
$GPRMC,205221.000,A,3748.7642,N,12217.1487,W,0.06,200.83,081011,,,D*7B
$GPVTG,200.83,T,,M,0.06,N,0.1,K,D*06
$GPGGA,205222.000,3748.7642,N,12217.1487,W,2,06,1.8,7.6,M,-25.1,M,1.8,0000*48
$GPGSA,A,3,02,25,09,29,12,05,,,,,,,2.9,1.8,2.2*31
$GPRMC,205222.000,A,3748.7642,N,12217.1487,W,0.08,234.96,081011,,,D*75
$GPVTG,234.96,T,,M,0.08,N,0.1,K,D*0B
$GPGGA,205223.000,3748.7642,N,12217.1487,W,2,06,1.8,7.7,M,-25.1,M,2.8,0000*4B
$GPGSA,A,3,02,25,09,29,12,05,,,,,,,2.9,1.8,2.2*31
$GPRMC,205223.000,A,3748.7642,N,12217.1487,W,0.21,224.61,081011,,,D*76
$GPVTG,224.61,T,,M,0.21,N,0.4,K,D*0C
$GPGGA,205224.000,3748.7642,N,12217.1488,W,2,06,1.8,7.8,M,-25.1,M,3.8,0000*4D
$GPGSA,A,3,02,25,09,29,12,05,,,,,,,2.9,1.8,2.2*31
$GPRMC,205224.000,A,3748.7642,N,12217.1488,W,0.24,232.24,081011,,,D*7D
$GPVTG,232.24,T,,M,0.24,N,0.4,K,D*0F
$GPGGA,205225.000,3748.7642,N,12217.1487,W,2,06,1.8,7.7,M,-25.1,M,4.8,0000*4B
$GPGSA,A,3,02,25,09,29,12,05,,,,,,,2.9,1.8,2.2*31
$GPGSV,3,1,11,02,79,083,39,12,74,325,39,25,39,314,38,04,34,048,39*7D
$GPGSV,3,2,11,09,30,209,35,10,28,088,33,27,21,199,28,05,20,148,29*78
$GPGSV,3,3,11,29,17,273,32,17,02,078,,48,44,197,39*41
$GPRMC,205225.000,A,3748.7642,N,12217.1487,W,0.18,205.69,081011,,,D*71
$GPGGA,205226.000,3748.7642,N,12217.1487,W,2,06,1.8,7.6,M,-25.1,M,1.8,0000*4C
$GPGSA,A,3,02,25,09,29,12,05,,,,,,,2.9,1.8,2.2*31
$GPRMC,205226.000,A,3748.7642,N,12217.1487,W,0.13,217.70,081011,,,D*72
$GPVTG,217.70,T,,M,0.13,N,0.2,K,D*0B
$GPGGA,205227.000,3748.7642,N,12217.1487,W,2,06,1.8,7.7,M,-25.1,M,1.8,0000*4C
$GPGSA,A,3,02,25,09,29,12,05,,,,,,,2.9,1.8,2.2*31
$GPRMC,205227.000,A,3748.7642,N,12217.1487,W,0.16,231.41,081011,,,D*70
$GPVTG,231.41,T,,M,0.16,N,0.3,K,D*09
$GPGGA,205228.000,3748.7642,N,12217.1487,W,2,06,1.8,7.8,M,-25.1,M,1.8,0000*4C
$GPGSA,A,3,02,25,09,29,12,05,,,,,,,2.9,1.8,2.2*31
$GPRMC,205228.000,A,3748.7642,N,12217.1487,W,0.12,194.05,081011,,,D*77
$GPVTG,194.05,T,,M,0.12,N,0.2,K,D*00
$GPGGA,205229.000,3748.7642,N,12217.1487,W,2,06,1.8,7.9,M,-25.1,M,2.8,0000*4F
$GPGSA,A,3,02,25,09,29,12,05,,,,,,,2.9,1.8,2.2*31
$GPRMC,205229.000,A,3748.7642,N,12217.1487,W,0.11,184.85,081011,,,D*7C
$GPVTG,184.85,T,,M,0.11,N,0.2,K,D*0A
$GPGGA,205230.000,3748.7641,N,12217.1487,W,2,06,1.8,8.0,M,-25.1,M,1.8,0000*41
$GPGSA,A,3,02,25,09,29,12,05,,,,,,,2.9,1.8,2.2*31
$GPGSV,3,1,11,02,79,083,39,12,74,325,39,25,39,314,37,04,34,048,38*73
$GPGSV,3,2,11,09,30,209,35,10,28,088,31,27,21,199,27,05,20,148,30*7D
$GPGSV,3,3,11,29,17,273,34,17,02,078,,48,44,197,39*47
$GPRMC,205230.000,A,3748.7641,N,12217.1487,W,0.09,193.72,081011,,,D*70
$GPVTG,193.72,T,,M,0.09,N,0.2,K,D*0D
$GPGGA,205231.000,3748.7641,N,12217.1488,W,2,06,1.8,8.1,M,-25.1,M,2.8,0000*4D
$GPGSA,A,3,02,25,09,29,12,05,,,,,,,2.9,1.8,2.2*31
$GPRMC,205231.000,A,3748.7641,N,12217.1488,W,0.17,191.67,081011,,,D*77
$GPVTG,191.67,T,,M,0.17,N,0.3,K,D*05
$GPGGA,205232.000,3748.7641,N,12217.1488,W,2,06,1.8,8.2,M,-25.1,M,1.8,0000*4E
$GPGSA,A,3,02,25,09,29,12,05,,,,,,,2.9,1.8,2.2*31
$GPRMC,205232.000,A,3748.7641,N,12217.1488,W,0.12,199.72,081011,,,D*7D
$GPVTG,199.72,T,,M,0.12,N,0.2,K,D*0D
$GPGGA,205233.000,3748.7641,N,12217.1489,W,2,06,1.8,8.4,M,-25.1,M,1.8,0000*48
$GPGSA,A,3,02,25,09,29,12,05,,,,,,,2.9,1.8,2.2*31
$GPRMC,205233.000,A,3748.7641,N,12217.1489,W,0.15,202.97,081011,,,D*70
$GPVTG,202.97,T,,M,0.15,N,0.3,K,D*01
$GPGGA,205234.000,3748.7641,N,12217.1489,W,2,07,1.1,8.3,M,-25.1,M,1.8,0000*40
$GPGSA,A,3,02,25,09,29,04,12,05,,,,,,2.0,1.1,1.7*33
$GPRMC,205234.000,A,3748.7641,N,12217.1489,W,0.05,3.50,081011,,,D*7E
$GPVTG,3.50,T,,M,0.05,N,0.1,K,D*0A
$GPGGA,205235.000,3748.7641,N,12217.1489,W,2,07,1.1,8.3,M,-25.1,M,2.8,0000*42
$GPGSA,A,3,02,25,09,29,04,12,05,,,,,,2.0,1.1,1.7*33
$GPGSV,3,1,11,02,79,083,39,12,75,325,40,25,39,314,37,04,33,048,31*72
$GPGSV,3,2,11,09,29,208,35,10,28,088,29,27,21,198,28,05,20,148,30*73
$GPGSV,3,3,11,29,18,273,34,17,02,078,,48,44,197,39*48
$GPRMC,205235.000,A,3748.7641,N,12217.1489,W,0.04,106.45,081011,,,D*7E
$GPVTG,106.45,T,,M,0.04,N,0.1,K,D*0B
$GPGGA,205236.000,3748.7641,N,12217.1489,W,2,07,1.1,8.4,M,-25.1,M,1.8,0000*45
$GPGSA,A,3,02,25,09,29,04,12,05,,,,,,2.0,1.1,1.7*33
$GPRMC,205236.000,A,3748.7641,N,12217.1489,W,0.03,88.39,081011,,,D*46
$GPVTG,88.39,T,,M,0.03,N,0.0,K,D*31
$GPGGA,205237.000,3748.7641,N,12217.1489,W,2,07,1.1,8.4,M,-25.1,M,2.8,0000*47
$GPGSA,A,3,02,25,09,29,04,12,05,,,,,,2.0,1.1,1.7*33
$GPRMC,205237.000,A,3748.7641,N,12217.1489,W,0.04,20.50,081011,,,D*4D
$GPVTG,20.50,T,,M,0.04,N,0.1,K,D*3A
$GPGGA,205238.000,3748.7642,N,12217.1489,W,2,07,1.1,8.4,M,-25.1,M,1.8,0000*48
$GPGSA,A,3,02,25,09,29,04,12,05,,,,,,2.0,1.1,1.7*33
$GPRMC,205238.000,A,3748.7642,N,12217.1489,W,0.04,48.98,081011,,,D*4B
$GPVTG,48.98,T,,M,0.04,N,0.1,K,D*30
$GPGGA,205239.000,3748.7642,N,12217.1489,W,2,07,1.1,8.5,M,-25.1,M,1.8,0000*48
$GPGSA,A,3,02,25,09,29,04,12,05,,,,,,2.0,1.1,1.7*33
$GPRMC,205239.000,A,3748.7642,N,12217.1489,W,0.03,359.20,081011,,,D*7D
$GPVTG,359.20,T,,M,0.03,N,0.0,K,D*06
$GPGGA,205240.000,3748.7641,N,12217.1490,W,2,07,1.1,8.5,M,-25.1,M,1.8,0000*4D
$GPGSA,A,3,02,25,09,29,04,12,05,,,,,,2.0,1.1,1.7*33
$GPGSV,3,1,11,02,79,083,39,12,75,325,40,25,39,314,34,04,33,048,32*72
$GPGSV,3,2,11,09,29,208,34,10,28,088,29,27,21,198,34,05,20,148,30*7F
$GPGSV,3,3,11,29,18,273,35,17,02,078,,48,44,197,38*48
$GPVTG,134.08,T,,M,0.06,N,0.1,K,D*01
$GPGGA,205241.000,3748.7641,N,12217.1490,W,2,07,1.1,8.6,M,-25.1,M,2.8,0000*4C
$GPGSA,A,3,02,25,09,29,04,12,05,,,,,,2.0,1.1,1.7*33
$GPRMC,205241.000,A,3748.7641,N,12217.1490,W,0.09,112.47,081011,,,D*7F
$GPVTG,112.47,T,,M,0.09,N,0.2,K,D*02
$GPGGA,205242.000,3748.7641,N,12217.1490,W,2,07,1.1,8.6,M,-25.1,M,3.8,0000*4E
$GPGSA,A,3,02,25,09,29,04,12,05,,,,,,2.0,1.1,1.7*33
$GPRMC,205242.000,A,3748.7641,N,12217.1490,W,0.07,141.49,081011,,,D*7A
$GPVTG,141.49,T,,M,0.07,N,0.1,K,D*07
$GPGGA,205243.000,3748.7641,N,12217.1490,W,2,07,1.1,8.7,M,-25.1,M,1.8,0000*4C
$GPGSA,A,3,02,25,09,29,04,12,05,,,,,,2.0,1.1,1.7*33
$GPRMC,205243.000,A,3748.7641,N,12217.1490,W,0.06,132.24,081011,,,D*75
$GPVTG,132.24,T,,M,0.06,N,0.1,K,D*09
$GPGGA,205244.000,3748.7641,N,12217.1490,W,2,07,1.1,8.8,M,-25.1,M,1.8,0000*44
$GPGSA,A,3,02,25,09,29,04,12,05,,,,,,2.0,1.1,1.7*33
$GPRMC,205244.000,A,3748.7641,N,12217.1490,W,0.06,146.87,081011,,,D*78
$GPVTG,146.87,T,,M,0.06,N,0.1,K,D*03
$GPGGA,205245.000,3748.7640,N,12217.1491,W,2,07,1.1,8.8,M,-25.1,M,1.8,0000*45
$GPGSA,A,3,02,25,09,29,04,12,05,,,,,,2.0,1.1,1.7*33
$GPGSV,3,1,11,02,79,083,38,12,75,325,40,25,39,314,38,04,33,048,33*7E
$GPGSV,3,2,11,09,29,208,34,10,28,088,27,27,21,198,34,05,20,148,31*70
$GPGSV,3,3,11,29,18,273,36,17,02,078,19,48,44,197,39*42
$GPRMC,205245.000,A,3748.7640,N,12217.1491,W,0.06,154.69,081011,,,D*7A
$GPVTG,154.69,T,,M,0.06,N,0.1,K,D*00
$GPGGA,205246.000,3748.7640,N,12217.1491,W,2,07,1.1,8.9,M,-25.1,M,1.8,0000*47
$GPGSA,A,3,02,25,09,29,04,12,05,,,,,,2.0,1.1,1.7*33
$GPRMC,205246.000,A,3748.7640,N,12217.1491,W,0.05,53.74,081011,,,D*40
$GPVTG,53.74,T,,M,0.05,N,0.1,K,D*39
$GPGGA,205247.000,3748.7640,N,12217.1491,W,2,07,1.1,8.9,M,-25.1,M,2.8,0000*45
$GPGSA,A,3,02,25,09,29,04,12,05,,,,,,2.0,1.1,1.7*33
$GPRMC,205247.000,A,3748.7640,N,12217.1491,W,0.04,103.96,081011,,,D*78
$GPVTG,103.96,T,,M,0.04,N,0.1,K,D*00
$GPGGA,205248.000,3748.7640,N,12217.1491,W,2,07,1.1,8.9,M,-25.1,M,3.8,0000*4B
$GPGSA,A,3,02,25,09,29,04,12,05,,,,,,2.0,1.1,1.7*33
$GPRMC,205248.000,A,3748.7640,N,12217.1491,W,0.05,66.04,081011,,,D*4F
$GPVTG,66.04,T,,M,0.05,N,0.1,K,D*38
$GPGGA,205249.000,3748.7641,N,12217.1491,W,2,07,1.1,8.9,M,-25.1,M,4.8,0000*4C
$GPGSA,A,3,02,25,09,29,04,12,05,,,,,,2.0,1.1,1.7*33
$GPRMC,205249.000,A,3748.7641,N,12217.1491,W,0.06,36.31,081011,,,D*4F
$GPVTG,36.31,T,,M,0.06,N,0.1,K,D*38
$GPGGA,205250.000,3748.7641,N,12217.1491,W,2,07,1.1,8.9,M,-25.1,M,1.8,0000*41
$GPGSA,A,3,02,25,09,29,04,12,05,,,,,,2.0,1.1,1.7*33
$GPGSV,3,1,11,02,79,082,38,12,75,325,40,25,39,314,34,04,33,048,38*78
$GPGSV,3,2,11,09,29,208,34,10,28,088,27,27,21,198,29,05,20,148,32*7F
$GPGSV,3,3,11,29,18,273,35,17,02,078,19,48,44,197,38*40
$GPRMC,205250.000,A,3748.7641,N,12217.1491,W,0.04,19.95,081011,,,D*46
$GPVTG,19.95,T,,M,0.04,N,0.1,K,D*39
$GPGGA,205251.000,3748.7640,N,12217.1491,W,2,07,1.1,8.9,M,-25.1,M,1.8,0000*41
$GPGSA,A,3,02,25,09,29,04,12,05,,,,,,2.0,1.1,1.7*33
$GPRMC,205251.000,A,3748.7640,N,12217.1491,W,0.34,150.09,081011,,,D*7C
$GPVTG,150.09,T,,M,0.34,N,0.6,K,D*04
$GPGGA,205252.000,3748.7639,N,12217.1491,W,2,07,1.1,8.9,M,-25.1,M,2.8,0000*4F
$GPGSA,A,3,02,25,09,29,04,12,05,,,,,,2.0,1.1,1.7*33
$GPRMC,205252.000,A,3748.7639,N,12217.1491,W,0.20,167.70,081011,,,D*7E
$GPVTG,167.70,T,,M,0.20,N,0.4,K,D*09
$GPGGA,205253.000,3748.7640,N,12217.1490,W,2,07,1.1,8.4,M,-25.1,M,3.8,0000*4D
$GPGSA,A,3,02,25,09,29,04,12,05,,,,,,2.0,1.1,1.7*33
$GPRMC,205253.000,A,3748.7640,N,12217.1490,W,0.56,50.61,081011,,,D*44
$GPVTG,50.61,T,,M,0.56,N,1.0,K,D*38
$GPGGA,205254.000,3748.7639,N,12217.1492,W,2,05,1.8,8.1,M,-25.1,M,4.8,0000*4F
$GPGSA,A,3,02,25,09,29,05,,,,,,,,3.1,1.8,2.5*3C
$GPRMC,205254.000,A,3748.7639,N,12217.1492,W,0.59,239.84,081011,,,D*76
$GPVTG,239.84,T,,M,0.59,N,1.1,K,D*00
$GPGGA,205255.000,3748.7635,N,12217.1496,W,2,07,1.1,8.6,M,-25.1,M,5.8,0000*4B
$GPGSA,A,3,02,25,09,29,12,05,04,,,,,,2.0,1.1,1.7*33
$GPGSV,3,1,11,02,79,082,27,12,75,325,27,25,39,314,28,04,33,048,34*76
$GPGSV,3,2,11,09,29,208,25,10,28,088,27,27,21,198,23,05,20,148,32*75
$GPGSV,3,3,11,29,18,273,28,17,02,078,,48,44,197,27*4A
$GPRMC,205255.000,A,3748.7635,N,12217.1496,W,0.50,209.87,081011,,,D*76
$GPVTG,209.87,T,,M,0.50,N,0.9,K,D*00
$GPGGA,205256.000,3748.7631,N,12217.1501,W,2,07,1.1,9.6,M,-25.1,M,1.8,0000*46
$GPGSA,A,3,02,25,09,29,12,05,04,,,,,,2.0,1.1,1.7*33
$GPRMC,205256.000,A,3748.7631,N,12217.1501,W,0.06,183.14,081011,,,D*76
$GPVTG,183.14,T,,M,0.06,N,0.1,K,D*00
$GPGGA,205257.000,3748.7630,N,12217.1504,W,2,07,1.1,10.0,M,-25.1,M,2.8,0000*7E
$GPGSA,A,3,02,25,09,29,12,05,04,,,,,,2.0,1.1,1.7*33
$GPRMC,205257.000,A,3748.7630,N,12217.1504,W,0.76,266.30,081011,,,D*7A
$GPVTG,266.30,T,,M,0.76,N,1.4,K,D*0D
$GPGGA,205258.000,3748.7630,N,12217.1504,W,2,07,1.1,10.0,M,-25.1,M,3.8,0000*70
$GPGSA,A,3,02,25,09,29,12,05,04,,,,,,2.0,1.1,1.7*33
$GPRMC,205258.000,A,3748.7630,N,12217.1504,W,0.08,21.04,081011,,,D*4A
$GPVTG,21.04,T,,M,0.08,N,0.1,K,D*36
$GPGGA,205259.000,3748.7626,N,12217.1507,W,2,07,1.1,11.0,M,-25.1,M,1.8,0000*76
$GPGSA,A,3,02,25,09,29,12,05,04,,,,,,2.0,1.1,1.7*33
$GPRMC,205259.000,A,3748.7626,N,12217.1507,W,0.09,199.63,081011,,,D*7D
$GPVTG,199.63,T,,M,0.09,N,0.2,K,D*07
$GPGGA,205300.000,3748.7625,N,12217.1506,W,2,06,1.8,11.3,M,-25.1,M,2.8,0000*71
$GPGSA,A,3,02,25,09,29,12,05,,,,,,,2.9,1.8,2.2*31
$GPGSV,3,1,11,02,79,082,26,12,75,325,27,25,39,314,31,04,33,048,*78
$GPGSV,3,2,11,09,29,208,34,10,28,088,24,27,21,198,23,05,20,148,32*76
$GPGSV,3,3,11,29,18,273,29,17,02,078,,48,44,197,28*44
$GPRMC,205300.000,A,3748.7625,N,12217.1506,W,0.18,355.09,081011,,,D*7C
$GPGGA,205301.000,3748.7627,N,12217.1506,W,2,07,1.1,11.0,M,-25.1,M,3.8,0000*78
$GPGSA,A,3,02,25,09,29,12,05,04,,,,,,2.0,1.1,1.7*33
$GPRMC,205301.000,A,3748.7627,N,12217.1506,W,0.45,351.23,081011,,,D*7B
$GPVTG,351.23,T,,M,0.45,N,0.8,K,D*07
$GPGGA,205302.000,3748.7626,N,12217.1512,W,2,07,1.1,11.9,M,-25.1,M,4.8,0000*71
$GPGSA,A,3,02,25,09,29,12,05,04,,,,,,2.0,1.1,1.7*33
$GPRMC,205302.000,A,3748.7626,N,12217.1512,W,0.74,298.88,081011,,,D*7B
$GPVTG,298.88,T,,M,0.74,N,1.4,K,D*0D
$GPGGA,205303.000,3748.7625,N,12217.1514,W,2,07,1.1,12.0,M,-25.1,M,5.8,0000*7E
$GPGSA,A,3,02,25,09,29,12,05,04,,,,,,2.0,1.1,1.7*33
$GPRMC,205303.000,A,3748.7625,N,12217.1514,W,0.93,239.91,081011,,,D*75
$GPVTG,239.91,T,,M,0.93,N,1.7,K,D*04
$GPGGA,205304.000,3748.7623,N,12217.1515,W,2,07,1.1,11.7,M,-25.1,M,1.8,0000*7E
$GPGSA,A,3,02,25,09,29,12,05,04,,,,,,2.0,1.1,1.7*33
$GPRMC,205304.000,A,3748.7623,N,12217.1515,W,1.31,196.92,081011,,,D*79
$GPVTG,196.92,T,,M,1.31,N,2.4,K,D*08
$GPGGA,205305.000,3748.7618,N,12217.1510,W,2,07,1.1,11.7,M,-25.1,M,2.8,0000*71
$GPGSA,A,3,02,25,09,29,12,05,04,,,,,,2.0,1.1,1.7*33
$GPGSV,3,1,11,02,79,082,26,12,75,325,19,25,39,314,23,04,33,048,35*70
$GPGSV,3,2,11,09,29,208,34,10,28,088,33,27,21,198,36,05,20,148,28*7F
$GPGSV,3,3,11,29,18,273,20,17,02,078,,48,44,197,26*43
$GPRMC,205305.000,A,3748.7618,N,12217.1510,W,0.48,116.30,081011,,,D*7A
$GPVTG,116.30,T,,M,0.48,N,0.9,K,D*08
$GPGGA,205306.000,3748.7618,N,12217.1508,W,2,07,1.1,11.7,M,-25.1,M,3.8,0000*7A
$GPGSA,A,3,02,25,09,29,12,05,04,,,,,,2.0,1.1,1.7*33
$GPRMC,205306.000,A,3748.7618,N,12217.1508,W,0.08,63.95,081011,,,D*48
$GPVTG,63.95,T,,M,0.08,N,0.1,K,D*38
$GPGGA,205307.000,3748.7619,N,12217.1507,W,2,07,1.1,11.7,M,-25.1,M,4.8,0000*72
$GPGSA,A,3,02,25,09,29,12,05,04,,,,,,2.0,1.1,1.7*33
$GPRMC,205307.000,A,3748.7619,N,12217.1507,W,0.08,35.16,081011,,,D*4F
$GPVTG,35.16,T,,M,0.08,N,0.1,K,D*30
$GPGGA,205308.000,3748.7619,N,12217.1507,W,2,07,1.1,11.8,M,-25.1,M,5.8,0000*73
$GPGSA,A,3,02,25,09,29,12,05,04,,,,,,2.0,1.1,1.7*33
$GPRMC,205308.000,A,3748.7619,N,12217.1507,W,0.32,122.03,081011,,,D*7A
$GPVTG,122.03,T,,M,0.32,N,0.6,K,D*0D
$GPGGA,205309.000,3748.7620,N,12217.1506,W,2,07,1.1,11.8,M,-25.1,M,6.8,0000*7A
$GPGSA,A,3,02,25,09,29,12,05,04,,,,,,2.0,1.1,1.7*33
$GPRMC,205309.000,A,3748.7620,N,12217.1506,W,0.12,105.37,081011,,,D*70
$GPVTG,105.37,T,,M,0.12,N,0.2,K,D*09
$GPGGA,205310.000,3748.7622,N,12217.1507,W,2,07,1.1,11.8,M,-25.1,M,7.8,0000*70
$GPGSA,A,3,02,25,09,29,12,05,04,,,,,,2.0,1.1,1.7*33
$GPGSV,3,1,10,02,79,082,27,12,75,325,19,25,39,314,31,04,33,048,35*73
$GPGSV,3,2,10,09,29,208,23,10,28,088,21,27,21,198,24,05,20,148,23*73
$GPGSV,3,3,10,29,18,273,27,17,02,078,*72
$GPRMC,205310.000,A,3748.7622,N,12217.1507,W,0.10,279.15,081011,,,D*71
$GPVTG,279.15,T,,M,0.10,N,0.2,K,D*03
$GPGGA,205311.000,3748.7618,N,12217.1508,W,2,07,1.1,11.4,M,-25.1,M,8.8,0000*74
$GPGSA,A,3,02,25,09,29,12,05,04,,,,,,2.0,1.1,1.7*33
$GPRMC,205311.000,A,3748.7618,N,12217.1508,W,0.54,160.59,081011,,,D*75
$GPVTG,160.59,T,,M,0.54,N,1.0,K,D*03
$GPGGA,205312.000,3748.7620,N,12217.1507,W,2,07,1.1,11.2,M,-25.1,M,9.8,0000*74
$GPGSA,A,3,02,25,09,29,12,05,04,,,,,,2.0,1.1,1.7*33
$GPRMC,205312.000,A,3748.7620,N,12217.1507,W,0.54,144.72,081011,,,D*7D
$GPVTG,144.72,T,,M,0.54,N,1.0,K,D*0C
$GPGGA,205313.000,3748.7621,N,12217.1506,W,2,07,1.1,10.7,M,-25.1,M,10.8,0000*49
$GPGSA,A,3,02,25,09,29,12,05,04,,,,,,2.0,1.1,1.7*33
$GPRMC,205313.000,A,3748.7621,N,12217.1506,W,0.98,164.14,081011,,,D*7E
$GPVTG,164.14,T,,M,0.98,N,1.8,K,D*06
$GPGGA,205314.000,3748.7620,N,12217.1504,W,2,07,1.1,8.7,M,-25.1,M,11.8,0000*75
$GPGSA,A,3,02,25,09,29,12,05,04,,,,,,2.0,1.1,1.7*33
$GPRMC,205314.000,A,3748.7620,N,12217.1504,W,1.07,156.84,081011,,,D*75
$GPVTG,156.84,T,,M,1.07,N,2.0,K,D*02
$GPGGA,205315.000,3748.7621,N,12217.1504,W,2,07,1.1,8.5,M,-25.1,M,12.8,0000*74
$GPGSA,A,3,02,25,09,29,12,05,04,,,,,,2.0,1.1,1.7*33
$GPGSV,3,1,10,02,79,082,27,12,75,325,23,25,39,314,32,04,33,048,36*7A
$GPGSV,3,2,10,09,29,208,31,10,28,088,27,27,21,198,29,05,20,148,21*79
$GPGSV,3,3,10,29,18,273,20,17,02,078,*75
$GPVTG,177.56,T,,M,0.08,N,0.1,K,D*03
$GPGGA,205316.000,3748.7623,N,12217.1505,W,2,07,1.1,7.5,M,-25.1,M,13.8,0000*7A
$GPGSA,A,3,02,25,09,29,12,05,04,,,,,,2.0,1.1,1.7*33
$GPRMC,205316.000,A,3748.7623,N,12217.1505,W,0.33,316.31,081011,,,D*7B
$GPVTG,316.31,T,,M,0.33,N,0.6,K,D*08
$GPGGA,205317.000,3748.7626,N,12217.1509,W,2,07,1.1,7.8,M,-25.1,M,14.8,0000*78
$GPGSA,A,3,02,25,09,29,12,05,04,,,,,,2.0,1.1,1.7*33
$GPRMC,205317.000,A,3748.7626,N,12217.1509,W,0.15,254.05,081011,,,D*77
$GPVTG,254.05,T,,M,0.15,N,0.3,K,D*09
$GPGGA,205318.000,3748.7628,N,12217.1511,W,2,07,1.1,7.9,M,-25.1,M,15.8,0000*70
$GPGSA,A,3,02,25,09,29,12,05,04,,,,,,2.0,1.1,1.7*33
$GPRMC,205318.000,A,3748.7628,N,12217.1511,W,0.40,290.66,081011,,,D*72
$GPVTG,290.66,T,,M,0.40,N,0.7,K,D*00
$GPGGA,205319.000,3748.7629,N,12217.1513,W,2,07,1.1,8.0,M,-25.1,M,16.8,0000*77
$GPGSA,A,3,02,25,09,29,12,05,04,,,,,,2.0,1.1,1.7*33
$GPRMC,205319.000,A,3748.7629,N,12217.1513,W,0.36,316.25,081011,,,D*79
$GPVTG,316.25,T,,M,0.36,N,0.7,K,D*09
$GPGGA,205320.000,3748.7627,N,12217.1513,W,2,07,1.1,5.5,M,-25.1,M,17.8,0000*7A
$GPGSA,A,3,02,25,09,29,12,05,04,,,,,,2.0,1.1,1.7*33
$GPGSV,3,1,10,02,79,081,22,12,75,325,25,25,39,314,32,04,33,048,22*7F
$GPGSV,3,2,10,09,29,208,25,10,28,087,21,27,21,198,33,05,21,148,35*7A
$GPGSV,3,3,10,29,18,274,29,17,02,078,*7B
$GPRMC,205320.000,A,3748.7627,N,12217.1513,W,0.68,6.83,081011,,,D*78
$GPVTG,6.83,T,,M,0.68,N,1.3,K,D*09
$GPGGA,205321.000,3748.7631,N,12217.1512,W,1,07,1.1,5.7,M,-25.1,M,,0000*6C
$GPGSA,A,3,02,25,09,29,12,05,04,,,,,,2.0,1.1,1.7*33
$GPRMC,205321.000,A,3748.7631,N,12217.1512,W,0.54,11.21,081011,,,A*4B
$GPVTG,11.21,T,,M,0.54,N,1.0,K,A*3E
$GPGGA,205322.000,3748.7634,N,12217.1511,W,1,07,1.1,5.4,M,-25.1,M,,0000*6A
$GPGSA,A,3,02,25,09,29,12,05,04,,,,,,2.0,1.1,1.7*33
$GPRMC,205322.000,A,3748.7634,N,12217.1511,W,0.24,37.51,081011,,,A*4A
$GPVTG,37.51,T,,M,0.24,N,0.5,K,A*3E
$GPGGA,205323.000,3748.7637,N,12217.1510,W,1,06,1.1,4.8,M,-25.1,M,,0000*65
$GPGSA,A,3,02,25,09,29,05,04,,,,,,,2.3,1.1,2.0*37
$GPRMC,205323.000,A,3748.7637,N,12217.1510,W,0.50,45.53,081011,,,A*4D
$GPVTG,45.53,T,,M,0.50,N,0.9,K,A*36
$GPGGA,205324.000,3748.7640,N,12217.1508,W,1,07,1.1,4.1,M,-25.1,M,,0000*63
$GPGSA,A,3,02,25,09,29,12,05,04,,,,,,2.0,1.1,1.7*33
$GPRMC,205324.000,A,3748.7640,N,12217.1508,W,0.44,37.39,081011,,,A*4F
$GPVTG,37.39,T,,M,0.44,N,0.8,K,A*3B
$GPGGA,205325.000,3748.7639,N,12217.1508,W,1,07,1.1,3.5,M,-25.1,M,,0000*6F
$GPGSA,A,3,02,25,09,29,12,05,04,,,,,,2.0,1.1,1.7*33
$GPGSV,3,1,10,02,79,081,22,12,75,325,14,25,39,314,33,04,33,048,19*74
$GPGSV,3,2,10,09,29,208,20,10,28,087,13,27,21,198,29,05,21,148,21*70
$GPGSV,3,3,10,29,18,274,34,17,02,078,*77
$GPRMC,205325.000,A,3748.7639,N,12217.1508,W,0.63,152.47,081011,,,A*7E
$GPVTG,152.47,T,,M,0.63,N,1.2,K,A*0E
$GPGGA,205326.000,3748.7639,N,12217.1507,W,1,07,1.1,2.7,M,-25.1,M,,0000*60
$GPGSA,A,3,02,25,09,29,12,05,04,,,,,,2.0,1.1,1.7*33
$GPRMC,205326.000,A,3748.7639,N,12217.1507,W,0.54,181.32,081011,,,A*7A
$GPVTG,181.32,T,,M,0.54,N,1.0,K,A*04
$GPGGA,205327.000,3748.7637,N,12217.1513,W,1,07,1.1,3.0,M,-25.1,M,,0000*6C
$GPGSA,A,3,02,25,09,29,12,05,04,,,,,,2.0,1.1,1.7*33
$GPRMC,205327.000,A,3748.7637,N,12217.1513,W,0.23,134.36,081011,,,A*7A
$GPVTG,134.36,T,,M,0.23,N,0.4,K,A*0B
$GPGGA,205328.000,3748.7639,N,12217.1512,W,1,07,1.1,1.8,M,-25.1,M,,0000*66
$GPGSA,A,3,02,25,09,29,12,05,04,,,,,,2.0,1.1,1.7*33
$GPRMC,205328.000,A,3748.7639,N,12217.1512,W,0.26,124.08,081011,,,A*73
$GPVTG,124.08,T,,M,0.26,N,0.5,K,A*03
$GPGGA,205329.000,3748.7639,N,12217.1510,W,1,07,1.1,-1.5,M,-25.1,M,,0000*45
$GPGSA,A,3,02,25,09,29,12,05,04,,,,,,2.0,1.1,1.7*33
$GPRMC,205329.000,A,3748.7639,N,12217.1510,W,0.19,148.76,081011,,,A*7F
$GPVTG,148.76,T,,M,0.19,N,0.4,K,A*0D
$GPGGA,205330.000,3748.7641,N,12217.1512,W,1,07,1.1,-3.8,M,-25.1,M,,0000*4F
$GPGSA,A,3,02,25,09,29,12,05,04,,,,,,2.0,1.1,1.7*33
$GPGSV,3,1,11,02,79,081,26,12,75,325,29,25,39,314,30,04,33,048,20*76
$GPGSV,3,2,11,09,29,208,34,10,28,087,18,27,21,198,32,05,21,148,21*75
$GPGSV,3,3,11,29,18,274,34,17,02,078,,48,44,197,32*44
$GPRMC,205330.000,A,3748.7641,N,12217.1512,W,0.40,91.99,081011,,,A*42
$GPGGA,205331.000,3748.7640,N,12217.1512,W,1,07,1.1,-4.0,M,-25.1,M,,0000*40
$GPGSA,A,3,02,25,09,29,12,05,04,,,,,,2.0,1.1,1.7*33
$GPRMC,205331.000,A,3748.7640,N,12217.1512,W,0.43,78.17,081011,,,A*40
$GPVTG,78.17,T,,M,0.43,N,0.8,K,A*3B
$GPGGA,205332.000,3748.7640,N,12217.1511,W,1,06,1.3,-4.9,M,-25.1,M,,0000*4A
$GPGSA,A,3,02,25,09,12,05,04,,,,,,,2.4,1.3,2.0*3A
$GPRMC,205332.000,A,3748.7640,N,12217.1511,W,0.15,282.34,081011,,,A*75
$GPVTG,282.34,T,,M,0.15,N,0.3,K,A*05
$GPGGA,205333.000,3748.7638,N,12217.1519,W,1,06,1.3,-3.5,M,-25.1,M,,0000*47
$GPGSA,A,3,02,25,09,12,05,04,,,,,,,2.4,1.3,2.0*3A
$GPRMC,205333.000,A,3748.7638,N,12217.1519,W,0.60,259.51,081011,,,A*74
$GPVTG,259.51,T,,M,0.60,N,1.1,K,A*01
$GPGGA,205334.000,3748.7636,N,12217.1524,W,2,06,1.3,-2.0,M,-25.1,M,1.8,0000*60
$GPGSA,A,3,02,25,09,12,05,04,,,,,,,2.4,1.3,2.0*3A
$GPRMC,205334.000,A,3748.7636,N,12217.1524,W,0.64,231.81,081011,,,D*71
$GPVTG,231.81,T,,M,0.64,N,1.2,K,D*00
$GPGGA,205335.000,3748.7636,N,12217.1526,W,2,07,1.1,-1.1,M,-25.1,M,2.8,0000*61
$GPGSA,A,3,02,25,09,12,05,29,04,,,,,,2.0,1.1,1.7*33
$GPGSV,3,1,11,02,79,081,21,12,75,325,24,25,39,314,35,04,33,048,21*78
$GPGSV,3,2,11,09,29,208,34,10,28,087,20,27,21,198,33,05,21,148,19*74
$GPGSV,3,3,11,29,18,274,29,17,02,078,,48,44,197,28*43
$GPRMC,205335.000,A,3748.7636,N,12217.1526,W,0.36,135.04,081011,,,D*7F
$GPVTG,135.04,T,,M,0.36,N,0.7,K,D*09
$GPGGA,205336.000,3748.7635,N,12217.1528,W,2,06,1.1,-0.3,M,-25.1,M,3.8,0000*6C
$GPGSA,A,3,25,09,12,05,29,04,,,,,,,2.4,1.1,2.1*30
$GPRMC,205336.000,A,3748.7635,N,12217.1528,W,0.40,107.51,081011,,,D*71
$GPVTG,107.51,T,,M,0.40,N,0.7,K,D*09
$GPGGA,205337.000,3748.7633,N,12217.1529,W,2,06,1.3,0.3,M,-25.1,M,4.8,0000*42
$GPGSA,A,3,02,25,09,12,05,04,,,,,,,2.4,1.3,2.0*3A
$GPRMC,205337.000,A,3748.7633,N,12217.1529,W,0.63,105.91,081011,,,D*78
$GPVTG,105.91,T,,M,0.63,N,1.2,K,D*02
$GPGGA,205338.000,3748.7632,N,12217.1527,W,2,06,1.3,1.4,M,-25.1,M,1.8,0000*41
$GPGSA,A,3,02,25,09,12,05,04,,,,,,,2.4,1.3,2.0*3A
$GPRMC,205338.000,A,3748.7632,N,12217.1527,W,0.61,118.92,081011,,,D*75
$GPVTG,118.92,T,,M,0.61,N,1.1,K,D*0C
$GPGGA,205339.000,3748.7633,N,12217.1520,W,2,07,1.1,0.7,M,-25.1,M,1.8,0000*47
$GPGSA,A,3,02,25,09,29,12,05,04,,,,,,2.0,1.1,1.7*33
$GPRMC,205339.000,A,3748.7633,N,12217.1520,W,0.37,108.96,081011,,,D*74
$GPVTG,108.96,T,,M,0.37,N,0.7,K,D*0D
$GPGGA,205340.000,3748.7631,N,12217.1523,W,2,07,1.1,1.2,M,-25.1,M,1.8,0000*4C
$GPGSA,A,3,02,25,09,29,12,05,04,,,,,,2.0,1.1,1.7*33
$GPGSV,3,1,11,02,79,081,17,12,75,325,24,25,39,314,35,04,33,048,21*7D
$GPGSV,3,2,11,09,29,208,27,10,28,087,16,27,21,198,34,05,21,148,19*74
$GPGSV,3,3,11,29,18,274,36,17,02,078,,48,44,197,27*42
$GPRMC,205340.000,A,3748.7631,N,12217.1523,W,0.22,162.34,081011,,,D*7B
$GPVTG,162.34,T,,M,0.22,N,0.4,K,D*0E
$GPGGA,205341.000,3748.7627,N,12217.1530,W,2,06,1.3,2.6,M,-25.1,M,2.8,0000*4F
$GPGSA,A,3,02,25,09,12,05,04,,,,,,,2.4,1.3,2.0*3A
$GPRMC,205341.000,A,3748.7627,N,12217.1530,W,0.13,265.94,081011,,,D*73
$GPVTG,265.94,T,,M,0.13,N,0.2,K,D*04
$GPGGA,205342.000,3748.7626,N,12217.1531,W,2,06,1.3,3.9,M,-25.1,M,3.8,0000*43
$GPGSA,A,3,02,25,09,12,05,04,,,,,,,2.4,1.3,2.0*3A
$GPRMC,205342.000,A,3748.7626,N,12217.1531,W,0.28,158.84,081011,,,D*74
$GPVTG,158.84,T,,M,0.28,N,0.5,K,D*07
$GPGGA,205343.000,3748.7624,N,12217.1529,W,2,06,1.3,4.0,M,-25.1,M,4.8,0000*40
$GPGSA,A,3,02,25,09,12,05,04,,,,,,,2.4,1.3,2.0*3A
$GPRMC,205343.000,A,3748.7624,N,12217.1529,W,0.58,164.61,081011,,,D*7D
$GPVTG,164.61,T,,M,0.58,N,1.1,K,D*01
$GPGGA,205344.000,3748.7624,N,12217.1529,W,2,06,1.3,3.8,M,-25.1,M,1.8,0000*4D
$GPGSA,A,3,02,25,09,12,05,04,,,,,,,2.4,1.3,2.0*3A
$GPRMC,205344.000,A,3748.7624,N,12217.1529,W,0.33,144.75,081011,,,D*70
$GPVTG,144.75,T,,M,0.33,N,0.6,K,D*0D
$GPGGA,205345.000,3748.7624,N,12217.1528,W,2,06,1.3,4.5,M,-25.1,M,1.8,0000*47
$GPGSA,A,3,02,25,09,12,05,04,,,,,,,2.4,1.3,2.0*3A
$GPGSV,3,1,11,02,79,081,20,12,75,325,28,25,39,314,35,04,33,048,22*76
$GPGSV,3,2,11,09,29,208,28,10,28,087,17,27,21,198,35,05,21,148,19*7B
$GPGSV,3,3,11,29,18,274,,17,02,078,,48,44,197,27*47
$GPVTG,55.69,T,,M,0.23,N,0.4,K,D*32
$GPGGA,205346.000,3748.7621,N,12217.1534,W,2,07,1.1,6.3,M,-25.1,M,1.8,0000*4B
$GPGSA,A,3,02,25,09,29,12,05,04,,,,,,2.0,1.1,1.7*33
$GPRMC,205346.000,A,3748.7621,N,12217.1534,W,0.30,240.34,081011,,,D*7A
$GPVTG,240.34,T,,M,0.30,N,0.5,K,D*0F
$GPGGA,205347.000,3748.7618,N,12217.1539,W,2,07,1.1,8.1,M,-25.1,M,2.8,0000*42
$GPGSA,A,3,02,25,09,29,12,05,04,,,,,,2.0,1.1,1.7*33
$GPRMC,205347.000,A,3748.7618,N,12217.1539,W,0.25,150.41,081011,,,D*78
$GPVTG,150.41,T,,M,0.25,N,0.5,K,D*0B
$GPGGA,205348.000,3748.7617,N,12217.1542,W,2,07,1.1,9.6,M,-25.1,M,3.8,0000*49
$GPGSA,A,3,02,25,09,29,12,05,04,,,,,,2.0,1.1,1.7*33
$GPRMC,205348.000,A,3748.7617,N,12217.1542,W,0.13,58.59,081011,,,D*41
$GPVTG,58.59,T,,M,0.13,N,0.2,K,D*39
$GPGGA,205349.000,3748.7615,N,12217.1541,W,2,07,1.1,9.5,M,-25.1,M,4.8,0000*4D
$GPGSA,A,3,02,25,09,29,12,05,04,,,,,,2.0,1.1,1.7*33
$GPRMC,205349.000,A,3748.7615,N,12217.1541,W,0.22,160.01,081011,,,D*74
$GPVTG,160.01,T,,M,0.22,N,0.4,K,D*0A
$GPGGA,205350.000,3748.7615,N,12217.1541,W,2,06,1.3,9.9,M,-25.1,M,1.8,0000*4F
$GPGSA,A,3,02,25,09,12,05,04,,,,,,,2.4,1.3,2.0*3A
$GPGSV,3,1,11,02,79,080,20,12,75,325,28,25,40,314,34,04,33,048,22*78
$GPGSV,3,2,11,09,29,208,31,10,28,087,15,27,21,198,35,05,21,148,19*71
$GPGSV,3,3,11,29,18,274,,17,02,078,,48,44,197,30*41
$GPRMC,205350.000,A,3748.7615,N,12217.1541,W,0.48,196.77,081011,,,D*78
$GPVTG,196.77,T,,M,0.48,N,0.9,K,D*03
$GPGGA,205351.000,3748.7616,N,12217.1544,W,2,04,2.0,10.6,M,-25.1,M,1.8,0000*7D
$GPGSA,A,3,25,09,12,05,,,,,,,,,3.8,2.0,3.2*32
$GPRMC,205351.000,A,3748.7616,N,12217.1544,W,0.41,148.29,081011,,,D*7E
$GPVTG,148.29,T,,M,0.41,N,0.8,K,D*03
$GPGGA,205352.000,3748.7615,N,12217.1545,W,2,03,3.7,10.5,M,-25.1,M,1.8,0000*7E
$GPGSA,A,2,25,09,12,,,,,,,,,,3.8,3.7,1.0*30
$GPRMC,205352.000,A,3748.7615,N,12217.1545,W,0.25,202.99,081011,,,D*7B
$GPVTG,202.99,T,,M,0.25,N,0.5,K,N*00
$GPGGA,205353.000,3748.7616,N,12217.1549,W,2,04,2.2,9.4,M,-25.1,M,2.8,0000*49
$GPGSA,A,3,02,25,09,12,,,,,,,,,2.4,2.2,1.0*3A
$GPRMC,205353.000,A,3748.7616,N,12217.1549,W,0.28,206.96,081011,,,D*73
$GPVTG,206.96,T,,M,0.28,N,0.5,K,D*0C
$GPGGA,205354.000,3748.7615,N,12217.1555,W,2,04,2.0,9.8,M,-25.1,M,3.8,0000*4F
$GPGSA,A,3,25,09,12,05,,,,,,,,,3.8,2.0,3.2*32
$GPRMC,205354.000,A,3748.7615,N,12217.1555,W,0.80,230.11,081011,,,D*72
$GPVTG,230.11,T,,M,0.80,N,1.5,K,D*05
$GPGGA,205355.000,3748.7614,N,12217.1559,W,2,07,1.1,8.6,M,-25.1,M,4.8,0000*4A
$GPGSA,A,3,02,25,09,29,12,05,04,,,,,,2.0,1.1,1.7*33
$GPGSV,3,1,11,02,79,080,25,12,75,325,23,25,40,314,32,04,33,048,37*74
$GPGSV,3,2,11,09,29,208,32,10,28,087,27,27,21,198,31,05,21,148,23*7E
$GPGSV,3,3,11,29,18,274,28,17,02,078,,48,44,197,25*4F
$GPRMC,205355.000,A,3748.7614,N,12217.1559,W,0.13,101.39,081011,,,D*7F
$GPVTG,101.39,T,,M,0.13,N,0.2,K,D*02
$GPGGA,205356.000,3748.7619,N,12217.1544,W,2,07,1.1,6.4,M,-25.1,M,5.8,0000*45
$GPGSA,A,3,02,25,09,29,12,05,04,,,,,,2.0,1.1,1.7*33
$GPRMC,205356.000,A,3748.7619,N,12217.1544,W,0.22,173.62,081011,,,D*74
$GPVTG,173.62,T,,M,0.22,N,0.4,K,D*0D
$GPGGA,205357.000,3748.7620,N,12217.1537,W,2,07,1.1,5.7,M,-25.1,M,6.8,0000*49
$GPGSA,A,3,02,25,09,29,12,05,04,,,,,,2.0,1.1,1.7*33
$GPRMC,205357.000,A,3748.7620,N,12217.1537,W,0.21,87.87,081011,,,D*49
$GPVTG,87.87,T,,M,0.21,N,0.4,K,D*3F
$GPGGA,205358.000,3748.7621,N,12217.1530,W,2,07,1.1,4.6,M,-25.1,M,7.8,0000*41
$GPGSA,A,3,02,25,09,29,12,05,04,,,,,,2.0,1.1,1.7*33
$GPRMC,205358.000,A,3748.7621,N,12217.1530,W,0.07,10.44,081011,,,D*45
$GPVTG,10.44,T,,M,0.07,N,0.1,K,D*3F
$GPGGA,205359.000,3748.7623,N,12217.1523,W,2,07,1.1,2.3,M,-25.1,M,8.8,0000*4C
$GPGSA,A,3,02,25,09,29,12,05,04,,,,,,2.0,1.1,1.7*33
$GPRMC,205359.000,A,3748.7623,N,12217.1523,W,0.22,91.65,081011,,,D*49
$GPVTG,91.65,T,,M,0.22,N,0.4,K,D*37
$GPGGA,205400.000,3748.7625,N,12217.1518,W,2,07,1.1,0.8,M,-25.1,M,9.8,0000*41
$GPGSA,A,3,02,25,09,29,12,05,04,,,,,,2.0,1.1,1.7*33
$GPGSV,3,1,10,02,79,080,19,12,75,325,26,25,40,314,25,04,33,048,39*77
$GPGSV,3,2,10,09,29,208,24,10,28,087,39,27,21,198,25,05,21,148,30*70
$GPGSV,3,3,10,29,18,274,26,17,02,078,*74
$GPVTG,48.05,T,,M,0.24,N,0.4,K,D*33
$GPGGA,205401.000,3748.7627,N,12217.1510,W,2,07,1.1,-0.7,M,-25.1,M,10.8,0000*50
$GPGSA,A,3,02,25,09,29,12,05,04,,,,,,2.0,1.1,1.7*33
$GPRMC,205401.000,A,3748.7627,N,12217.1510,W,0.49,14.03,081011,,,D*47
$GPVTG,14.03,T,,M,0.49,N,0.9,K,D*3A
$GPGGA,205402.000,3748.7629,N,12217.1510,W,2,07,1.1,-0.1,M,-25.1,M,11.8,0000*5A
$GPGSA,A,3,02,25,09,29,12,05,04,,,,,,2.0,1.1,1.7*33
$GPRMC,205402.000,A,3748.7629,N,12217.1510,W,0.19,56.47,081011,,,D*49
$GPVTG,56.47,T,,M,0.19,N,0.4,K,D*34
$GPGGA,205403.000,3748.7632,N,12217.1507,W,2,07,1.1,-0.1,M,-25.1,M,12.8,0000*54
$GPGSA,A,3,02,25,09,29,12,05,04,,,,,,2.0,1.1,1.7*33
$GPRMC,205403.000,A,3748.7632,N,12217.1507,W,0.39,84.99,081011,,,D*4A
$GPVTG,84.99,T,,M,0.39,N,0.7,K,D*39
$GPGGA,205404.000,3748.7628,N,12217.1498,W,2,07,1.1,0.7,M,-25.1,M,13.8,0000*75
$GPGSA,A,3,02,25,09,29,12,05,04,,,,,,2.0,1.1,1.7*33
$GPRMC,205404.000,A,3748.7628,N,12217.1498,W,0.42,88.79,081011,,,D*4F
$GPVTG,88.79,T,,M,0.42,N,0.8,K,D*38
$GPGGA,205405.000,3748.7630,N,12217.1498,W,2,07,1.1,1.3,M,-25.1,M,14.8,0000*7F
$GPGSA,A,3,02,25,09,29,12,05,04,,,,,,2.0,1.1,1.7*33
$GPGSV,3,1,10,02,79,080,28,12,75,325,22,25,40,314,15,04,33,048,38*73
$GPGSV,3,2,10,09,29,208,27,10,28,087,37,27,21,198,24,05,21,148,29*74
$GPGSV,3,3,10,29,18,274,20,17,02,078,*72
$GPRMC,205405.000,A,3748.7630,N,12217.1498,W,0.31,66.84,081011,,,D*41
$GPVTG,66.84,T,,M,0.31,N,0.6,K,D*30
$GPGGA,205406.000,3748.7630,N,12217.1495,W,2,06,1.2,1.6,M,-25.1,M,15.8,0000*77
$GPGSA,A,3,02,09,29,12,05,04,,,,,,,2.1,1.2,1.7*36
$GPRMC,205406.000,A,3748.7630,N,12217.1495,W,0.29,91.07,081011,,,D*45
$GPVTG,91.07,T,,M,0.29,N,0.5,K,D*39
$GPGGA,205407.000,3748.7631,N,12217.1493,W,2,07,1.1,2.2,M,-25.1,M,16.8,0000*77
$GPGSA,A,3,02,25,09,29,12,05,04,,,,,,2.0,1.1,1.7*33
$GPRMC,205407.000,A,3748.7631,N,12217.1493,W,0.17,41.75,081011,,,D*46
$GPVTG,41.75,T,,M,0.17,N,0.3,K,D*3A
$GPGGA,205408.000,3748.7634,N,12217.1495,W,2,07,1.1,2.1,M,-25.1,M,17.8,0000*79
$GPGSA,A,3,02,25,09,29,12,05,04,,,,,,2.0,1.1,1.7*33
$GPRMC,205408.000,A,3748.7634,N,12217.1495,W,0.20,9.42,081011,,,D*76
$GPVTG,9.42,T,,M,0.20,N,0.4,K,D*01
$GPGGA,205409.000,3748.7637,N,12217.1498,W,1,07,1.1,1.9,M,-25.1,M,,0000*6E
$GPGSA,A,3,02,25,09,29,12,05,04,,,,,,2.0,1.1,1.7*33
$GPRMC,205409.000,A,3748.7637,N,12217.1498,W,0.13,71.22,081011,,,A*45
$GPVTG,71.22,T,,M,0.13,N,0.2,K,A*3B
$GPGGA,205410.000,3748.7638,N,12217.1498,W,1,07,1.1,1.8,M,-25.1,M,,0000*68
$GPGSA,A,3,02,25,09,29,12,05,04,,,,,,2.0,1.1,1.7*33
$GPGSV,3,1,10,02,79,080,28,12,75,325,25,25,40,314,23,04,33,048,38*71
$GPGSV,3,2,10,09,29,208,28,10,28,087,37,27,21,198,18,05,21,148,29*74
$GPGSV,3,3,10,29,18,274,28,17,02,078,*7A
$GPRMC,205410.000,A,3748.7638,N,12217.1498,W,0.11,96.40,081011,,,A*4D
$GPVTG,96.40,T,,M,0.11,N,0.2,K,A*34
$GPGGA,205411.000,3748.7638,N,12217.1497,W,1,07,1.1,2.0,M,-25.1,M,,0000*6D
$GPGSA,A,3,02,25,09,29,12,05,04,,,,,,2.0,1.1,1.7*33
$GPRMC,205411.000,A,3748.7638,N,12217.1497,W,0.38,295.23,081011,,,A*7C
$GPVTG,295.23,T,,M,0.38,N,0.7,K,A*0E
$GPGGA,205412.000,3748.7640,N,12217.1499,W,1,07,1.1,1.5,M,-25.1,M,,0000*69
$GPGSA,A,3,02,25,09,29,12,05,04,,,,,,2.0,1.1,1.7*33
$GPRMC,205412.000,A,3748.7640,N,12217.1499,W,0.29,346.70,081011,,,A*77
$GPVTG,346.70,T,,M,0.29,N,0.5,K,A*05
$GPGGA,205413.000,3748.7641,N,12217.1502,W,1,07,1.1,1.1,M,-25.1,M,,0000*6E
$GPGSA,A,3,02,25,09,29,12,05,04,,,,,,2.0,1.1,1.7*33
$GPRMC,205413.000,A,3748.7641,N,12217.1502,W,0.56,285.41,081011,,,A*70
$GPVTG,285.41,T,,M,0.56,N,1.0,K,A*05
$GPGGA,205414.000,3748.7642,N,12217.1503,W,1,06,1.1,1.3,M,-25.1,M,,0000*68
$GPGSA,A,3,02,25,09,29,05,04,,,,,,,2.3,1.1,2.1*36
$GPRMC,205414.000,A,3748.7642,N,12217.1503,W,0.37,13.02,081011,,,A*48
$GPVTG,13.02,T,,M,0.37,N,0.7,K,A*3E
$GPGGA,205415.000,3748.7643,N,12217.1504,W,1,07,1.1,1.1,M,-25.1,M,,0000*6C
$GPGSA,A,3,02,25,09,29,12,05,04,,,,,,2.0,1.1,1.7*33
$GPGSV,3,1,11,02,79,080,21,12,75,325,15,25,40,314,24,04,33,048,31*74
$GPGSV,3,2,11,09,29,208,35,10,28,087,28,27,21,198,30,05,21,148,30*75
$GPGSV,3,3,11,29,18,274,27,17,02,078,,48,44,197,29*4C
$GPVTG,146.23,T,,M,0.27,N,0.5,K,A*0F
$GPGGA,205416.000,3748.7644,N,12217.1505,W,1,07,1.1,0.9,M,-25.1,M,,0000*60
$GPGSA,A,3,02,25,09,29,12,05,04,,,,,,2.0,1.1,1.7*33
$GPRMC,205416.000,A,3748.7644,N,12217.1505,W,0.24,46.28,081011,,,A*40
$GPVTG,46.28,T,,M,0.24,N,0.4,K,A*37
$GPGGA,205417.000,3748.7644,N,12217.1505,W,1,07,1.1,0.9,M,-25.1,M,,0000*61
$GPGSA,A,3,02,25,09,29,12,05,04,,,,,,2.0,1.1,1.7*33
$GPRMC,205417.000,A,3748.7644,N,12217.1505,W,0.06,27.85,081011,,,A*41
$GPVTG,27.85,T,,M,0.06,N,0.1,K,A*32
$GPGGA,205418.000,3748.7645,N,12217.1506,W,1,07,1.1,0.9,M,-25.1,M,,0000*6C
$GPGSA,A,3,02,25,09,29,12,05,04,,,,,,2.0,1.1,1.7*33
$GPRMC,205418.000,A,3748.7645,N,12217.1506,W,0.09,0.22,081011,,,A*7B
$GPVTG,0.22,T,,M,0.09,N,0.2,K,A*06
$GPGGA,205419.000,3748.7645,N,12217.1507,W,1,07,1.1,0.9,M,-25.1,M,,0000*6C
$GPGSA,A,3,02,25,09,29,12,05,04,,,,,,2.0,1.1,1.7*33
$GPRMC,205419.000,A,3748.7645,N,12217.1507,W,0.06,66.08,081011,,,A*4C
$GPVTG,66.08,T,,M,0.06,N,0.1,K,A*32
$GPGGA,205420.000,3748.7645,N,12217.1507,W,1,07,1.1,0.7,M,-25.1,M,,0000*68
$GPGSA,A,3,02,25,09,29,12,05,04,,,,,,2.0,1.1,1.7*33
$GPGSV,3,1,11,02,79,080,26,12,75,325,19,25,40,314,25,04,33,048,31*7E
$GPGSV,3,2,11,09,29,208,35,10,28,087,27,27,21,198,31,05,21,148,30*7B
$GPGSV,3,3,11,29,18,274,32,17,02,078,,48,44,197,30*40
$GPRMC,205420.000,A,3748.7645,N,12217.1507,W,0.03,144.04,081011,,,A*7E
$GPVTG,144.04,T,,M,0.03,N,0.1,K,A*0A
$GPGGA,205421.000,3748.7645,N,12217.1507,W,1,07,1.1,0.4,M,-25.1,M,,0000*6A
$GPGSA,A,3,02,25,09,29,12,05,04,,,,,,2.0,1.1,1.7*33
$GPRMC,205421.000,A,3748.7645,N,12217.1507,W,0.07,100.34,081011,,,A*78
$GPVTG,100.34,T,,M,0.07,N,0.1,K,A*0D
$GPGGA,205422.000,3748.7645,N,12217.1508,W,2,07,1.1,0.3,M,-25.1,M,1.8,0000*45
$GPGSA,A,3,02,25,09,29,12,05,04,,,,,,2.0,1.1,1.7*33
$GPRMC,205422.000,A,3748.7645,N,12217.1508,W,0.34,317.19,081011,,,D*7A
$GPVTG,317.19,T,,M,0.34,N,0.6,K,D*04
$GPGGA,205423.000,3748.7647,N,12217.1511,W,2,07,1.1,0.6,M,-25.1,M,2.8,0000*48
$GPGSA,A,3,02,25,09,29,12,05,04,,,,,,2.0,1.1,1.7*33
$GPRMC,205423.000,A,3748.7647,N,12217.1511,W,0.85,314.83,081011,,,D*7B
$GPVTG,314.83,T,,M,0.85,N,1.6,K,D*0F
$GPGGA,205424.000,3748.7646,N,12217.1512,W,2,07,1.1,0.4,M,-25.1,M,3.8,0000*4E
$GPGSA,A,3,02,25,09,29,12,05,04,,,,,,2.0,1.1,1.7*33
$GPRMC,205424.000,A,3748.7646,N,12217.1512,W,0.60,269.69,081011,,,D*7A
$GPVTG,269.69,T,,M,0.60,N,1.1,K,D*0C
$GPGGA,205425.000,3748.7647,N,12217.1514,W,2,07,1.1,0.3,M,-25.1,M,4.8,0000*48
$GPGSA,A,3,02,25,09,29,12,05,04,,,,,,2.0,1.1,1.7*33
$GPGSV,3,1,10,02,79,080,19,12,75,325,24,25,40,314,34,04,33,048,20*7D
$GPGSV,3,2,10,09,29,208,35,10,28,087,23,27,21,198,31,05,21,148,24*7B
$GPGSV,3,3,10,29,18,274,32,17,02,078,*71
$GPRMC,205425.000,A,3748.7647,N,12217.1514,W,0.25,249.20,081011,,,D*72
$GPVTG,249.20,T,,M,0.25,N,0.5,K,D*07
$GPGGA,205426.000,3748.7646,N,12217.1514,W,2,07,1.1,-0.1,M,-25.1,M,5.8,0000*64
$GPGSA,A,3,02,25,09,29,12,05,04,,,,,,2.0,1.1,1.7*33
$GPRMC,205426.000,A,3748.7646,N,12217.1514,W,0.21,200.99,081011,,,D*7B
$GPVTG,200.99,T,,M,0.21,N,0.4,K,D*0D
$GPGGA,205427.000,3748.7646,N,12217.1514,W,2,07,1.1,0.0,M,-25.1,M,6.8,0000*4A
$GPGSA,A,3,02,25,09,29,12,05,04,,,,,,2.0,1.1,1.7*33
$GPRMC,205427.000,A,3748.7646,N,12217.1514,W,0.04,95.67,081011,,,D*42
$GPVTG,95.67,T,,M,0.04,N,0.1,K,D*30
$GPGGA,205428.000,3748.7646,N,12217.1514,W,2,07,1.1,0.0,M,-25.1,M,7.8,0000*44
$GPGSA,A,3,02,25,09,29,12,05,04,,,,,,2.0,1.1,1.7*33
$GPRMC,205428.000,A,3748.7646,N,12217.1514,W,0.18,267.03,081011,,,D*7D
$GPVTG,267.03,T,,M,0.18,N,0.3,K,D*02
$GPGGA,205429.000,3748.7646,N,12217.1514,W,2,07,1.1,0.2,M,-25.1,M,8.8,0000*48
$GPGSA,A,3,02,25,09,29,12,05,04,,,,,,2.0,1.1,1.7*33
$GPRMC,205429.000,A,3748.7646,N,12217.1514,W,0.36,256.14,081011,,,D*74
$GPVTG,256.14,T,,M,0.36,N,0.7,K,D*0E
$GPGGA,205430.000,3748.7645,N,12217.1515,W,2,07,1.1,0.6,M,-25.1,M,9.8,0000*47
$GPGSA,A,3,02,25,09,29,12,05,04,,,,,,2.0,1.1,1.7*33
$GPGSV,3,1,11,02,79,080,19,12,75,325,22,25,40,314,32,04,33,048,19*76
$GPGSV,3,2,11,09,29,208,35,10,28,087,23,27,21,198,28,05,21,148,31*76
$GPGSV,3,3,11,29,18,274,33,17,02,078,,48,44,197,25*45
$GPVTG,245.29,T,,M,0.37,N,0.7,K,D*03
$GPGGA,205431.000,3748.7646,N,12217.1516,W,2,07,1.1,0.9,M,-25.1,M,10.8,0000*71
$GPGSA,A,3,02,25,09,29,12,05,04,,,,,,2.0,1.1,1.7*33
$GPRMC,205431.000,A,3748.7646,N,12217.1516,W,0.04,253.93,08                                                                                                                                                                                                                                                                                                                                                                                                                                                                                                                                                                                                                                                                                                                                                                                                                                                                                                                                                                                                                                                                1011,,,D*74
$GPVTG,253.93,T,,M,0.04,N,0.1,K,D*03
$GPGGA,205432.000,3748.7651,N,12217.1517,W,2,06,1.1,-1.1,M,-25.1,M,11.8,0000*51
$GPGSA,A,3,25,09,29,12,05,04,,,,,,,2.4,1.1,2.1*30
$GPRMC,205432.000,A,3748.7651,N,12217.1517,W,0.25,32.94,081011,,,D*41
$GPVTG,32.94,T,,M,0.25,N,0.5,K,D*36
$GPGGA,205433.000,3748.7657,N,12217.1518,W,2,06,1.1,-0.7,M,-25.1,M,12.8,0000*5D
$GPGSA,A,3,25,09,29,12,05,04,,,,,,,2.4,1.1,2.1*30
$GPRMC,205433.000,A,3748.7657,N,12217.1518,W,0.51,36.83,081011,,,D*48
$GPVTG,36.83,T,,M,0.51,N,0.9,K,D*3B
$GPGGA,205434.000,3748.7662,N,12217.1517,W,2,07,1.1,-0.1,M,-25.1,M,13.8,0000*55
$GPGSA,A,3,02,25,09,29,12,05,04,,,,,,2.0,1.1,1.7*33
$GPRMC,205434.000,A,3748.7662,N,12217.1517,W,0.56,37.31,081011,,,D*49
$GPVTG,37.31,T,,M,0.56,N,1.0,K,D*3C
$GPGGA,205435.000,3748.7666,N,12217.1516,W,2,06,1.1,0.5,M,-25.1,M,14.8,0000*7E
$GPGSA,A,3,25,09,29,12,05,04,,,,,,,2.4,1.1,2.1*30
$GPGSV,3,1,10,02,79,080,12,12,75,325,25,25,40,314,25,04,33,048,20*77
$GPGSV,3,2,10,09,29,208,35,10,28,087,16,27,21,198,30,05,21,148,29*71
$GPGSV,3,3,10,29,18,274,33,17,02,078,*70
$GPRMC,205435.000,A,3748.7666,N,12217.1516,W,0.39,37.80,081011,,,D*4E
$GPVTG,37.80,T,,M,0.39,N,0.7,K,D*39
$GPGGA,205436.000,3748.7669,N,12217.1515,W,2,07,1.1,1.3,M,-25.1,M,15.8,0000*76
$GPGSA,A,3,02,25,09,29,12,05,04,,,,,,2.0,1.1,1.7*33
$GPRMC,205436.000,A,3748.7669,N,12217.1515,W,0.10,307.15,081011,,,D*76
$GPVTG,307.15,T,,M,0.10,N,0.2,K,D*0B
$GPGGA,205437.000,3748.7670,N,12217.1515,W,2,07,1.1,2.1,M,-25.1,M,16.8,0000*7D
$GPGSA,A,3,02,25,09,29,12,05,04,,,,,,2.0,1.1,1.7*33
$GPRMC,205437.000,A,3748.7670,N,12217.1515,W,0.07,211.64,081011,,,D*79
$GPVTG,211.64,T,,M,0.07,N,0.1,K,D*0E
$GPGGA,205438.000,3748.7672,N,12217.1515,W,2,07,1.1,3.0,M,-25.1,M,17.8,0000*71
$GPGSA,A,3,02,25,09,29,12,05,04,,,,,,2.0,1.1,1.7*33
$GPRMC,205438.000,A,3748.7672,N,12217.1515,W,0.18,65.19,081011,,,D*41
$GPVTG,65.19,T,,M,0.18,N,0.3,K,D*39
$GPGGA,205439.000,3748.7673,N,12217.1514,W,1,07,1.1,3.9,M,-25.1,M,,0000*6A
$GPGSA,A,3,02,25,09,29,12,05,04,,,,,,2.0,1.1,1.7*33
$GPRMC,205439.000,A,3748.7673,N,12217.1514,W,0.14,111.59,081011,,,A*7F
$GPVTG,111.59,T,,M,0.14,N,0.3,K,A*06
$GPGGA,205440.000,3748.7674,N,12217.1513,W,1,07,1.1,4.6,M,-25.1,M,,0000*6C
$GPGSA,A,3,02,25,09,29,12,05,04,,,,,,2.0,1.1,1.7*33
$GPGSV,3,1,11,02,79,080,15,12,75,325,26,25,40,314,35,04,33,048,21*72
$GPGSV,3,2,11,09,29,208,35,10,28,087,16,27,21,198,22,05,21,148,34*7F
$GPGSV,3,3,11,29,18,274,34,17,02,078,,48,44,197,29*4E
$GPRMC,205440.000,A,3748.7674,N,12217.1513,W,0.23,224.81,081011,,,A*75
$GPVTG,224.81,T,,M,0.23,N,0.4,K,A*05
$GPGGA,205441.000,3748.7674,N,12217.1513,W,1,07,1.1,5.1,M,-25.1,M,,0000*6B
$GPGSA,A,3,02,25,09,29,12,05,04,,,,,,2.0,1.1,1.7*33
$GPRMC,205441.000,A,3748.7674,N,12217.1513,W,0.03,186.01,081011,,,A*75
$GPVTG,186.01,T,,M,0.03,N,0.1,K,A*01
$GPGGA,205442.000,3748.7674,N,12217.1512,W,1,07,1.1,5.4,M,-25.1,M,,0000*6C
$GPGSA,A,3,02,25,09,29,12,05,04,,,,,,2.0,1.1,1.7*33
$GPRMC,205442.000,A,3748.7674,N,12217.1512,W,0.46,173.37,081011,,,A*79
$GPVTG,173.37,T,,M,0.46,N,0.8,K,A*06
$GPGGA,205443.000,3748.7667,N,12217.1522,W,1,06,1.1,7.1,M,-25.1,M,,0000*6A
$GPGSA,A,3,02,25,09,29,05,04,,,,,,,2.3,1.1,2.1*36
$GPRMC,205443.000,A,3748.7667,N,12217.1522,W,0.31,223.24,081011,,,A*7D
$GPVTG,223.24,T,,M,0.31,N,0.6,K,A*0C
$GPGGA,205444.000,3748.7664,N,12217.1527,W,1,06,1.1,8.9,M,-25.1,M,,0000*6C
$GPGSA,A,3,02,25,09,29,05,04,,,,,,,2.3,1.1,2.1*36
$GPRMC,205444.000,A,3748.7664,N,12217.1527,W,0.20,224.41,081011,,,A*78
$GPVTG,224.41,T,,M,0.20,N,0.4,K,A*0A
$GPGGA,205445.000,3748.7663,N,12217.1528,W,1,07,1.1,10.4,M,-25.1,M,,0000*50
$GPGSA,A,3,02,25,09,29,12,05,04,,,,,,2.0,1.1,1.7*33
$GPGSV,3,1,10,02,79,080,20,12,75,325,13,25,40,314,28,04,33,048,27*79
$GPGSV,3,2,10,09,29,208,31,10,28,087,23,27,21,198,24,05,21,148,26*79
$GPGSV,3,3,10,29,18,274,29,17,02,078,*7B
$GPVTG,191.93,T,,M,0.18,N,0.3,K,A*04
$GPGGA,205446.000,3748.7662,N,12217.1529,W,1,07,1.1,11.8,M,-25.1,M,,0000*5E
$GPGSA,A,3,02,25,09,29,12,05,04,,,,,,2.0,1.1,1.7*33
$GPRMC,205446.000,A,3748.7662,N,12217.1529,W,0.10,237.81,081011,,,A*7F
$GPVTG,237.81,T,,M,0.10,N,0.2,K,A*01
$GPGGA,205447.000,3748.7661,N,12217.1528,W,1,07,1.1,13.0,M,-25.1,M,,0000*57
$GPGSA,A,3,02,25,09,29,12,05,04,,,,,,2.0,1.1,1.7*33
$GPRMC,205447.000,A,3748.7661,N,12217.1528,W,0.05,111.46,081011,,,A*74
$GPVTG,111.46,T,,M,0.05,N,0.1,K,A*0A
$GPGGA,205448.000,3748.7660,N,12217.1526,W,1,07,1.1,14.3,M,-25.1,M,,0000*53
$GPGSA,A,3,02,25,09,29,12,05,04,,,,,,2.0,1.1,1.7*33
$GPRMC,205448.000,A,3748.7660,N,12217.1526,W,0.11,111.43,081011,,,A*74
$GPVTG,111.43,T,,M,0.11,N,0.2,K,A*09
$GPGGA,205449.000,3748.7659,N,12217.1525,W,1,07,1.1,15.5,M,-25.1,M,,0000*5C
$GPGSA,A,3,02,25,09,29,12,05,04,,,,,,2.0,1.1,1.7*33
$GPRMC,205449.000,A,3748.7659,N,12217.1525,W,0.20,121.01,081011,,,A*7B
$GPVTG,121.01,T,,M,0.20,N,0.4,K,A*08
$GPGGA,205450.000,3748.7658,N,12217.1523,W,1,07,1.1,16.7,M,-25.1,M,,0000*52
$GPGSA,A,3,02,25,09,29,12,05,04,,,,,,2.0,1.1,1.7*33
$GPGSV,3,1,10,02,79,078,17,12,76,325,14,25,40,314,29,04,32,048,27*7E
$GPGSV,3,2,10,09,29,208,31,10,28,086,23,05,21,148,28,27,20,198,24*77
$GPGSV,3,3,10,29,18,274,31,17,01,079,*70
$GPRMC,205450.000,A,3748.7658,N,12217.1523,W,0.13,124.02,081011,,,A*72
$GPVTG,124.02,T,,M,0.13,N,0.2,K,A*08
$GPGGA,205451.000,3748.7657,N,12217.1521,W,1,07,1.1,17.9,M,-25.1,M,,0000*51
$GPGSA,A,3,02,25,09,29,12,05,04,,,,,,2.0,1.1,1.7*33
$GPRMC,205451.000,A,3748.7657,N,12217.1521,W,0.14,122.08,081011,,,A*75
$GPVTG,122.08,T,,M,0.14,N,0.3,K,A*02
$GPGGA,205452.000,3748.7657,N,12217.1520,W,1,07,1.1,18.9,M,-25.1,M,,0000*5C
$GPGSA,A,3,02,25,09,29,12,05,04,,,,,,2.0,1.1,1.7*33
$GPRMC,205452.000,A,3748.7657,N,12217.1520,W,0.13,155.16,081011,,,A*7F
$GPVTG,155.16,T,,M,0.13,N,0.2,K,A*0B
$GPGGA,205453.000,3748.7656,N,12217.1519,W,1,07,1.1,19.7,M,-25.1,M,,0000*59
$GPGSA,A,3,02,25,09,29,12,05,04,,,,,,2.0,1.1,1.7*33
$GPRMC,205453.000,A,3748.7656,N,12217.1519,W,0.20,163.63,081011,,,A*72
$GPVTG,163.63,T,,M,0.20,N,0.4,K,A*0A
$GPGGA,205454.000,3748.7655,N,12217.1518,W,1,07,1.1,20.5,M,-25.1,M,,0000*54
$GPGSA,A,3,02,25,09,29,12,05,04,,,,,,2.0,1.1,1.7*33
$GPRMC,205454.000,A,3748.7655,N,12217.1518,W,0.18,158.80,081011,,,A*79
$GPVTG,158.80,T,,M,0.18,N,0.3,K,A*03
$GPGGA,205455.000,3748.7655,N,12217.1517,W,1,07,1.1,21.3,M,-25.1,M,,0000*5D
$GPGSA,A,3,02,25,09,29,12,05,04,,,,,,2.0,1.1,1.7*33
$GPGSV,3,1,10,02,79,078,16,12,76,325,15,25,40,314,31,04,32,048,27*77
$GPGSV,3,2,10,09,29,208,31,10,28,086,24,05,21,148,29,27,20,198,23*76
$GPGSV,3,3,10,29,18,274,31,17,01,079,*70
$GPRMC,205455.000,A,3748.7655,N,12217.1517,W,0.20,174.30,081011,,,A*79
$GPVTG,174.30,T,,M,0.20,N,0.4,K,A*0A
$GPGGA,205456.000,3748.7654,N,12217.1516,W,1,07,1.1,21.9,M,-25.1,M,,0000*54
$GPGSA,A,3,02,25,09,29,12,05,04,,,,,,2.0,1.1,1.7*33
$GPRMC,205456.000,A,3748.7654,N,12217.1516,W,0.21,168.78,081011,,,A*7A
$GPVTG,168.78,T,,M,0.21,N,0.4,K,A*0A
$GPGGA,205457.000,3748.7653,N,12217.1515,W,1,07,1.1,22.6,M,-25.1,M,,0000*5D
$GPGSA,A,3,02,25,09,29,12,05,04,,,,,,2.0,1.1,1.7*33
$GPRMC,205457.000,A,3748.7653,N,12217.1515,W,0.21,170.17,081011,,,A*7F
$GPVTG,170.17,T,,M,0.21,N,0.4,K,A*0A
$GPGGA,205458.000,3748.7653,N,12217.1514,W,1,07,1.1,23.2,M,-25.1,M,,0000*56
$GPGSA,A,3,02,25,09,29,12,05,04,,,,,,2.0,1.1,1.7*33
$GPRMC,205458.000,A,3748.7653,N,12217.1514,W,0.19,186.22,081011,,,A*75
$GPVTG,186.22,T,,M,0.19,N,0.4,K,A*0E
$GPGGA,205459.000,3748.7652,N,12217.1514,W,1,07,1.1,23.8,M,-25.1,M,,0000*5C
$GPGSA,A,3,02,25,09,29,12,05,04,,,,,,2.0,1.1,1.7*33
$GPRMC,205459.000,A,3748.7652,N,12217.1514,W,0.22,158.03,081011,,,A*7D
$GPVTG,158.03,T,,M,0.22,N,0.4,K,A*06
$GPGGA,205500.000,3748.7652,N,12217.1513,W,1,07,1.1,24.2,M,-25.1,M,,0000*5B
$GPGSA,A,3,02,25,09,29,12,05,04,,,,,,2.0,1.1,1.7*33
$GPGSV,3,1,10,02,79,078,15,12,76,325,16,25,40,314,35,04,32,048,27*73
$GPGSV,3,2,10,09,29,208,31,10,28,086,25,05,21,148,30,27,20,198,16*79
$GPGSV,3,3,10,29,18,274,31,17,01,079,*70
$GPRMC,205500.000,A,3748.7652,N,12217.1513,W,0.18,180.81,081011,,,A*71
$GPGGA,205501.000,3748.7651,N,12217.1512,W,1,07,1.1,24.5,M,-25.1,M,,0000*5F
$GPGSA,A,3,02,25,09,29,12,05,04,,,,,,2.0,1.1,1.7*33
$GPRMC,205501.000,A,3748.7651,N,12217.1512,W,0.20,185.40,081011,,,A*71
$GPVTG,185.40,T,,M,0.20,N,0.4,K,A*03
$GPGGA,205502.000,3748.7651,N,12217.1512,W,1,07,1.1,25.0,M,-25.1,M,,0000*58
$GPGSA,A,3,02,25,09,29,12,05,04,,,,,,2.0,1.1,1.7*33
$GPRMC,205502.000,A,3748.7651,N,12217.1512,W,0.14,191.35,081011,,,A*72
$GPVTG,191.35,T,,M,0.14,N,0.3,K,A*04
$GPGGA,205503.000,3748.7650,N,12217.1512,W,1,07,1.1,25.1,M,-25.1,M,,0000*59
$GPGSA,A,3,02,25,09,29,12,05,04,,,,,,2.0,1.1,1.7*33
$GPRMC,205503.000,A,3748.7650,N,12217.1512,W,0.22,201.70,081011,,,A*7C
$GPVTG,201.70,T,,M,0.22,N,0.4,K,A*0D
