$ADVER,3080,2.3
$GPRMC,234231.651,A,3748.8025,N,12217.8846,W,0.00,,060711,,,A*66
$GPRMC,234232.651,A,3748.8003,N,12217.8719,W,0.00,,060711,,,A*64
$GPRMC,234233.651,A,3748.7913,N,12217.8711,W,0.00,,060711,,,A*6A
$GPRMC,234234.651,A,3748.7931,N,12217.8707,W,0.00,,060711,,,A*6A
$GPRMC,234235.651,A,3748.7935,N,12217.8691,W,0.00,,060711,,,A*61
$GPRMC,234236.651,A,3748.7908,N,12217.8652,W,0.00,,060711,,,A*63
$GPRMC,234237.651,A,3748.7860,N,12217.8636,W,0.00,,060711,,,A*6F
$GPRMC,234238.651,A,3748.7907,N,12217.8635,W,0.00,,060711,,,A*63
$GPRMC,234239.651,A,3748.7846,N,12217.8649,W,0.00,,060711,,,A*6D
$GPRMC,234240.651,A,3748.7770,N,12217.8600,W,0.00,,060711,,,A*64
$GPRMC,234241.651,A,3748.7800,N,12217.8643,W,0.00,,060711,,,A*6A
$GPRMC,234242.651,A,3748.7821,N,12217.8668,W,0.00,,060711,,,A*63
$GPRMC,234243.651,A,3748.7903,N,12217.8688,W,0.00,,060711,,,A*6D
$GPRMC,234244.651,A,3748.7890,N,12217.8689,W,0.00,,060711,,,A*60
$GPRMC,234245.651,A,3748.7887,N,12217.8677,W,0.00,,060711,,,A*66
$GPRMC,234246.651,A,3748.7906,N,12217.8682,W,0.00,,060711,,,A*67
$GPRMC,234247.651,A,3748.7891,N,12217.8673,W,0.00,,060711,,,A*67
$GPRMC,234248.651,A,3748.7852,N,12217.8684,W,0.00,,060711,,,A*6F
$GPRMC,234249.651,A,3748.7911,N,12217.8721,W,0.00,,060711,,,A*66
$GPRMC,234250.651,A,3748.7891,N,12217.8705,W,0.00,,060711,,,A*61
$GPRMC,234251.651,A,3748.7875,N,12217.8704,W,0.00,,060711,,,A*6B
$GPRMC,234252.651,A,3748.7943,N,12217.8754,W,0.00,,060711,,,A*69
$GPRMC,234253.551,A,3748.7901,N,12217.8732,W,0.00,,060711,,,A*6D
$GPRMC,234254.551,A,3748.7884,N,12217.8754,W,0.92,207.01,060711,,,A*77
$GPRMC,234255.000,A,3748.7875,N,12217.8712,W,0.33,198.90,060711,,,A*7D
$GPRMC,234256.000,A,3748.7877,N,12217.8719,W,0.35,223.36,060711,,,A*7E
$GPRMC,234257.000,A,3748.7876,N,12217.8721,W,0.39,302.49,060711,,,A*73
$GPRMC,234258.000,A,3748.7877,N,12217.8726,W,0.75,12.14,060711,,,A*48
$GPRMC,234259.000,A,3748.7884,N,12217.8720,W,0.50,22.30,060711,,,A*41
$GPRMC,234300.000,A,3748.7889,N,12217.8716,W,0.34,86.02,060711,,,A*49
$GPRMC,234301.000,A,3748.7891,N,12217.8714,W,0.23,22.52,060711,,,A*4E
$GPRMC,234302.000,A,3748.7896,N,12217.8717,W,0.42,358.57,060711,,,A*75
$GPRMC,234303.000,A,3748.7899,N,12217.8717,W,0.28,2.02,060711,,,A*7B
$GPRMC,234304.000,A,3748.7904,N,12217.8710,W,0.19,38.39,060711,,,A*4D
$GPRMC,234305.000,A,3748.7903,N,12217.8707,W,1.03,131.32,060711,,,A*74
$GPRMC,234306.000,A,3748.7904,N,12217.8707,W,0.21,141.48,060711,,,A*7B
$GPRMC,234307.000,A,3748.7904,N,12217.8710,W,0.45,152.12,060711,,,A*73
$GPRMC,234308.000,A,3748.7905,N,12217.8710,W,0.41,180.23,060711,,,A*74
$GPRMC,234309.000,A,3748.7903,N,12217.8707,W,0.53,346.45,060711,,,A*7E
$GPRMC,234310.000,A,3748.7902,N,12217.8702,W,0.54,97.86,060711,,,A*45
$GPRMC,234311.000,A,3748.7905,N,12217.8692,W,1.96,127.26,060711,,,A*74
$GPRMC,234312.000,A,3748.7908,N,12217.8685,W,1.56,99.09,060711,,,A*49
$GPRMC,234313.000,A,3748.7913,N,12217.8679,W,1.38,43.03,060711,,,A*44
$GPRMC,234314.000,A,3748.7922,N,12217.8682,W,1.19,16.52,060711,,,A*42
$GPRMC,234315.000,A,3748.7925,N,12217.8681,W,1.15,344.14,060711,,,A*7D
$GPRMC,234316.000,A,3748.7927,N,12217.8679,W,0.83,354.30,060711,,,A*72
$GPRMC,234317.000,A,3748.7929,N,12217.8677,W,0.65,359.22,060711,,,A*75
$GPRMC,234318.000,A,3748.7932,N,12217.8677,W,0.75,10.38,060711,,,A*44
$GPRMC,234319.000,A,3748.7938,N,12217.8678,W,0.21,315.92,060711,,,A*77
$GPRMC,234320.000,A,3748.7932,N,12217.8673,W,0.22,145.72,060711,,,A*76
$GPRMC,234321.000,A,3748.7932,N,12217.8672,W,0.38,236.29,060711,,,A*74
$GPRMC,234322.000,A,3748.7932,N,12217.8677,W,0.22,231.23,060711,,,A*74
$GPRMC,234323.000,A,3748.7932,N,12217.8680,W,0.31,266.10,060711,,,A*7D
$GPRMC,234324.000,A,3748.7931,N,12217.8674,W,0.08,239.76,060711,,,A*72
$GPRMC,234325.000,A,3748.7931,N,12217.8671,W,0.16,296.39,060711,,,A*77
$GPRMC,234326.000,A,3748.7931,N,12217.8672,W,0.51,260.45,060711,,,A*76
$GPRMC,234327.000,A,3748.7930,N,12217.8672,W,0.94,152.85,060711,,,A*71
$GPRMC,234328.000,A,3748.7929,N,12217.8672,W,0.40,72.36,060711,,,A*44
$GPRMC,234329.000,A,3748.7929,N,12217.8674,W,0.13,276.85,060711,,,A*7B
$GPRMC,234330.000,A,3748.7930,N,12217.8670,W,0.16,92.07,060711,,,A*48
$GPRMC,234331.000,A,3748.7928,N,12217.8667,W,0.20,207.23,060711,,,A*7B
$GPRMC,234332.000,A,3748.7927,N,12217.8663,W,0.14,162.50,060711,,,A*70
$GPRMC,234333.000,A,3748.7926,N,12217.8660,W,0.06,213.28,060711,,,A*7A
$GPRMC,234334.000,A,3748.7927,N,12217.8661,W,0.41,248.28,060711,,,A*70
$GPRMC,234335.000,A,3748.7929,N,12217.8663,W,0.68,294.56,060711,,,A*7E
$GPRMC,234336.000,A,3748.7933,N,12217.8663,W,0.56,45.45,060711,,,A*47
$GPRMC,234337.000,A,3748.7936,N,12217.8663,W,0.33,258.32,060711,,,A*7E
$GPRMC,234338.000,A,3748.7936,N,12217.8659,W,0.10,298.44,060711,,,A*74
$GPRMC,234339.000,A,3748.7935,N,12217.8656,W,0.27,170.70,060711,,,A*7F
$GPRMC,234340.000,A,3748.7933,N,12217.8657,W,0.23,4.72,060711,,,A*72
$GPRMC,234341.000,A,3748.7931,N,12217.8659,W,0.45,266.47,060711,,,A*7F
$GPRMC,234342.000,A,3748.7932,N,12217.8662,W,0.27,99.61,060711,,,A*45
$GPRMC,234343.000,A,3748.7932,N,12217.8664,W,0.31,86.13,060711,,,A*4E
$GPRMC,234344.000,A,3748.7932,N,12217.8663,W,0.39,73.19,060711,,,A*46
$GPRMC,234345.000,A,3748.7931,N,12217.8663,W,0.60,78.01,060711,,,A*4A
$GPRMC,234346.000,A,3748.7930,N,12217.8663,W,0.35,136.27,060711,,,A*77
$GPRMC,234347.000,A,3748.7926,N,12217.8671,W,0.57,238.69,060711,,,A*71
$GPRMC,234348.000,A,3748.7921,N,12217.8673,W,0.53,219.24,060711,,,A*75
$GPRMC,234349.000,A,3748.7921,N,12217.8669,W,0.13,171.94,060711,,,A*7D
$GPRMC,234350.000,A,3748.7921,N,12217.8667,W,0.03,253.12,060711,,,A*77
$GPRMC,234351.000,A,3748.7918,N,12217.8666,W,0.23,154.20,060711,,,A*7A
$GPRMC,234352.000,A,3748.7915,N,12217.8664,W,0.60,125.03,060711,,,A*76
$GPRMC,234353.000,A,3748.7911,N,12217.8663,W,1.39,141.20,060711,,,A*7A
$GPRMC,234354.000,A,3748.7908,N,12217.8656,W,1.21,150.37,060711,,,A*7C
$GPRMC,234355.000,A,3748.7906,N,12217.8651,W,1.22,138.28,060711,,,A*77
$GPRMC,234356.000,A,3748.7903,N,12217.8648,W,1.22,154.33,060711,,,A*79
$GPRMC,234357.000,A,3748.7899,N,12217.8644,W,1.64,144.00,060711,,,A*75
$GPRMC,234358.000,A,3748.7895,N,12217.8638,W,1.83,145.90,060711,,,A*7C
$GPRMC,234359.000,A,3748.7889,N,12217.8633,W,1.75,162.32,060711,,,A*7F
$GPRMC,234400.000,A,3748.7882,N,12217.8621,W,1.54,164.83,060711,,,A*73
$GPRMC,234401.000,A,3748.7876,N,12217.8612,W,1.36,167.78,060711,,,A*7A
$GPRMC,234402.000,A,3748.7872,N,12217.8606,W,1.72,150.81,060711,,,A*7A
$GPRMC,234403.000,A,3748.7866,N,12217.8594,W,1.57,152.22,060711,,,A*7A
$GPRMC,234404.000,A,3748.7863,N,12217.8589,W,1.34,143.37,060711,,,A*75
$GPRMC,234405.000,A,3748.7861,N,12217.8584,W,1.24,119.68,060711,,,A*7F
$GPRMC,234406.000,A,3748.7859,N,12217.8578,W,1.70,129.47,060711,,,A*7B
$GPRMC,234407.000,A,3748.7856,N,12217.8569,W,2.30,134.75,060711,,,A*7F
$GPRMC,234408.000,A,3748.7851,N,12217.8560,W,1.94,145.89,060711,,,A*76
$GPRMC,234409.000,A,3748.7848,N,12217.8551,W,2.03,144.69,060711,,,A*7F
$GPRMC,234410.000,A,3748.7843,N,12217.8544,W,1.64,138.59,060711,,,A*72
$GPRMC,234411.000,A,3748.7843,N,12217.8531,W,2.24,127.73,060711,,,A*70
$GPRMC,234412.000,A,3748.7839,N,12217.8522,W,2.07,127.23,060711,,,A*78
$GPRMC,234413.000,A,3748.7836,N,12217.8515,W,1.96,141.87,060711,,,A*77
$GPRMC,234414.000,A,3748.7832,N,12217.8506,W,2.13,133.00,060711,,,A*72
$GPRMC,234415.000,A,3748.7830,N,12217.8494,W,2.05,125.35,060711,,,A*7D
$GPRMC,234416.000,A,3748.7827,N,12217.8484,W,2.20,121.68,060711,,,A*72
$GPRMC,234417.000,A,3748.7824,N,12217.8476,W,1.79,124.69,060711,,,A*76
$GPRMC,234418.000,A,3748.7822,N,12217.8469,W,1.56,135.60,060711,,,A*75
$GPRMC,234419.000,A,3748.7818,N,12217.8462,W,2.31,134.05,060711,,,A*76
$GPRMC,234420.000,A,3748.7815,N,12217.8451,W,2.41,138.98,060711,,,A*7E
$GPRMC,234421.000,A,3748.7811,N,12217.8442,W,1.83,144.69,060711,,,A*71
$GPRMC,234422.000,A,3748.7808,N,12217.8434,W,1.53,154.41,060711,,,A*7D
$GPRMC,234423.000,A,3748.7804,N,12217.8428,W,1.62,147.56,060711,,,A*7B
$GPRMC,234424.000,A,3748.7802,N,12217.8418,W,1.73,137.91,060711,,,A*75
$GPRMC,234425.000,A,3748.7797,N,12217.8411,W,1.90,149.78,060711,,,A*7D
$GPRMC,234426.000,A,3748.7790,N,12217.8398,W,1.65,141.98,060711,,,A*73
$GPRMC,234427.000,A,3748.7786,N,12217.8386,W,1.89,134.95,060711,,,A*77
$GPRMC,234428.000,A,3748.7783,N,12217.8379,W,1.34,145.51,060711,,,A*75
$GPRMC,234429.000,A,3748.7779,N,12217.8371,W,1.25,164.12,060711,,,A*7D
$GPRMC,234430.000,A,3748.7776,N,12217.8363,W,1.18,180.51,060711,,,A*7A
$GPRMC,234431.000,A,3748.7772,N,12217.8356,W,1.28,162.60,060711,,,A*74
$GPRMC,234432.000,A,3748.7768,N,12217.8350,W,1.36,152.36,060711,,,A*75
$GPRMC,234433.000,A,3748.7765,N,12217.8349,W,1.38,156.77,060711,,,A*7E
$GPRMC,234434.000,A,3748.7762,N,12217.8343,W,1.34,174.87,060711,,,A*77
$GPRMC,234435.000,A,3748.7759,N,12217.8342,W,1.38,183.64,060711,,,A*76
$GPRMC,234436.000,A,3748.7755,N,12217.8336,W,1.25,192.31,060711,,,A*76
$GPRMC,234437.000,A,3748.7751,N,12217.8329,W,1.52,167.52,060711,,,A*72
$GPRMC,234438.000,A,3748.7744,N,12217.8321,W,2.05,131.26,060711,,,A*70
$GPRMC,234439.000,A,3748.7739,N,12217.8310,W,2.46,126.07,060711,,,A*7B
$GPRMC,234440.000,A,3748.7735,N,12217.8301,W,2.18,116.39,060711,,,A*7C
$GPRMC,234441.000,A,3748.7733,N,12217.8294,W,1.42,127.55,060711,,,A*72
$GPRMC,234442.000,A,3748.7730,N,12217.8290,W,1.30,156.42,060711,,,A*73
$GPRMC,234443.000,A,3748.7727,N,12217.8287,W,0.81,149.75,060711,,,A*73
$GPRMC,234444.000,A,3748.7727,N,12217.8285,W,0.87,187.10,060711,,,A*71
$GPRMC,234445.000,A,3748.7726,N,12217.8282,W,0.88,181.92,060711,,,A*75
$GPRMC,234446.000,A,3748.7724,N,12217.8279,W,1.11,172.28,060711,,,A*7C
$GPRMC,234447.000,A,3748.7721,N,12217.8276,W,1.26,169.32,060711,,,A*72
$GPRMC,234448.000,A,3748.7719,N,12217.8273,W,1.12,167.97,060711,,,A*75
$GPRMC,234449.000,A,3748.7717,N,12217.8271,W,1.22,158.60,060711,,,A*7F
$GPRMC,234450.000,A,3748.7715,N,12217.8267,W,1.55,136.97,060711,,,A*72
$GPRMC,234451.000,A,3748.7712,N,12217.8260,W,1.66,128.83,060711,,,A*79
$GPRMC,234452.000,A,3748.7710,N,12217.8255,W,1.55,130.11,060711,,,A*7C
$GPRMC,234453.000,A,3748.7707,N,12217.8252,W,1.47,135.28,060711,,,A*70
$GPRMC,234454.000,A,3748.7704,N,12217.8249,W,1.41,143.18,060711,,,A*7A
$GPRMC,234455.000,A,3748.7700,N,12217.8244,W,1.33,146.03,060711,,,A*78
$GPRMC,234456.000,A,3748.7697,N,12217.8236,W,1.32,150.75,060711,,,A*76
$GPRMC,234457.000,A,3748.7695,N,12217.8229,W,0.89,158.24,060711,,,A*76
$GPRMC,234458.000,A,3748.7692,N,12217.8222,W,1.06,154.47,060711,,,A*7A
$GPRMC,234459.000,A,3748.7689,N,12217.8216,W,1.13,143.85,060711,,,A*7A
$GPRMC,234500.000,A,3748.7686,N,12217.8205,W,1.39,133.08,060711,,,A*70
$GPRMC,234501.000,A,3748.7684,N,12217.8191,W,1.58,121.61,060711,,,A*76
$GPRMC,234502.000,A,3748.7679,N,12217.8174,W,2.31,117.81,060711,,,A*7B
$GPRMC,234503.000,A,3748.7675,N,12217.8163,W,1.74,132.39,060711,,,A*76
$GPRMC,234504.000,A,3748.7671,N,12217.8158,W,1.34,156.58,060711,,,A*7C
$GPRMC,234505.000,A,3748.7668,N,12217.8153,W,0.91,158.81,060711,,,A*7A
$GPRMC,234506.000,A,3748.7665,N,12217.8147,W,1.03,162.63,060711,,,A*7E
$GPRMC,234507.000,A,3748.7662,N,12217.8140,W,1.35,161.38,060711,,,A*77
$GPRMC,234508.000,A,3748.7659,N,12217.8133,W,0.98,160.11,060711,,,A*78
$GPRMC,234509.000,A,3748.7655,N,12217.8126,W,1.27,155.24,060711,,,A*74
$GPRMC,234510.000,A,3748.7652,N,12217.8119,W,1.36,146.78,060711,,,A*7C
$GPRMC,234511.000,A,3748.7649,N,12217.8111,W,1.11,148.69,060711,,,A*74
$GPRMC,234512.000,A,3748.7642,N,12217.8097,W,1.58,158.19,060711,,,A*78
$GPRMC,234513.000,A,3748.7638,N,12217.8090,W,1.13,166.41,060711,,,A*7C
$GPRMC,234514.000,A,3748.7635,N,12217.8086,W,1.47,152.49,060711,,,A*7F
$GPRMC,234515.000,A,3748.7630,N,12217.8079,W,0.79,175.21,060711,,,A*7C
$GPRMC,234516.000,A,3748.7628,N,12217.8077,W,0.57,216.34,060711,,,A*76
$GPRMC,234517.000,A,3748.7630,N,12217.8069,W,0.37,285.56,060711,,,A*79
$GPRMC,234518.000,A,3748.7629,N,12217.8066,W,0.24,193.07,060711,,,A*73
$GPRMC,234519.000,A,3748.7629,N,12217.8061,W,0.37,156.16,060711,,,A*7E
$GPRMC,234520.000,A,3748.7627,N,12217.8056,W,0.83,152.38,060711,,,A*79
$GPRMC,234521.000,A,3748.7625,N,12217.8051,W,1.18,141.72,060711,,,A*72
$GPRMC,234522.000,A,3748.7620,N,12217.8045,W,1.21,161.04,060711,,,A*78
$GPRMC,234523.000,A,3748.7617,N,12217.8043,W,1.01,187.88,060711,,,A*75
$GPRMC,234524.000,A,3748.7613,N,12217.8040,W,0.92,200.71,060711,,,A*74
$GPRMC,234525.000,A,3748.7611,N,12217.8039,W,0.22,200.15,060711,,,A*70
$GPRMC,234526.000,A,3748.7610,N,12217.8034,W,0.05,136.21,060711,,,A*7B
$GPRMC,234527.000,A,3748.7609,N,12217.8028,W,1.12,92.15,060711,,,A*40
$GPRMC,234528.000,A,3748.7606,N,12217.8016,W,0.72,86.37,060711,,,A*4F
$GPRMC,234529.000,A,3748.7605,N,12217.8008,W,0.52,120.35,060711,,,A*7F
$GPRMC,234530.000,A,3748.7603,N,12217.8000,W,1.25,130.99,060711,,,A*7F
$GPRMC,234531.000,A,3748.7599,N,12217.7990,W,1.76,133.52,060711,,,A*73
$GPRMC,234532.000,A,3748.7595,N,12217.7982,W,1.61,136.04,060711,,,A*7F
$GPRMC,234533.000,A,3748.7592,N,12217.7977,W,1.53,133.90,060711,,,A*7A
$GPRMC,234534.000,A,3748.7588,N,12217.7970,W,1.31,132.89,060711,,,A*7C
$GPRMC,234535.000,A,3748.7586,N,12217.7966,W,1.09,150.78,060711,,,A*75
$GPRMC,234536.000,A,3748.7587,N,12217.7953,W,1.09,153.69,060711,,,A*72
$GPRMC,234537.000,A,3748.7585,N,12217.7944,W,1.87,135.47,060711,,,A*7D
$GPRMC,234538.000,A,3748.7582,N,12217.7937,W,1.37,153.79,060711,,,A*77
$GPRMC,234539.000,A,3748.7578,N,12217.7935,W,0.87,161.90,060711,,,A*7D
$GPRMC,234540.000,A,3748.7576,N,12217.7933,W,0.91,144.02,060711,,,A*70
$GPRMC,234541.000,A,3748.7572,N,12217.7933,W,1.26,139.83,060711,,,A*7B
$GPRMC,234542.000,A,3748.7571,N,12217.7924,W,1.25,141.59,060711,,,A*76
$GPRMC,234543.000,A,3748.7570,N,12217.7919,W,1.25,149.78,060711,,,A*73
$GPRMC,234544.000,A,3748.7564,N,12217.7918,W,1.33,150.65,060711,,,A*73
$GPRMC,234545.000,A,3748.7558,N,12217.7918,W,1.98,134.68,060711,,,A*73
$GPRMC,234546.000,A,3748.7553,N,12217.7914,W,1.91,133.22,060711,,,A*77
$GPRMC,234547.000,A,3748.7548,N,12217.7908,W,2.11,124.87,060711,,,A*73
$GPRMC,234548.000,A,3748.7543,N,12217.7901,W,2.23,120.81,060711,,,A*7D
$GPRMC,234549.000,A,3748.7538,N,12217.7895,W,2.09,126.37,060711,,,A*7F
$GPRMC,234550.000,A,3748.7535,N,12217.7890,W,1.69,116.26,060711,,,A*79
$GPRMC,234551.000,A,3748.7530,N,12217.7887,W,2.29,128.16,060711,,,A*72
$GPRMC,234552.000,A,3748.7523,N,12217.7886,W,1.93,148.97,060711,,,A*7F
$GPRMC,234553.000,A,3748.7518,N,12217.7883,W,1.49,145.16,060711,,,A*70
$GPRMC,234554.000,A,3748.7514,N,12217.7880,W,1.80,133.89,060711,,,A*7A
$GPRMC,234555.000,A,3748.7508,N,12217.7876,W,2.00,130.14,060711,,,A*73
$GPRMC,234556.000,A,3748.7501,N,12217.7871,W,1.99,128.96,060711,,,A*7E
$GPRMC,234557.000,A,3748.7494,N,12217.7867,W,2.21,124.56,060711,,,A*75
$GPRMC,234558.000,A,3748.7485,N,12217.7856,W,2.40,109.72,060711,,,A*76
$GPRMC,234559.000,A,3748.7482,N,12217.7848,W,2.23,110.75,060711,,,A*75
$GPRMC,234600.000,A,3748.7480,N,12217.7842,W,1.45,120.06,060711,,,A*76
$GPRMC,234601.000,A,3748.7480,N,12217.7836,W,1.35,113.95,060711,,,A*79
$GPRMC,234602.000,A,3748.7479,N,12217.7830,W,1.85,112.91,060711,,,A*74
$GPRMC,234603.000,A,3748.7477,N,12217.7824,W,1.67,118.25,060711,,,A*77
$GPRMC,234604.000,A,3748.7473,N,12217.7816,W,1.90,113.64,060711,,,A*73
$GPRMC,234605.000,A,3748.7470,N,12217.7810,W,1.61,124.31,060711,,,A*7D
$GPRMC,234606.000,A,3748.7463,N,12217.7802,W,2.28,149.95,060711,,,A*74
$GPRMC,234607.000,A,3748.7457,N,12217.7794,W,2.04,130.75,060711,,,A*7C
$GPRMC,234608.000,A,3748.7454,N,12217.7788,W,1.53,119.05,060711,,,A*70
$GPRMC,234609.000,A,3748.7451,N,12217.7781,W,1.84,120.89,060711,,,A*79
$GPRMC,234610.000,A,3748.7448,N,12217.7773,W,1.99,120.42,060711,,,A*7F
$GPRMC,234611.000,A,3748.7444,N,12217.7767,W,1.94,119.80,060711,,,A*7E
$GPRMC,234612.000,A,3748.7440,N,12217.7760,W,1.75,118.78,060711,,,A*77
$GPRMC,234613.000,A,3748.7436,N,12217.7754,W,1.84,117.85,060711,,,A*73
$GPRMC,234614.000,A,3748.7431,N,12217.7750,W,1.82,120.27,060711,,,A*7D
$GPRMC,234615.000,A,3748.7427,N,12217.7745,W,1.81,126.89,060711,,,A*7E
$GPRMC,234616.000,A,3748.7422,N,12217.7740,W,1.64,117.53,060711,,,A*73
$GPRMC,234617.000,A,3748.7419,N,12217.7736,W,1.56,107.48,060711,,,A*71
$GPRMC,234618.000,A,3748.7414,N,12217.7724,W,1.73,109.79,060711,,,A*7B
$GPRMC,234619.000,A,3748.7408,N,12217.7713,W,1.84,115.15,060711,,,A*7C
$GPRMC,234620.000,A,3748.7404,N,12217.7704,W,1.63,114.49,060711,,,A*7D
$GPRMC,234621.000,A,3748.7401,N,12217.7698,W,1.68,114.82,060711,,,A*71
$GPRMC,234622.000,A,3748.7397,N,12217.7695,W,1.87,130.15,060711,,,A*7E
$GPRMC,234623.000,A,3748.7393,N,12217.7687,W,1.71,116.14,060711,,,A*74
$GPRMC,234624.000,A,3748.7393,N,12217.7680,W,1.32,115.73,060711,,,A*71
$GPRMC,234625.000,A,3748.7391,N,12217.7674,W,1.66,114.88,060711,,,A*7D
$GPRMC,234626.000,A,3748.7388,N,12217.7668,W,1.46,114.13,060711,,,A*7B
$GPRMC,234627.000,A,3748.7387,N,12217.7662,W,0.84,96.53,060711,,,A*4F
$GPRMC,234628.000,A,3748.7388,N,12217.7658,W,0.74,84.04,060711,,,A*48
$GPRMC,234629.000,A,3748.7387,N,12217.7651,W,1.86,126.13,060711,,,A*7C
$GPRMC,234630.000,A,3748.7381,N,12217.7639,W,1.68,124.75,060711,,,A*7E
$GPRMC,234631.000,A,3748.7375,N,12217.7626,W,1.59,132.67,060711,,,A*7C
$GPRMC,234632.000,A,3748.7375,N,12217.7620,W,1.26,123.86,060711,,,A*7E
$GPRMC,234633.000,A,3748.7374,N,12217.7615,W,1.22,132.00,060711,,,A*72
$GPRMC,234634.000,A,3748.7372,N,12217.7610,W,1.65,131.97,060711,,,A*78
$GPRMC,234635.000,A,3748.7370,N,12217.7606,W,1.56,127.56,060711,,,A*76
$GPRMC,234636.000,A,3748.7367,N,12217.7599,W,1.48,127.22,060711,,,A*7A
$GPRMC,234637.000,A,3748.7365,N,12217.7593,W,1.47,131.79,060711,,,A*75
$GPRMC,234638.000,A,3748.7362,N,12217.7586,W,1.51,126.81,060711,,,A*7F
$GPRMC,234639.000,A,3748.7359,N,12217.7581,W,1.48,132.55,060711,,,A*75
$GPRMC,234640.000,A,3748.7356,N,12217.7576,W,1.52,127.74,060711,,,A*70
$GPRMC,234641.000,A,3748.7353,N,12217.7571,W,1.60,134.69,060711,,,A*7C
$GPRMC,234642.000,A,3748.7349,N,12217.7566,W,1.29,136.70,060711,,,A*75
$GPRMC,234643.000,A,3748.7346,N,12217.7558,W,1.44,145.45,060711,,,A*7F
$GPRMC,234644.000,A,3748.7343,N,12217.7552,W,0.91,150.76,060711,,,A*7A
$GPRMC,234645.000,A,3748.7340,N,12217.7549,W,1.08,134.39,060711,,,A*7A
$GPRMC,234646.000,A,3748.7337,N,12217.7537,W,1.90,121.08,060711,,,A*77
$GPRMC,234647.000,A,3748.7333,N,12217.7526,W,1.93,118.42,060711,,,A*75
$GPRMC,234648.000,A,3748.7330,N,12217.7513,W,1.98,116.50,060711,,,A*79
$GPRMC,234649.000,A,3748.7327,N,12217.7503,W,1.64,120.12,060711,,,A*7F
$GPRMC,234650.000,A,3748.7325,N,12217.7500,W,1.47,135.29,060711,,,A*7B
$GPRMC,234651.000,A,3748.7324,N,12217.7493,W,1.86,118.55,060711,,,A*79
$GPRMC,234652.000,A,3748.7324,N,12217.7486,W,1.93,104.10,060711,,,A*76
$GPRMC,234653.000,A,3748.7322,N,12217.7481,W,1.82,119.62,060711,,,A*7F
$GPRMC,234654.000,A,3748.7320,N,12217.7475,W,1.39,134.06,060711,,,A*7C
$GPRMC,234655.000,A,3748.7318,N,12217.7470,W,1.16,142.76,060711,,,A*78
$GPRMC,234656.000,A,3748.7315,N,12217.7467,W,1.21,133.94,060711,,,A*7E
$GPRMC,234657.000,A,3748.7312,N,12217.7458,W,1.22,137.03,060711,,,A*7D
$GPRMC,234658.000,A,3748.7310,N,12217.7456,W,0.93,144.46,060711,,,A*70
$GPRMC,234659.000,A,3748.7306,N,12217.7453,W,0.98,152.73,060711,,,A*79
$GPRMC,234700.000,A,3748.7302,N,12217.7450,W,1.31,110.99,060711,,,A*73
$GPRMC,234701.000,A,3748.7297,N,12217.7447,W,1.29,118.84,060711,,,A*74
$GPRMC,234702.000,A,3748.7293,N,12217.7439,W,1.59,101.56,060711,,,A*7A
$GPRMC,234703.000,A,3748.7289,N,12217.7430,W,1.62,119.11,060711,,,A*7B
$GPRMC,234704.000,A,3748.7285,N,12217.7424,W,1.50,122.00,060711,,,A*7C
$GPRMC,234705.000,A,3748.7283,N,12217.7414,W,0.66,104.77,060711,,,A*78
$GPRMC,234706.000,A,3748.7282,N,12217.7410,W,0.17,38.03,060711,,,A*45
$GPRMC,234707.000,A,3748.7283,N,12217.7405,W,0.56,128.22,060711,,,A*77
$GPRMC,234708.000,A,3748.7281,N,12217.7403,W,1.17,142.38,060711,,,A*7F
$GPRMC,234709.000,A,3748.7278,N,12217.7402,W,1.17,134.84,060711,,,A*7F
$GPRMC,234710.000,A,3748.7276,N,12217.7395,W,0.84,128.95,060711,,,A*76
$GPRMC,234711.000,A,3748.7273,N,12217.7391,W,1.13,141.33,060711,,,A*7A
$GPRMC,234712.000,A,3748.7270,N,12217.7387,W,1.57,132.11,060711,,,A*79
$GPRMC,234713.000,A,3748.7263,N,12217.7377,W,1.56,123.03,060711,,,A*77
$GPRMC,234714.000,A,3748.7258,N,12217.7370,W,2.17,129.91,060711,,,A*78
$GPRMC,234715.000,A,3748.7256,N,12217.7364,W,2.03,139.19,060711,,,A*76
$GPRMC,234716.000,A,3748.7250,N,12217.7354,W,2.15,133.15,060711,,,A*71
$GPRMC,234717.000,A,3748.7244,N,12217.7346,W,2.15,142.50,060711,,,A*71
$GPRMC,234718.000,A,3748.7238,N,12217.7337,W,2.54,136.41,060711,,,A*75
$GPRMC,234719.000,A,3748.7231,N,12217.7329,W,2.35,137.04,060711,,,A*75
$GPRMC,234720.000,A,3748.7227,N,12217.7323,W,1.25,178.27,060711,,,A*7A
$GPRMC,234721.000,A,3748.7227,N,12217.7321,W,1.13,170.85,060711,,,A*7C
$GPRMC,234722.000,A,3748.7227,N,12217.7317,W,1.00,182.24,060711,,,A*7E
$GPRMC,234723.000,A,3748.7226,N,12217.7312,W,0.70,159.49,060711,,,A*70
$GPRMC,234724.000,A,3748.7225,N,12217.7307,W,1.08,198.67,060711,,,A*7F
$GPRMC,234725.000,A,3748.7222,N,12217.7305,W,0.97,181.67,060711,,,A*74
$GPRMC,234726.000,A,3748.7220,N,12217.7301,W,1.00,157.60,060711,,,A*72
$GPRMC,234727.000,A,3748.7215,N,12217.7291,W,1.40,145.61,060711,,,A*7B
$GPRMC,234728.000,A,3748.7211,N,12217.7282,W,1.02,143.03,060711,,,A*76
$GPRMC,234729.000,A,3748.7210,N,12217.7274,W,0.97,92.31,060711,,,A*4E
$GPRMC,234730.000,A,3748.7211,N,12217.7262,W,1.86,75.00,060711,,,A*4A
$GPRMC,234731.000,A,3748.7216,N,12217.7251,W,1.79,69.50,060711,,,A*44
$GPRMC,234732.000,A,3748.7222,N,12217.7241,W,1.72,59.46,060711,,,A*4E
$GPRMC,234733.000,A,3748.7226,N,12217.7229,W,1.54,55.74,060711,,,A*4C
$GPRMC,234734.000,A,3748.7229,N,12217.7220,W,1.56,48.69,060711,,,A*4F
$GPRMC,234735.000,A,3748.7229,N,12217.7208,W,1.61,69.58,060711,,,A*41
$GPRMC,234736.000,A,3748.7231,N,12217.7198,W,1.70,72.61,060711,,,A*41
$GPRMC,234737.000,A,3748.7234,N,12217.7190,W,1.49,39.10,060711,,,A*4E
$GPRMC,234738.000,A,3748.7240,N,12217.7184,W,1.49,9.93,060711,,,A*7F
$GPRMC,234739.000,A,3748.7251,N,12217.7183,W,2.38,13.14,060711,,,A*48
$GPRMC,234740.000,A,3748.7261,N,12217.7180,W,2.36,16.84,060711,,,A*44
$GPRMC,234741.000,A,3748.7272,N,12217.7171,W,1.97,47.94,060711,,,A*44
$GPRMC,234742.000,A,3748.7278,N,12217.7164,W,1.91,61.10,060711,,,A*47
$GPRMC,234743.000,A,3748.7277,N,12217.7159,W,1.31,94.26,060711,,,A*42
$GPRMC,234744.000,A,3748.7283,N,12217.7153,W,1.34,77.33,060711,,,A*48
$GPRMC,234745.000,A,3748.7291,N,12217.7151,W,1.83,47.50,060711,,,A*42
$GPRMC,234746.000,A,3748.7302,N,12217.7149,W,1.83,34.66,060711,,,A*42
$GPRMC,234747.000,A,3748.7307,N,12217.7145,W,1.78,30.62,060711,,,A*4E
$GPRMC,234748.000,A,3748.7313,N,12217.7137,W,2.23,42.33,060711,,,A*4D
$GPRMC,234749.000,A,3748.7320,N,12217.7131,W,2.22,24.85,060711,,,A*46
$GPRMC,234750.000,A,3748.7328,N,12217.7122,W,2.05,32.51,060711,,,A*4F
$GPRMC,234751.000,A,3748.7333,N,12217.7111,W,2.00,19.56,060711,,,A*4F
$GPRMC,234752.000,A,3748.7336,N,12217.7103,W,1.47,35.64,060711,,,A*45
$GPRMC,234753.000,A,3748.7340,N,12217.7097,W,1.95,40.58,060711,,,A*4B
$GPRMC,234754.000,A,3748.7347,N,12217.7090,W,2.79,38.17,060711,,,A*49
$GPRMC,234755.000,A,3748.7360,N,12217.7085,W,2.63,35.28,060711,,,A*43
$GPRMC,234756.000,A,3748.7364,N,12217.7078,W,1.98,52.41,060711,,,A*4F
$GPRMC,234757.000,A,3748.7370,N,12217.7073,W,1.79,54.10,060711,,,A*4D
$GPRMC,234758.000,A,3748.7376,N,12217.7068,W,2.09,48.16,060711,,,A*41
$GPRMC,234759.000,A,3748.7381,N,12217.7063,W,1.98,39.58,060711,,,A*44
$GPRMC,234800.000,A,3748.7385,N,12217.7061,W,1.90,49.43,060711,,,A*44
$GPRMC,234801.000,A,3748.7387,N,12217.7054,W,1.93,58.10,060711,,,A*44
$GPRMC,234802.000,A,3748.7390,N,12217.7051,W,1.83,30.74,060711,,,A*49
$GPRMC,234803.000,A,3748.7393,N,12217.7044,W,1.79,12.33,060711,,,A*49
$GPRMC,234804.000,A,3748.7398,N,12217.7039,W,1.94,22.26,060711,,,A*4B
$GPRMC,234805.000,A,3748.7408,N,12217.7036,W,2.57,32.72,060711,,,A*47
$GPRMC,234806.000,A,3748.7417,N,12217.7031,W,2.22,37.52,060711,,,A*48
$GPRMC,234807.000,A,3748.7422,N,12217.7025,W,1.78,33.52,060711,,,A*42
$GPRMC,234808.000,A,3748.7428,N,12217.7016,W,1.75,25.03,060711,,,A*49
$GPRMC,234809.000,A,3748.7431,N,12217.7015,W,1.42,50.64,060711,,,A*44
$GPRMC,234810.000,A,3748.7433,N,12217.7013,W,1.24,33.41,060711,,,A*4A
$GPRMC,234811.000,A,3748.7437,N,12217.7013,W,1.61,17.45,060711,,,A*4C
$GPRMC,234812.000,A,3748.7443,N,12217.7013,W,1.56,32.34,060711,,,A*49
$GPRMC,234813.000,A,3748.7448,N,12217.7012,W,1.78,36.05,060711,,,A*48
$GPRMC,234814.000,A,3748.7453,N,12217.7009,W,1.71,67.76,060711,,,A*46
$GPRMC,234815.000,A,3748.7459,N,12217.7006,W,1.51,69.44,060711,,,A*4F
$GPRMC,234816.000,A,3748.7469,N,12217.7002,W,1.47,19.06,060711,,,A*4D
$GPRMC,234817.000,A,3748.7479,N,12217.7003,W,1.72,7.33,060711,,,A*73
$GPRMC,234818.000,A,3748.7490,N,12217.7006,W,2.07,6.07,060711,,,A*79
$GPRMC,234819.000,A,3748.7495,N,12217.7006,W,1.04,20.72,060711,,,A*4B
$GPRMC,234820.000,A,3748.7495,N,12217.7001,W,0.63,347.81,060711,,,A*78
$GPRMC,234821.000,A,3748.7502,N,12217.6998,W,1.31,344.93,060711,,,A*78
$GPRMC,234822.000,A,3748.7507,N,12217.6992,W,1.24,16.38,060711,,,A*45
$GPRMC,234823.000,A,3748.7515,N,12217.6989,W,1.28,39.09,060711,,,A*4E
$GPRMC,234824.000,A,3748.7525,N,12217.6984,W,1.80,30.88,060711,,,A*45
$GPRMC,234825.000,A,3748.7536,N,12217.6978,W,1.66,21.89,060711,,,A*4C
$GPRMC,234826.000,A,3748.7545,N,12217.6974,W,1.63,43.51,060711,,,A*43
$GPRMC,234827.000,A,3748.7548,N,12217.6970,W,2.08,40.54,060711,,,A*43
$GPRMC,234828.000,A,3748.7554,N,12217.6964,W,2.03,33.96,060711,,,A*45
$GPRMC,234829.000,A,3748.7559,N,12217.6958,W,1.68,34.59,060711,,,A*4C
$GPRMC,234830.000,A,3748.7567,N,12217.6944,W,2.32,24.99,060711,,,A*45
$GPRMC,234831.000,A,3748.7577,N,12217.6938,W,2.37,27.64,060711,,,A*4A
$GPRMC,234832.000,A,3748.7587,N,12217.6929,W,2.35,33.26,060711,,,A*47
$GPRMC,234833.000,A,3748.7591,N,12217.6923,W,2.08,36.63,060711,,,A*41
$GPRMC,234834.000,A,3748.7596,N,12217.6918,W,1.98,30.22,060711,,,A*40
$GPRMC,234835.000,A,3748.7604,N,12217.6913,W,2.63,31.03,060711,,,A*47
$GPRMC,234836.000,A,3748.7610,N,12217.6907,W,2.25,35.64,060711,,,A*43
$GPRMC,234837.000,A,3748.7618,N,12217.6901,W,2.58,33.68,060711,,,A*4C
$GPRMC,234838.000,A,3748.7626,N,12217.6895,W,2.19,42.63,060711,,,A*4A
$GPRMC,234839.000,A,3748.7628,N,12217.6889,W,1.88,59.87,060711,,,A*43
$GPRMC,234840.000,A,3748.7632,N,12217.6882,W,1.84,53.14,060711,,,A*41
$GPRMC,234841.000,A,3748.7636,N,12217.6877,W,1.69,39.69,060711,,,A*4B
$GPRMC,234842.000,A,3748.7643,N,12217.6872,W,1.70,47.83,060711,,,A*4A
$GPRMC,234843.000,A,3748.7649,N,12217.6868,W,1.44,58.84,060711,,,A*44
$GPRMC,234844.000,A,3748.7657,N,12217.6857,W,2.15,38.02,060711,,,A*4F
$GPRMC,234845.000,A,3748.7665,N,12217.6849,W,2.24,36.16,060711,,,A*49
$GPRMC,234846.000,A,3748.7676,N,12217.6843,W,2.33,32.74,060711,,,A*44
$GPRMC,234847.000,A,3748.7690,N,12217.6837,W,2.16,37.81,060711,,,A*46
$GPRMC,234848.000,A,3748.7700,N,12217.6828,W,2.21,40.96,060711,,,A*4D
$GPRMC,234849.000,A,3748.7708,N,12217.6823,W,2.12,34.85,060711,,,A*4E
$GPRMC,234850.000,A,3748.7717,N,12217.6817,W,2.27,31.69,060711,,,A*4E
$GPRMC,234851.000,A,3748.7727,N,12217.6809,W,2.70,27.32,060711,,,A*48
$GPRMC,234852.000,A,3748.7739,N,12217.6803,W,2.64,28.60,060711,,,A*43
$GPRMC,234853.000,A,3748.7749,N,12217.6797,W,2.04,44.50,060711,,,A*48
$GPRMC,234854.000,A,3748.7757,N,12217.6794,W,2.04,29.83,060711,,,A*46
$GPRMC,234855.000,A,3748.7763,N,12217.6793,W,1.70,41.02,060711,,,A*40
$GPRMC,234856.000,A,3748.7772,N,12217.6786,W,1.57,58.12,060711,,,A*4B
$GPRMC,234857.000,A,3748.7782,N,12217.6777,W,2.44,40.10,060711,,,A*41
$GPRMC,234858.000,A,3748.7789,N,12217.6772,W,2.25,48.99,060711,,,A*4E
$GPRMC,234859.000,A,3748.7788,N,12217.6767,W,1.67,63.73,060711,,,A*42
$GPRMC,234900.000,A,3748.7793,N,12217.6761,W,1.50,71.60,060711,,,A*46
$GPRMC,234901.000,A,3748.7797,N,12217.6755,W,1.52,52.33,060711,,,A*41
$GPRMC,234902.000,A,3748.7802,N,12217.6749,W,2.05,51.32,060711,,,A*4F
$GPRMC,234903.000,A,3748.7809,N,12217.6739,W,2.11,49.55,060711,,,A*4F
$GPRMC,234904.000,A,3748.7816,N,12217.6730,W,1.52,59.17,060711,,,A*4C
$GPRMC,234905.000,A,3748.7823,N,12217.6727,W,1.31,44.39,060711,,,A*48
$GPRMC,234906.000,A,3748.7827,N,12217.6723,W,1.84,40.55,060711,,,A*4B
$GPRMC,234907.000,A,3748.7828,N,12217.6720,W,1.41,49.21,060711,,,A*45
$GPRMC,234908.000,A,3748.7834,N,12217.6716,W,1.99,37.97,060711,,,A*43
$GPRMC,234909.000,A,3748.7836,N,12217.6711,W,1.64,47.42,060711,,,A*4A
$GPRMC,234910.000,A,3748.7840,N,12217.6707,W,1.71,45.53,060711,,,A*42
$GPRMC,234911.000,A,3748.7848,N,12217.6703,W,1.69,47.48,060711,,,A*4E
$GPRMC,234912.000,A,3748.7852,N,12217.6699,W,1.56,61.60,060711,,,A*46
$GPRMC,234913.000,A,3748.7856,N,12217.6694,W,1.71,51.02,060711,,,A*4C
$GPRMC,234914.000,A,3748.7861,N,12217.6695,W,2.08,34.80,060711,,,A*4A
$GPRMC,234915.000,A,3748.7866,N,12217.6692,W,1.78,35.40,060711,,,A*42
$GPRMC,234916.000,A,3748.7870,N,12217.6687,W,1.47,55.93,060711,,,A*46
$GPRMC,234917.000,A,3748.7875,N,12217.6683,W,1.83,31.99,060711,,,A*46
$GPRMC,234918.000,A,3748.7883,N,12217.6679,W,2.33,35.92,060711,,,A*42
$GPRMC,234919.000,A,3748.7892,N,12217.6671,W,2.25,52.04,060711,,,A*42
$GPRMC,234920.000,A,3748.7899,N,12217.6666,W,1.78,40.16,060711,,,A*4E
$GPRMC,234921.000,A,3748.7905,N,12217.6661,W,2.42,30.13,060711,,,A*44
$GPRMC,234922.000,A,3748.7913,N,12217.6657,W,1.85,36.14,060711,,,A*4C
$GPRMC,234923.000,A,3748.7920,N,12217.6654,W,1.76,29.82,060711,,,A*43
$GPRMC,234924.000,A,3748.7928,N,12217.6650,W,1.25,50.75,060711,,,A*48
$GPRMC,234925.000,A,3748.7938,N,12217.6639,W,1.67,36.60,060711,,,A*45
$GPRMC,234926.000,A,3748.7945,N,12217.6632,W,1.51,50.22,060711,,,A*44
$GPRMC,234927.000,A,3748.7949,N,12217.6626,W,1.61,57.49,060711,,,A*45
$GPRMC,234928.000,A,3748.7956,N,12217.6618,W,2.26,48.34,060711,,,A*4D
$GPRMC,234929.000,A,3748.7963,N,12217.6608,W,2.46,37.53,060711,,,A*44
$GPRMC,234930.000,A,3748.7967,N,12217.6601,W,2.13,36.53,060711,,,A*40
$GPRMC,234931.000,A,3748.7972,N,12217.6593,W,1.86,36.80,060711,,,A*4C
$GPRMC,234932.000,A,3748.7980,N,12217.6591,W,2.22,9.02,060711,,,A*7B
$GPRMC,234933.000,A,3748.7988,N,12217.6587,W,1.69,5.47,060711,,,A*74
$GPRMC,234934.000,A,3748.7990,N,12217.6582,W,1.21,28.72,060711,,,A*4A
$GPRMC,234935.000,A,3748.7994,N,12217.6572,W,1.19,55.20,060711,,,A*46
$GPRMC,234936.000,A,3748.7995,N,12217.6567,W,0.85,40.47,060711,,,A*41
$GPRMC,234937.000,A,3748.7999,N,12217.6562,W,1.77,61.47,060711,,,A*46
$GPRMC,234938.000,A,3748.8004,N,12217.6555,W,2.06,71.40,060711,,,A*4C
$GPRMC,234939.000,A,3748.8008,N,12217.6548,W,1.82,78.87,060711,,,A*40
$GPRMC,234940.000,A,3748.8011,N,12217.6535,W,1.58,66.86,060711,,,A*45
$GPRMC,234941.000,A,3748.8016,N,12217.6531,W,1.53,51.29,060711,,,A*4D
$GPRMC,234942.000,A,3748.8020,N,12217.6528,W,2.42,43.68,060711,,,A*46
$GPRMC,234943.000,A,3748.8029,N,12217.6523,W,2.45,45.09,060711,,,A*43
$GPRMC,234944.000,A,3748.8040,N,12217.6518,W,2.73,35.44,060711,,,A*48
$GPRMC,234945.000,A,3748.8047,N,12217.6514,W,1.97,52.44,060711,,,A*4A
$GPRMC,234946.000,A,3748.8046,N,12217.6509,W,1.37,70.52,060711,,,A*49
$GPRMC,234947.000,A,3748.8047,N,12217.6500,W,1.70,69.26,060711,,,A*48
$GPRMC,234948.000,A,3748.8051,N,12217.6486,W,1.52,69.72,060711,,,A*4E
$GPRMC,234949.000,A,3748.8053,N,12217.6473,W,1.95,89.73,060711,,,A*43
$GPRMC,234950.000,A,3748.8051,N,12217.6461,W,1.99,101.64,060711,,,A*71
$GPRMC,234951.000,A,3748.8052,N,12217.6445,W,1.67,98.26,060711,,,A*43
$GPRMC,234952.000,A,3748.8053,N,12217.6437,W,2.08,76.07,060711,,,A*4D
$GPRMC,234953.000,A,3748.8058,N,12217.6429,W,2.11,64.28,060711,,,A*4E
$GPRMC,234954.000,A,3748.8057,N,12217.6424,W,1.76,61.62,060711,,,A*42
$GPRMC,234955.000,A,3748.8068,N,12217.6417,W,1.46,53.06,060711,,,A*4F
$GPRMC,234956.000,A,3748.8076,N,12217.6413,W,0.60,2.01,060711,,,A*71
$GPRMC,234957.000,A,3748.8080,N,12217.6409,W,0.60,119.73,060711,,,A*7C
$GPRMC,234958.000,A,3748.8083,N,12217.6409,W,0.84,65.35,060711,,,A*42
$GPRMC,234959.000,A,3748.8089,N,12217.6403,W,1.11,82.52,060711,,,A*46
$GPRMC,235000.000,A,3748.8091,N,12217.6402,W,1.27,94.89,060711,,,A*4E
$GPRMC,235001.000,A,3748.8096,N,12217.6395,W,1.91,102.60,060711,,,A*75
$GPRMC,235002.000,A,3748.8099,N,12217.6393,W,2.54,90.90,060711,,,A*40
$GPRMC,235003.000,A,3748.8104,N,12217.6389,W,1.70,97.98,060711,,,A*45
$GPRMC,235004.000,A,3748.8107,N,12217.6387,W,1.29,109.14,060711,,,A*71
$GPRMC,235005.000,A,3748.8110,N,12217.6382,W,1.18,76.73,060711,,,A*49
$GPRMC,235006.000,A,3748.8113,N,12217.6377,W,1.36,50.35,060711,,,A*49
$GPRMC,235007.000,A,3748.8119,N,12217.6376,W,1.11,52.17,060711,,,A*44
$GPRMC,235008.000,A,3748.8123,N,12217.6379,W,0.51,25.60,060711,,,A*48
$GPRMC,235009.000,A,3748.8129,N,12217.6375,W,0.64,75.51,060711,,,A*4E
$GPRMC,235010.000,A,3748.8131,N,12217.6374,W,0.92,91.26,060711,,,A*4D
$GPRMC,235011.000,A,3748.8135,N,12217.6367,W,1.42,73.73,060711,,,A*4A
$GPRMC,235012.000,A,3748.8141,N,12217.6367,W,1.07,48.98,060711,,,A*46
$GPRMC,235013.000,A,3748.8146,N,12217.6365,W,1.00,21.11,060711,,,A*4B
$GPRMC,235014.000,A,3748.8152,N,12217.6365,W,0.32,343.69,060711,,,A*71
$GPRMC,235015.000,A,3748.8156,N,12217.6372,W,0.76,260.45,060711,,,A*7C
$GPRMC,235016.000,A,3748.8155,N,12217.6380,W,0.86,220.97,060711,,,A*75
$GPRMC,235017.000,A,3748.8157,N,12217.6382,W,0.72,348.03,060711,,,A*7D
$GPRMC,235018.000,A,3748.8159,N,12217.6383,W,0.72,338.35,060711,,,A*7F
$GPRMC,235019.000,A,3748.8159,N,12217.6370,W,1.43,101.42,060711,,,A*79
$GPRMC,235020.000,A,3748.8163,N,12217.6364,W,1.75,97.59,060711,,,A*4E
$GPRMC,235021.000,A,3748.8173,N,12217.6358,W,2.01,85.04,060711,,,A*4A
$GPRMC,235022.000,A,3748.8184,N,12217.6351,W,1.81,55.90,060711,,,A*43
$GPRMC,235023.000,A,3748.8196,N,12217.6350,W,0.95,50.49,060711,,,A*45
$GPRMC,235024.000,A,3748.8203,N,12217.6347,W,0.77,70.10,060711,,,A*49
$GPRMC,235025.000,A,3748.8215,N,12217.6345,W,1.40,62.06,060711,,,A*4C
$GPRMC,235026.000,A,3748.8227,N,12217.6347,W,1.46,93.43,060711,,,A*45
$GPRMC,235027.000,A,3748.8240,N,12217.6353,W,1.04,92.94,060711,,,A*4D
$GPRMC,235028.000,A,3748.8249,N,12217.6353,W,1.26,91.97,060711,,,A*4B
$GPRMC,235029.000,A,3748.8253,N,12217.6353,W,1.16,88.91,060711,,,A*4C
$GPRMC,235030.000,A,3748.8255,N,12217.6347,W,0.68,143.87,060711,,,A*7E
$GPRMC,235031.000,A,3748.8260,N,12217.6345,W,1.31,158.62,060711,,,A*77
$GPRMC,235032.000,A,3748.8264,N,12217.6343,W,1.18,106.44,060711,,,A*72
$GPRMC,235033.000,A,3748.8284,N,12217.6340,W,1.67,56.14,060711,,,A*47
$GPRMC,235034.000,A,3748.8300,N,12217.6335,W,2.16,48.37,060711,,,A*44
$GPRMC,235035.000,A,3748.8318,N,12217.6339,W,1.39,33.23,060711,,,A*47
$GPRMC,235036.000,A,3748.8327,N,12217.6337,W,1.02,43.80,060711,,,A*40
$GPRMC,235037.000,A,3748.8334,N,12217.6334,W,1.56,25.72,060711,,,A*4C
$GPRMC,235038.000,A,3748.8340,N,12217.6324,W,1.87,47.75,060711,,,A*4E
$GPRMC,235039.000,A,3748.8348,N,12217.6321,W,1.43,67.35,060711,,,A*4C
$GPRMC,235040.000,A,3748.8353,N,12217.6317,W,0.81,103.24,060711,,,A*71
$GPRMC,235041.000,A,3748.8355,N,12217.6316,W,0.49,14.74,060711,,,A*41
$GPRMC,235042.000,A,3748.8355,N,12217.6317,W,0.96,359.64,060711,,,A*7A
$GPRMC,235043.000,A,3748.8355,N,12217.6312,W,0.83,353.66,060711,,,A*72
$GPRMC,235044.000,A,3748.8356,N,12217.6310,W,0.54,322.65,060711,,,A*7B
$GPRMC,235045.000,A,3748.8357,N,12217.6309,W,0.94,348.06,060711,,,A*76
$GPRMC,235046.000,A,3748.8357,N,12217.6310,W,0.52,102.23,060711,,,A*7C
$GPRMC,235047.000,A,3748.8338,N,12217.6294,W,2.74,141.87,060711,,,A*76
$GPRMC,235048.000,A,3748.8335,N,12217.6291,W,1.06,119.36,060711,,,A*70
$GPRMC,235049.000,A,3748.8330,N,12217.6283,W,0.64,127.86,060711,,,A*74
$GPRMC,235050.000,A,3748.8328,N,12217.6279,W,0.88,70.21,060711,,,A*4C
$GPRMC,235051.000,A,3748.8328,N,12217.6270,W,0.96,42.41,060711,,,A*4C
$GPRMC,235052.000,A,3748.8321,N,12217.6260,W,1.20,81.07,060711,,,A*46
$GPRMC,235053.000,A,3748.8322,N,12217.6252,W,1.28,91.08,060711,,,A*43
$GPRMC,235054.000,A,3748.8323,N,12217.6239,W,1.23,58.88,060711,,,A*4E
$GPRMC,235055.000,A,3748.8324,N,12217.6231,W,1.15,70.42,060711,,,A*49
$GPRMC,235056.000,A,3748.8326,N,12217.6222,W,1.38,75.20,060711,,,A*44
$GPRMC,235057.000,A,3748.8329,N,12217.6213,W,1.24,77.35,060711,,,A*43
$GPRMC,235058.000,A,3748.8325,N,12217.6201,W,1.77,96.46,060711,,,A*4E
$GPRMC,235059.000,A,3748.8319,N,12217.6188,W,1.54,77.25,060711,,,A*49
$GPRMC,235100.000,A,3748.8325,N,12217.6180,W,1.02,82.69,060711,,,A*42
$GPRMC,235101.000,A,3748.8323,N,12217.6170,W,1.36,146.20,060711,,,A*79
$GPRMC,235102.000,A,3748.8316,N,12217.6161,W,1.73,137.86,060711,,,A*77
$GPRMC,235103.000,A,3748.8316,N,12217.6155,W,1.38,150.51,060711,,,A*75
$GPRMC,235104.000,A,3748.8313,N,12217.6146,W,1.41,135.90,060711,,,A*75
$GPRMC,235105.000,A,3748.8311,N,12217.6136,W,1.80,130.90,060711,,,A*79
$GPRMC,235106.000,A,3748.8308,N,12217.6127,W,1.80,127.19,060711,,,A*75
$GPRMC,235107.000,A,3748.8304,N,12217.6115,W,2.14,123.26,060711,,,A*7F
$GPRMC,235108.000,A,3748.8301,N,12217.6098,W,2.72,119.70,060711,,,A*7B
$GPRMC,235109.000,A,3748.8297,N,12217.6088,W,2.40,124.60,060711,,,A*7B
$GPRMC,235110.000,A,3748.8292,N,12217.6075,W,2.06,133.81,060711,,,A*7F
$GPRMC,235111.000,A,3748.8290,N,12217.6064,W,2.30,123.60,060711,,,A*77
$GPRMC,235112.000,A,3748.8288,N,12217.6056,W,1.62,134.17,060711,,,A*7E
$GPRMC,235113.000,A,3748.8286,N,12217.6049,W,1.40,148.06,060711,,,A*74
$GPRMC,235114.000,A,3748.8283,N,12217.6037,W,2.14,131.97,060711,,,A*7B
$GPRMC,235115.000,A,3748.8279,N,12217.6026,W,1.83,133.48,060711,,,A*72
$GPRMC,235116.000,A,3748.8278,N,12217.6021,W,1.80,131.42,060711,,,A*7C
$GPRMC,235117.000,A,3748.8276,N,12217.6013,W,1.39,140.95,060711,,,A*7C
$GPRMC,235118.000,A,3748.8275,N,12217.6014,W,1.04,164.18,060711,,,A*7A
$GPRMC,235119.000,A,3748.8274,N,12217.6013,W,0.86,154.66,060711,,,A*7C
$GPRMC,235120.000,A,3748.8281,N,12217.5998,W,1.25,144.52,060711,,,A*7B
$GPRMC,235121.000,A,3748.8283,N,12217.5988,W,1.19,151.34,060711,,,A*72
$GPRMC,235122.000,A,3748.8279,N,12217.5987,W,1.32,162.53,060711,,,A*73
$GPRMC,235123.000,A,3748.8274,N,12217.5986,W,1.65,155.67,060711,,,A*7F
$GPRMC,235124.000,A,3748.8271,N,12217.5983,W,1.34,145.98,060711,,,A*7D
$GPRMC,235125.000,A,3748.8268,N,12217.5982,W,0.97,149.81,060711,,,A*79
$GPRMC,235126.000,A,3748.8266,N,12217.5981,W,1.37,139.54,060711,,,A*73
$GPRMC,235127.000,A,3748.8263,N,12217.5977,W,1.27,153.06,060711,,,A*74
$GPRMC,235128.000,A,3748.8260,N,12217.5972,W,1.66,136.67,060711,,,A*7C
$GPRMC,235129.000,A,3748.8258,N,12217.5961,W,1.63,129.88,060711,,,A*7E
$GPRMC,235130.000,A,3748.8255,N,12217.5952,W,2.05,128.78,060711,,,A*76
$GPRMC,235131.000,A,3748.8253,N,12217.5942,W,1.72,125.14,060711,,,A*74
$GPRMC,235132.000,A,3748.8251,N,12217.5931,W,1.52,143.60,060711,,,A*70
$GPRMC,235133.000,A,3748.8247,N,12217.5924,W,1.49,145.79,060711,,,A*76
$GPRMC,235134.000,A,3748.8244,N,12217.5918,W,1.38,158.02,060711,,,A*7B
$GPRMC,235135.000,A,3748.8243,N,12217.5912,W,0.86,146.96,060711,,,A*71
$GPRMC,235136.000,A,3748.8241,N,12217.5906,W,1.07,190.71,060711,,,A*7F
$GPRMC,235137.000,A,3748.8239,N,12217.5902,W,1.18,180.23,060711,,,A*7D
$GPRMC,235138.000,A,3748.8237,N,12217.5896,W,1.12,166.49,060711,,,A*7E
$GPRMC,235139.000,A,3748.8234,N,12217.5893,W,1.07,164.50,060711,,,A*77
$GPRMC,235140.000,A,3748.8231,N,12217.5889,W,1.08,168.98,060711,,,A*70
$GPRMC,235141.000,A,3748.8229,N,12217.5886,W,1.17,167.62,060711,,,A*73
$GPRMC,235142.000,A,3748.8227,N,12217.5882,W,1.22,170.80,060711,,,A*76
$GPRMC,235143.000,A,3748.8223,N,12217.5880,W,1.41,152.39,060711,,,A*76
$GPRMC,235144.000,A,3748.8222,N,12217.5872,W,1.18,120.37,060711,,,A*7A
$GPRMC,235145.000,A,3748.8220,N,12217.5865,W,1.20,142.31,060711,,,A*76
$GPRMC,235146.000,A,3748.8215,N,12217.5859,W,1.57,135.81,060711,,,A*77
$GPRMC,235147.000,A,3748.8211,N,12217.5850,W,2.49,124.08,060711,,,A*76
$GPRMC,235148.000,A,3748.8207,N,12217.5841,W,1.97,137.14,060711,,,A*71
$GPRMC,235149.000,A,3748.8203,N,12217.5833,W,1.57,137.03,060711,,,A*7B
$GPRMC,235150.000,A,3748.8199,N,12217.5828,W,0.89,139.70,060711,,,A*71
$GPRMC,235151.000,A,3748.8196,N,12217.5823,W,1.07,132.45,060711,,,A*7E
$GPRMC,235152.000,A,3748.8192,N,12217.5817,W,0.61,158.48,060711,,,A*7E
$GPRMC,235153.000,A,3748.8188,N,12217.5808,W,1.26,127.45,060711,,,A*7D
$GPRMC,235154.000,A,3748.8185,N,12217.5795,W,1.07,148.26,060711,,,A*73
$GPRMC,235155.000,A,3748.8178,N,12217.5786,W,1.23,179.65,060711,,,A*71
$GPRMC,235156.000,A,3748.8173,N,12217.5779,W,1.23,159.80,060711,,,A*70
$GPRMC,235157.000,A,3748.8170,N,12217.5775,W,0.56,195.35,060711,,,A*73
$GPRMC,235158.000,A,3748.8173,N,12217.5770,W,0.51,347.28,060711,,,A*7C
$GPRMC,235159.000,A,3748.8176,N,12217.5763,W,0.46,8.23,060711,,,A*7F
$GPRMC,235200.000,A,3748.8177,N,12217.5755,W,0.28,99.39,060711,,,A*4F
$GPRMC,235201.000,A,3748.8174,N,12217.5747,W,0.50,117.72,060711,,,A*79
$GPRMC,235202.000,A,3748.8174,N,12217.5746,W,0.58,259.97,060711,,,A*71
$GPRMC,235203.000,A,3748.8166,N,12217.5733,W,0.84,202.89,060711,,,A*71
$GPRMC,235204.000,A,3748.8163,N,12217.5727,W,0.99,217.32,060711,,,A*7E
$GPRMC,235205.000,A,3748.8159,N,12217.5722,W,1.19,179.38,060711,,,A*7B
$GPRMC,235206.000,A,3748.8157,N,12217.5717,W,1.28,148.43,060711,,,A*7C
$GPRMC,235207.000,A,3748.8152,N,12217.5708,W,1.36,142.78,060711,,,A*7B
$GPRMC,235208.000,A,3748.8144,N,12217.5696,W,1.01,140.68,060711,,,A*72
$GPRMC,235209.000,A,3748.8135,N,12217.5685,W,1.39,141.56,060711,,,A*70
$GPRMC,235210.000,A,3748.8126,N,12217.5675,W,0.99,154.37,060711,,,A*7D
$GPRMC,235211.000,A,3748.8119,N,12217.5666,W,0.77,168.71,060711,,,A*7F
$GPRMC,235212.000,A,3748.8115,N,12217.5660,W,0.22,243.02,060711,,,A*78
$GPRMC,235213.000,A,3748.8112,N,12217.5657,W,0.46,188.26,060711,,,A*7A
$GPRMC,235214.000,A,3748.8104,N,12217.5646,W,1.74,128.70,060711,,,A*73
$GPRMC,235215.000,A,3748.8098,N,12217.5635,W,1.85,116.94,060711,,,A*7B
$GPRMC,235216.000,A,3748.8089,N,12217.5621,W,2.15,129.52,060711,,,A*71
$GPRMC,235217.000,A,3748.8082,N,12217.5609,W,2.45,133.21,060711,,,A*7B
$GPRMC,235218.000,A,3748.8080,N,12217.5597,W,1.93,130.45,060711,,,A*7B
$GPRMC,235219.000,A,3748.8075,N,12217.5588,W,1.56,141.10,060711,,,A*71
$GPRMC,235220.000,A,3748.8071,N,12217.5581,W,1.31,144.40,060711,,,A*77
$GPRMC,235221.000,A,3748.8066,N,12217.5575,W,1.87,151.64,060711,,,A*74
$GPRMC,235222.000,A,3748.8056,N,12217.5558,W,1.70,152.06,060711,,,A*74
$GPRMC,235223.000,A,3748.8046,N,12217.5545,W,1.78,155.72,060711,,,A*74
$GPRMC,235224.000,A,3748.8042,N,12217.5537,W,2.02,161.22,060711,,,A*7E
$GPRMC,235225.000,A,3748.8035,N,12217.5531,W,1.61,174.56,060711,,,A*78
$GPRMC,235226.000,A,3748.8030,N,12217.5534,W,1.01,209.13,060711,,,A*75
$GPRMC,235227.000,A,3748.8026,N,12217.5540,W,1.21,237.11,060711,,,A*7D
$GPRMC,235228.000,A,3748.8024,N,12217.5547,W,1.75,239.50,060711,,,A*7D
$GPRMC,235229.000,A,3748.8024,N,12217.5552,W,1.55,252.43,060711,,,A*75
$GPRMC,235230.000,A,3748.8023,N,12217.5556,W,1.01,252.66,060711,,,A*78
$GPRMC,235231.000,A,3748.8020,N,12217.5558,W,1.14,260.87,060711,,,A*7E
$GPRMC,235232.000,A,3748.8020,N,12217.5560,W,0.93,238.78,060711,,,A*75
$GPRMC,235233.000,A,3748.8014,N,12217.5558,W,0.59,258.76,060711,,,A*76
$GPRMC,235234.000,A,3748.8010,N,12217.5556,W,0.67,196.72,060711,,,A*73
$GPRMC,235235.000,A,3748.8007,N,12217.5557,W,0.67,184.85,060711,,,A*7E
$GPRMC,235236.000,A,3748.8003,N,12217.5560,W,0.65,270.32,060711,,,A*7B
$GPRMC,235237.000,A,3748.8001,N,12217.5562,W,0.85,247.84,060711,,,A*7D
$GPRMC,235238.000,A,3748.7996,N,12217.5561,W,0.38,238.76,060711,,,A*7A
$GPRMC,235239.000,A,3748.7991,N,12217.5562,W,0.75,211.52,060711,,,A*7B
$GPRMC,235240.000,A,3748.7989,N,12217.5562,W,0.95,227.50,060711,,,A*75
$GPRMC,235241.000,A,3748.7986,N,12217.5568,W,1.05,241.38,060711,,,A*77
$GPRMC,235242.000,A,3748.7986,N,12217.5576,W,1.38,282.15,060711,,,A*75
$GPRMC,235243.000,A,3748.7981,N,12217.5583,W,1.61,258.20,060711,,,A*74
$GPRMC,235244.000,A,3748.7977,N,12217.5594,W,2.08,236.99,060711,,,A*7A
$GPRMC,235245.000,A,3748.7969,N,12217.5597,W,1.34,225.25,060711,,,A*7E
$GPRMC,235246.000,A,3748.7962,N,12217.5593,W,1.01,219.32,060711,,,A*7D
$GPRMC,235247.000,A,3748.7958,N,12217.5590,W,0.44,296.27,060711,,,A*75
$GPRMC,235248.000,A,3748.7953,N,12217.5586,W,0.24,9.46,060711,,,A*73
$GPRMC,235249.000,A,3748.7941,N,12217.5584,W,0.84,212.93,060711,,,A*79
$GPRMC,235250.000,A,3748.7928,N,12217.5588,W,1.66,210.20,060711,,,A*75
$GPRMC,235251.000,A,3748.7924,N,12217.5592,W,1.64,243.15,060711,,,A*71
$GPRMC,235252.000,A,3748.7922,N,12217.5597,W,1.25,258.63,060711,,,A*7F
$GPRMC,235253.000,A,3748.7917,N,12217.5606,W,1.34,237.05,060711,,,A*7A
$GPRMC,235254.000,A,3748.7903,N,12217.5610,W,1.34,225.56,060711,,,A*7A
$GPRMC,235255.000,A,3748.7888,N,12217.5617,W,2.40,215.50,060711,,,A*7B
$GPRMC,235256.000,A,3748.7872,N,12217.5627,W,2.63,213.46,060711,,,A*7E
$GPRMC,235257.000,A,3748.7862,N,12217.5633,W,1.78,218.21,060711,,,A*78
$GPRMC,235258.000,A,3748.7851,N,12217.5642,W,1.28,234.39,060711,,,A*73
$GPRMC,235259.000,A,3748.7849,N,12217.5644,W,1.18,230.18,060711,,,A*79
$GPRMC,235300.000,A,3748.7842,N,12217.5651,W,1.59,261.59,060711,,,A*7F
$GPRMC,235301.000,A,3748.7835,N,12217.5659,W,2.08,267.92,060711,,,A*70
$GPRMC,235302.000,A,3748.7826,N,12217.5664,W,1.41,259.50,060711,,,A*72
$GPRMC,235303.000,A,3748.7818,N,12217.5663,W,0.80,288.73,060711,,,A*78
$GPRMC,235304.000,A,3748.7814,N,12217.5665,W,0.68,329.38,060711,,,A*76
$GPRMC,235305.000,A,3748.7810,N,12217.5659,W,0.91,32.22,060711,,,A*48
$GPRMC,235306.000,A,3748.7806,N,12217.5656,W,0.49,64.13,060711,,,A*47
$GPRMC,235307.000,A,3748.7801,N,12217.5651,W,0.61,228.27,060711,,,A*71
$GPRMC,235308.000,A,3748.7791,N,12217.5658,W,1.62,249.81,060711,,,A*78
$GPRMC,235309.000,A,3748.7785,N,12217.5667,W,1.78,248.74,060711,,,A*70
$GPRMC,235310.000,A,3748.7778,N,12217.5674,W,1.42,252.44,060711,,,A*79
$GPRMC,235311.000,A,3748.7771,N,12217.5677,W,0.92,272.67,060711,,,A*7D
$GPRMC,235312.000,A,3748.7760,N,12217.5686,W,1.42,262.77,060711,,,A*7C
$GPRMC,235313.000,A,3748.7754,N,12217.5695,W,1.09,279.11,060711,,,A*7D
$GPRMC,235314.000,A,3748.7743,N,12217.5701,W,0.86,237.03,060711,,,A*7F
$GPRMC,235315.000,A,3748.7734,N,12217.5707,W,1.58,220.66,060711,,,A*7F
$GPRMC,235316.000,A,3748.7722,N,12217.5713,W,1.39,226.93,060711,,,A*75
$GPRMC,235317.000,A,3748.7715,N,12217.5719,W,1.23,222.24,060711,,,A*79
$GPRMC,235318.000,A,3748.7704,N,12217.5722,W,1.18,214.09,060711,,,A*7C
$GPRMC,235319.000,A,3748.7696,N,12217.5728,W,1.63,221.06,060711,,,A*78
$GPRMC,235320.000,A,3748.7691,N,12217.5736,W,1.91,234.18,060711,,,A*7C
$GPRMC,235321.000,A,3748.7688,N,12217.5750,W,1.92,237.87,060711,,,A*73
$GPRMC,235322.000,A,3748.7681,N,12217.5760,W,1.62,239.45,060711,,,A*75
$GPRMC,235323.000,A,3748.7676,N,12217.5769,W,2.01,229.05,060711,,,A*76
$GPRMC,235324.000,A,3748.7668,N,12217.5774,W,1.86,221.43,060711,,,A*74
$GPRMC,235325.000,A,3748.7662,N,12217.5781,W,1.62,221.15,060711,,,A*7C
$GPRMC,235326.000,A,3748.7656,N,12217.5789,W,2.09,221.62,060711,,,A*7E
$GPRMC,235327.000,A,3748.7646,N,12217.5796,W,1.72,219.54,060711,,,A*71
$GPRMC,235328.000,A,3748.7639,N,12217.5799,W,1.64,209.73,060711,,,A*7A
$GPRMC,235329.000,A,3748.7630,N,12217.5804,W,1.82,217.36,060711,,,A*7F
$GPRMC,235330.000,A,3748.7621,N,12217.5810,W,1.54,243.61,060711,,,A*7A
$GPRMC,235331.000,A,3748.7617,N,12217.5815,W,1.36,253.18,060711,,,A*70
$GPRMC,235332.000,A,3748.7614,N,12217.5819,W,1.33,224.33,060711,,,A*70
$GPRMC,235333.000,A,3748.7610,N,12217.5822,W,1.30,234.20,060711,,,A*7D
$GPRMC,235334.000,A,3748.7608,N,12217.5824,W,0.84,260.50,060711,,,A*7D
$GPRMC,235335.000,A,3748.7606,N,12217.5826,W,1.02,242.31,060711,,,A*78
$GPRMC,235336.000,A,3748.7602,N,12217.5828,W,1.30,234.19,060711,,,A*7B
$GPRMC,235337.000,A,3748.7598,N,12217.5831,W,1.61,223.08,060711,,,A*70
$GPRMC,235338.000,A,3748.7593,N,12217.5838,W,1.50,235.55,060711,,,A*70
$GPRMC,235339.000,A,3748.7588,N,12217.5842,W,1.92,220.31,060711,,,A*7E
$GPRMC,235340.000,A,3748.7584,N,12217.5846,W,1.24,236.24,060711,,,A*76
$GPRMC,235341.000,A,3748.7580,N,12217.5850,W,1.17,251.93,060711,,,A*79
$GPRMC,235342.000,A,3748.7577,N,12217.5857,W,1.17,253.07,060711,,,A*7A
$GPRMC,235343.000,A,3748.7577,N,12217.5865,W,1.23,261.01,060711,,,A*7A
$GPRMC,235344.000,A,3748.7572,N,12217.5871,W,1.45,254.31,060711,,,A*78
$GPRMC,235345.000,A,3748.7560,N,12217.5876,W,1.28,238.94,060711,,,A*73
$GPRMC,235346.000,A,3748.7555,N,12217.5881,W,1.18,239.29,060711,,,A*7A
$GPRMC,235347.000,A,3748.7548,N,12217.5886,W,1.44,256.58,060711,,,A*76
$GPRMC,235348.000,A,3748.7542,N,12217.5892,W,1.28,243.04,060711,,,A*71
$GPRMC,235349.000,A,3748.7535,N,12217.5896,W,1.58,233.19,060711,,,A*78
$GPRMC,235350.000,A,3748.7530,N,12217.5901,W,1.56,232.07,060711,,,A*7A
$GPRMC,235351.000,A,3748.7524,N,12217.5902,W,1.21,241.65,060711,,,A*7D
$GPRMC,235352.000,A,3748.7518,N,12217.5904,W,1.28,241.06,060711,,,A*7B
$GPRMC,235353.000,A,3748.7510,N,12217.5910,W,1.88,220.30,060711,,,A*7F
$GPRMC,235354.000,A,3748.7499,N,12217.5915,W,1.89,205.67,060711,,,A*79
$GPRMC,235355.000,A,3748.7489,N,12217.5921,W,1.97,225.90,060711,,,A*7B
$GPRMC,235356.000,A,3748.7483,N,12217.5927,W,2.11,221.84,060711,,,A*78
$GPRMC,235357.000,A,3748.7478,N,12217.5935,W,1.75,229.56,060711,,,A*78
$GPRMC,235358.000,A,3748.7471,N,12217.5938,W,1.34,232.84,060711,,,A*73
$GPRMC,235359.000,A,3748.7469,N,12217.5941,W,1.40,220.72,060711,,,A*7C
$GPRMC,235400.000,A,3748.7465,N,12217.5946,W,1.35,222.43,060711,,,A*7E
$GPRMC,235401.000,A,3748.7460,N,12217.5950,W,1.23,219.40,060711,,,A*71
$GPRMC,235402.000,A,3748.7455,N,12217.5955,W,1.00,222.93,060711,,,A*76
$GPRMC,235403.000,A,3748.7452,N,12217.5959,W,1.23,267.07,060711,,,A*71
$GPRMC,235404.000,A,3748.7449,N,12217.5964,W,0.85,270.65,060711,,,A*7D
$GPRMC,235405.000,A,3748.7443,N,12217.5969,W,1.10,249.30,060711,,,D*79
$GPRMC,235406.000,A,3748.7438,N,12217.5972,W,1.34,252.13,060711,,,D*71
$GPRMC,235407.000,A,3748.7432,N,12217.5977,W,1.58,260.15,060711,,,D*72
$GPRMC,235408.000,A,3748.7426,N,12217.5981,W,1.44,259.08,060711,,,D*7A
$GPRMC,235409.000,A,3748.7422,N,12217.5988,W,1.78,245.34,060711,,,D*7B
$GPRMC,235410.000,A,3748.7417,N,12217.5993,W,1.48,228.67,060711,,,D*71
$GPRMC,235411.000,A,3748.7412,N,12217.5996,W,1.82,207.02,060711,,,D*78
$GPRMC,235412.000,A,3748.7400,N,12217.5995,W,2.18,207.66,060711,,,D*79
$GPRMC,235413.000,A,3748.7392,N,12217.6002,W,2.00,213.27,060711,,,D*79
$GPRMC,235414.000,A,3748.7381,N,12217.6000,W,1.58,212.30,060711,,,D*77
$GPRMC,235415.000,A,3748.7372,N,12217.6003,W,1.79,220.61,060711,,,D*7F
$GPRMC,235416.000,A,3748.7362,N,12217.6005,W,1.72,210.61,060711,,,D*73
$GPRMC,235417.000,A,3748.7353,N,12217.6006,W,1.50,211.02,060711,,,D*77
$GPRMC,235418.000,A,3748.7347,N,12217.6010,W,1.40,242.09,060711,,,D*76
$GPRMC,235419.000,A,3748.7345,N,12217.6018,W,1.73,228.64,060711,,,D*7A
$GPRMC,235420.000,A,3748.7337,N,12217.6024,W,1.92,213.47,060711,,,D*7C
$GPRMC,235421.000,A,3748.7333,N,12217.6030,W,2.05,235.57,060711,,,D*74
$GPRMC,235422.000,A,3748.7326,N,12217.6034,W,1.59,222.46,060711,,,D*7B
$GPRMC,235423.000,A,3748.7318,N,12217.6039,W,2.00,231.41,060711,,,D*70
$GPRMC,235424.000,A,3748.7309,N,12217.6045,W,2.08,228.67,060711,,,D*78
$GPRMC,235425.000,A,3748.7299,N,12217.6053,W,2.02,220.72,060711,,,D*70
$GPRMC,235426.000,A,3748.7285,N,12217.6056,W,2.05,213.85,060711,,,D*74
$GPRMC,235427.000,A,3748.7275,N,12217.6064,W,1.86,219.97,060711,,,D*7A
$GPRMC,235428.000,A,3748.7268,N,12217.6071,W,2.03,225.19,060711,,,D*7A
$GPRMC,235429.000,A,3748.7259,N,12217.6078,W,1.24,228.99,060711,,,D*73
$GPRMC,235430.000,A,3748.7249,N,12217.6082,W,1.99,215.16,060711,,,D*70
$GPRMC,235431.000,A,3748.7238,N,12217.6086,W,1.75,213.10,060711,,,D*71
$GPRMC,235432.000,A,3748.7228,N,12217.6091,W,1.87,214.32,060711,,,D*7F
$GPRMC,235433.000,A,3748.7218,N,12217.6098,W,2.45,215.29,060711,,,D*72
$GPRMC,235434.000,A,3748.7208,N,12217.6107,W,2.30,222.60,060711,,,D*78
$GPRMC,235435.000,A,3748.7202,N,12217.6117,W,1.65,241.68,060711,,,D*7C
$GPRMC,235436.000,A,3748.7193,N,12217.6126,W,1.61,227.77,060711,,,D*7C
$GPRMC,235437.000,A,3748.7184,N,12217.6133,W,1.77,221.02,060711,,,D*7C
$GPRMC,235438.000,A,3748.7177,N,12217.6138,W,1.79,219.13,060711,,,D*71
$GPRMC,235439.000,A,3748.7173,N,12217.6143,W,1.33,213.93,060711,,,D*74
$GPRMC,235440.000,A,3748.7168,N,12217.6144,W,1.36,225.78,060711,,,D*72
$GPRMC,235441.000,A,3748.7166,N,12217.6144,W,1.30,229.94,060711,,,D*75
$GPRMC,235442.000,A,3748.7163,N,12217.6145,W,0.83,220.65,060711,,,D*7C
$GPRMC,235443.000,A,3748.7158,N,12217.6142,W,0.62,206.26,060711,,,D*7E
$GPRMC,235444.000,A,3748.7156,N,12217.6142,W,0.94,201.21,060711,,,D*7E
$GPRMC,235445.000,A,3748.7153,N,12217.6144,W,1.31,213.82,060711,,,D*78
$GPRMC,235446.000,A,3748.7149,N,12217.6146,W,1.18,211.72,060711,,,D*74
$GPRMC,235447.000,A,3748.7146,N,12217.6148,W,1.12,202.54,060711,,,D*78
$GPRMC,235448.000,A,3748.7144,N,12217.6152,W,1.24,205.61,060711,,,D*7A
$GPRMC,235449.000,A,3748.7143,N,12217.6158,W,1.39,256.68,060711,,,D*75
$GPRMC,235450.000,A,3748.7142,N,12217.6163,W,1.11,216.08,060711,,,D*7C
$GPRMC,235451.000,A,3748.7136,N,12217.6166,W,1.02,230.90,060711,,,D*7C
$GPRMC,235452.000,A,3748.7131,N,12217.6168,W,0.79,232.07,060711,,,D*77
$GPRMC,235453.000,A,3748.7128,N,12217.6173,W,0.76,234.01,060711,,,D*7B
$GPRMC,235454.000,A,3748.7125,N,12217.6176,W,1.22,243.49,060711,,,D*78
$GPRMC,235455.000,A,3748.7125,N,12217.6181,W,0.87,242.34,060711,,,D*74
$GPRMC,235456.000,A,3748.7124,N,12217.6185,W,1.19,272.05,060711,,,D*75
$GPRMC,235457.000,A,3748.7125,N,12217.6191,W,0.85,256.32,060711,,,D*76
$GPRMC,235458.000,A,3748.7120,N,12217.6195,W,1.22,247.96,060711,,,D*7A
$GPRMC,235459.000,A,3748.7116,N,12217.6200,W,1.55,228.71,060711,,,D*71
$GPRMC,235500.000,A,3748.7111,N,12217.6206,W,1.44,225.87,060711,,,D*79
$GPRMC,235501.000,A,3748.7103,N,12217.6210,W,1.24,225.61,060711,,,D*72
$GPRMC,235502.000,A,3748.7095,N,12217.6220,W,1.30,232.26,060711,,,D*7C
$GPRMC,235503.000,A,3748.7087,N,12217.6231,W,1.48,231.42,060711,,,D*70
$GPRMC,235504.000,A,3748.7082,N,12217.6239,W,1.39,236.13,060711,,,D*7F
$GPRMC,235505.000,A,3748.7079,N,12217.6245,W,1.17,249.16,060711,,,D*70
$GPRMC,235506.000,A,3748.7074,N,12217.6253,W,1.03,238.23,060711,,,D*7C
$GPRMC,235507.000,A,3748.7070,N,12217.6260,W,1.05,240.36,060711,,,D*74
$GPRMC,235508.000,A,3748.7067,N,12217.6265,W,1.02,233.52,060711,,,D*79
$GPRMC,235509.000,A,3748.7063,N,12217.6269,W,0.97,242.62,060711,,,D*78
$GPRMC,235510.000,A,3748.7057,N,12217.6271,W,0.92,244.62,060711,,,D*7D
$GPRMC,235511.000,A,3748.7049,N,12217.6273,W,1.25,224.69,060711,,,D*71
$GPRMC,235512.000,A,3748.7043,N,12217.6273,W,1.03,219.34,060711,,,D*7A
$GPRMC,235513.000,A,3748.7032,N,12217.6273,W,1.46,215.65,060711,,,D*74
$GPRMC,235514.000,A,3748.7025,N,12217.6277,W,1.45,236.42,060711,,,D*76
$GPRMC,235515.000,A,3748.7020,N,12217.6282,W,1.39,255.32,060711,,,D*71
$GPRMC,235516.000,A,3748.7018,N,12217.6288,W,1.13,265.74,060711,,,D*7A
$GPRMC,235517.000,A,3748.7011,N,12217.6291,W,1.62,247.66,060711,,,D*7F
$GPRMC,235518.000,A,3748.7006,N,12217.6299,W,1.28,247.71,060711,,,D*76
$GPRMC,235519.000,A,3748.7001,N,12217.6302,W,1.04,237.10,060711,,,D*7D
$GPRMC,235520.000,A,3748.6996,N,12217.6308,W,1.00,233.99,060711,,,D*7A
$GPRMC,235521.000,A,3748.6991,N,12217.6315,W,1.03,254.36,060711,,,D*77
$GPRMC,235522.000,A,3748.6986,N,12217.6323,W,1.35,269.42,060711,,,D*7F
$GPRMC,235523.000,A,3748.6981,N,12217.6330,W,1.28,227.83,060711,,,D*70
$GPRMC,235524.000,A,3748.6972,N,12217.6338,W,2.04,217.40,060711,,,D*72
$GPRMC,235525.000,A,3748.6959,N,12217.6345,W,1.96,212.57,060711,,,D*7B
$GPRMC,235526.000,A,3748.6948,N,12217.6352,W,1.83,219.72,060711,,,D*76
$GPRMC,235527.000,A,3748.6939,N,12217.6361,W,1.67,219.56,060711,,,D*7D
$GPRMC,235528.000,A,3748.6929,N,12217.6368,W,1.28,218.79,060711,,,D*7D
$GPRMC,235529.000,A,3748.6921,N,12217.6374,W,1.59,224.02,060711,,,D*7C
$GPRMC,235530.000,A,3748.6914,N,12217.6377,W,1.18,237.75,060711,,,D*76
$GPRMC,235531.000,A,3748.6908,N,12217.6380,W,1.32,237.48,060711,,,D*74
$GPRMC,235532.000,A,3748.6901,N,12217.6381,W,1.18,222.39,060711,,,D*75
$GPRMC,235533.000,A,3748.6895,N,12217.6383,W,1.11,230.61,060711,,,D*7D
$GPRMC,235534.000,A,3748.6888,N,12217.6391,W,1.42,240.30,060711,,,D*70
$GPRMC,235535.000,A,3748.6879,N,12217.6395,W,2.07,212.42,060711,,,D*7B
$GPRMC,235536.000,A,3748.6864,N,12217.6397,W,2.04,205.60,060711,,,D*73
$GPRMC,235537.000,A,3748.6853,N,12217.6399,W,2.30,204.14,060711,,,D*7D
$GPRMC,235538.000,A,3748.6845,N,12217.6403,W,1.98,217.61,060711,,,D*70
$GPRMC,235539.000,A,3748.6833,N,12217.6413,W,2.36,206.58,060711,,,D*7C
$GPRMC,235540.000,A,3748.6827,N,12217.6419,W,1.82,220.41,060711,,,D*7D
$GPRMC,235541.000,A,3748.6821,N,12217.6424,W,1.93,216.82,060711,,,D*7E
$GPRMC,235542.000,A,3748.6813,N,12217.6427,W,1.84,220.45,060711,,,D*77
$GPRMC,235543.000,A,3748.6809,N,12217.6433,W,1.90,226.96,060711,,,D*75
$GPRMC,235544.000,A,3748.6802,N,12217.6444,W,2.00,224.62,060711,,,D*7A
$GPRMC,235545.000,A,3748.6798,N,12217.6453,W,1.95,225.83,060711,,,D*70
$GPRMC,235546.000,A,3748.6793,N,12217.6461,W,1.63,229.64,060711,,,D*75
$GPRMC,235547.000,A,3748.6784,N,12217.6466,W,1.60,226.96,060711,,,D*74
$GPRMC,235548.000,A,3748.6778,N,12217.6477,W,2.19,237.91,060711,,,D*72
$GPRMC,235549.000,A,3748.6776,N,12217.6484,W,1.60,249.29,060711,,,D*76
$GPRMC,235550.000,A,3748.6773,N,12217.6484,W,1.05,238.54,060711,,,D*74
$GPRMC,235551.000,A,3748.6767,N,12217.6485,W,0.97,229.12,060711,,,D*79
$GPRMC,235552.000,A,3748.6767,N,12217.6488,W,1.36,271.38,060711,,,D*78
$GPRMC,235553.000,A,3748.6766,N,12217.6493,W,1.14,281.15,060711,,,D*72
$GPRMC,235554.000,A,3748.6764,N,12217.6498,W,1.27,271.96,060711,,,D*78
$GPRMC,235555.000,A,3748.6763,N,12217.6505,W,1.28,267.51,060711,,,D*78
$GPRMC,235556.000,A,3748.6762,N,12217.6508,W,1.07,279.18,060711,,,D*78
$GPRMC,235557.000,A,3748.6758,N,12217.6511,W,0.79,240.00,060711,,,D*73
$GPRMC,235558.000,A,3748.6755,N,12217.6515,W,1.02,254.31,060711,,,D*7F
$GPRMC,235559.000,A,3748.6751,N,12217.6520,W,1.15,250.32,060711,,,D*7D
$GPRMC,235600.000,A,3748.6743,N,12217.6523,W,1.05,220.99,060711,,,D*75
$GPRMC,235601.000,A,3748.6731,N,12217.6528,W,1.74,212.20,060711,,,D*7F
$GPRMC,235602.000,A,3748.6724,N,12217.6537,W,1.85,222.12,060711,,,D*7A
$GPRMC,235603.000,A,3748.6719,N,12217.6546,W,2.58,251.21,060711,,,D*74
$GPRMC,235604.000,A,3748.6717,N,12217.6553,W,1.68,267.90,060711,,,D*76
$GPRMC,235605.000,A,3748.6711,N,12217.6559,W,0.87,263.12,060711,,,D*75
$GPRMC,235606.000,A,3748.6703,N,12217.6568,W,1.51,275.35,060711,,,D*7F
$GPRMC,235607.000,A,3748.6698,N,12217.6573,W,1.04,271.04,060711,,,D*71
$GPRMC,235608.000,A,3748.6689,N,12217.6576,W,1.00,265.78,060711,,,D*71
$GPRMC,235609.000,A,3748.6684,N,12217.6580,W,1.23,293.29,060711,,,D*78
$GPRMC,235610.000,A,3748.6679,N,12217.6581,W,1.38,237.18,060711,,,D*75
$GPRMC,235611.000,A,3748.6666,N,12217.6581,W,1.68,225.15,060711,,,D*71
$GPRMC,235612.000,A,3748.6658,N,12217.6582,W,1.34,242.51,060711,,,D*74
$GPRMC,235613.000,A,3748.6649,N,12217.6587,W,1.18,251.87,060711,,,D*77
$GPRMC,235614.000,A,3748.6640,N,12217.6590,W,1.35,223.87,060711,,,D*75
$GPRMC,235615.000,A,3748.6632,N,12217.6595,W,1.66,220.41,060711,,,D*7B
$GPRMC,235616.000,A,3748.6626,N,12217.6603,W,2.11,216.56,060711,,,D*71
$GPRMC,235617.000,A,3748.6618,N,12217.6610,W,2.24,208.44,060711,,,D*75
$GPRMC,235618.000,A,3748.6610,N,12217.6615,W,1.71,204.12,060711,,,D*7B
$GPRMC,235619.000,A,3748.6601,N,12217.6617,W,1.80,206.49,060711,,,D*7A
$GPRMC,235620.000,A,3748.6593,N,12217.6620,W,1.83,214.97,060711,,,D*7F
$GPRMC,235621.000,A,3748.6588,N,12217.6625,W,2.34,215.84,060711,,,D*7D
$GPRMC,235622.000,A,3748.6583,N,12217.6631,W,2.05,220.29,060711,,,D*73
$GPRMC,235623.000,A,3748.6576,N,12217.6637,W,1.60,225.87,060711,,,D*7F
$GPRMC,235624.000,A,3748.6571,N,12217.6644,W,1.76,220.00,060711,,,D*76
$GPRMC,235625.000,A,3748.6562,N,12217.6655,W,2.89,220.43,060711,,,D*71
$GPRMC,235626.000,A,3748.6552,N,12217.6664,W,2.56,204.40,060711,,,D*74
$GPRMC,235627.000,A,3748.6544,N,12217.6670,W,2.29,198.88,060711,,,D*7D
$GPRMC,235628.000,A,3748.6536,N,12217.6674,W,2.67,195.46,060711,,,D*76
$GPRMC,235629.000,A,3748.6528,N,12217.6681,W,2.04,210.56,060711,,,D*78
$GPRMC,235630.000,A,3748.6518,N,12217.6690,W,2.52,213.96,060711,,,D*7F
$GPRMC,235631.000,A,3748.6511,N,12217.6698,W,2.36,214.09,060711,,,D*7C
$GPRMC,235632.000,A,3748.6500,N,12217.6700,W,2.05,208.39,060711,,,D*71
$GPRMC,235633.000,A,3748.6494,N,12217.6704,W,1.89,221.86,060711,,,D*70
$GPRMC,235634.000,A,3748.6486,N,12217.6708,W,2.49,220.39,060711,,,D*72
$GPRMC,235635.000,A,3748.6473,N,12217.6715,W,2.62,206.09,060711,,,D*7B
$GPRMC,235636.000,A,3748.6461,N,12217.6719,W,2.49,210.82,060711,,,D*7A
$GPRMC,235637.000,A,3748.6453,N,12217.6723,W,2.26,215.69,060711,,,D*7A
$GPRMC,235638.000,A,3748.6445,N,12217.6728,W,2.10,216.59,060711,,,D*7C
$GPRMC,235639.000,A,3748.6438,N,12217.6734,W,1.66,221.91,060711,,,D*78
