$ADVER,3080,2.3
$GPRMC,203134.137,A,3748.8002,N,12217.8610,W,0.08,133.08,271211,,,A*73
$GPRMC,203135.137,A,3748.8002,N,12217.8622,W,0.06,93.38,271211,,,A*45
$GPRMC,203136.000,A,3748.7994,N,12217.8600,W,0.24,349.81,271211,,,A*7C
$GPRMC,203137.000,A,3748.7989,N,12217.8621,W,1.97,261.61,271211,,,A*7E
$GPRMC,203138.000,A,3748.7991,N,12217.8610,W,0.14,147.47,271211,,,A*73
$GPRMC,203139.000,A,3748.7992,N,12217.8602,W,0.08,113.14,271211,,,A*78
$GPRMC,203140.000,A,3748.7991,N,12217.8601,W,0.06,183.04,271211,,,A*70
$GPRMC,203141.000,A,3748.7990,N,12217.8607,W,0.32,202.46,271211,,,A*7D
$GPRMC,203142.000,A,3748.7993,N,12217.8605,W,0.70,57.08,271211,,,A*41
$GPRMC,203143.000,A,3748.7993,N,12217.8606,W,0.04,80.94,271211,,,A*4F
$GPRMC,203144.000,A,3748.7994,N,12217.8607,W,0.16,20.65,271211,,,A*49
$GPRMC,203145.000,A,3748.7995,N,12217.8609,W,0.20,148.47,271211,,,A*7D
$GPRMC,203146.000,A,3748.7994,N,12217.8611,W,0.14,133.15,271211,,,A*7A
$GPRMC,203147.000,A,3748.7995,N,12217.8613,W,0.04,184.55,271211,,,A*71
$GPRMC,203148.000,A,3748.7995,N,12217.8615,W,0.23,306.63,271211,,,A*70
$GPRMC,203149.000,A,3748.7995,N,12217.8615,W,0.11,316.49,271211,,,A*79
$GPRMC,203150.000,A,3748.7994,N,12217.8613,W,0.53,122.72,271211,,,A*7D
$GPRMC,203151.000,A,3748.7993,N,12217.8612,W,0.18,15.29,271211,,,A*4E
$GPRMC,203152.000,A,3748.7994,N,12217.8613,W,0.29,276.65,271211,,,A*76
$GPRMC,203153.000,A,3748.7993,N,12217.8611,W,0.44,104.52,271211,,,A*7B
$GPRMC,203154.000,A,3748.7993,N,12217.8613,W,0.42,261.01,271211,,,A*7E
$GPRMC,203155.000,A,3748.7996,N,12217.8613,W,0.10,283.01,271211,,,A*71
$GPRMC,203156.000,A,3748.7992,N,12217.8616,W,0.95,147.68,271211,,,A*7A
$GPRMC,203157.000,A,3748.7991,N,12217.8612,W,1.22,109.83,271211,,,A*7E
$GPRMC,203158.000,A,3748.7991,N,12217.8611,W,0.30,33.64,271211,,,A*41
$GPRMC,203159.000,A,3748.7993,N,12217.8610,W,0.34,39.63,271211,,,A*4A
$GPRMC,203200.000,A,3748.7994,N,12217.8607,W,0.13,31.45,271211,,,A*4D
$GPRMC,203201.000,A,3748.7993,N,12217.8603,W,0.53,144.30,271211,,,A*7A
$GPRMC,203202.000,A,3748.7989,N,12217.8604,W,0.89,238.48,271211,,,A*75
$GPRMC,203203.000,A,3748.7985,N,12217.8606,W,0.39,207.46,271211,,,A*73
$GPRMC,203204.000,A,3748.7982,N,12217.8606,W,0.11,77.87,271211,,,A*41
$GPRMC,203205.000,A,3748.7979,N,12217.8605,W,0.12,162.86,271211,,,A*70
$GPRMC,203206.000,A,3748.7977,N,12217.8605,W,0.09,84.39,271211,,,A*4A
$GPRMC,203207.000,A,3748.7974,N,12217.8603,W,0.07,99.10,271211,,,A*47
$GPRMC,203208.000,A,3748.7972,N,12217.8602,W,0.09,174.87,271211,,,A*7D
$GPRMC,203209.000,A,3748.7971,N,12217.8602,W,0.07,144.37,271211,,,A*79
$GPRMC,203210.000,A,3748.7971,N,12217.8602,W,0.04,151.94,271211,,,A*7F
$GPRMC,203211.000,A,3748.7971,N,12217.8601,W,0.16,83.16,271211,,,A*4A
$GPRMC,203212.000,A,3748.7971,N,12217.8600,W,0.30,57.16,271211,,,A*45
$GPRMC,203213.000,A,3748.7971,N,12217.8598,W,0.21,69.97,271211,,,A*42
$GPRMC,203214.000,A,3748.7971,N,12217.8597,W,0.13,82.44,271211,,,A*40
$GPRMC,203215.000,A,3748.7971,N,12217.8595,W,0.08,68.52,271211,,,A*4A
$GPRMC,203216.000,A,3748.7970,N,12217.8594,W,0.15,113.51,271211,,,A*7B
$GPRMC,203217.000,A,3748.7971,N,12217.8594,W,0.13,359.27,271211,,,A*70
$GPRMC,203218.000,A,3748.7971,N,12217.8594,W,0.08,108.80,271211,,,A*7E
$GPRMC,203219.000,A,3748.7971,N,12217.8593,W,0.21,176.41,271211,,,A*77
$GPRMC,203220.000,A,3748.7972,N,12217.8593,W,0.45,327.34,271211,,,A*78
$GPRMC,203221.000,A,3748.7973,N,12217.8592,W,0.28,78.41,271211,,,A*49
$GPRMC,203222.000,A,3748.7974,N,12217.8591,W,0.44,59.71,271211,,,A*44
$GPRMC,203223.000,A,3748.7975,N,12217.8591,W,0.07,56.13,271211,,,A*48
$GPRMC,203224.000,A,3748.7976,N,12217.8592,W,0.19,95.32,271211,,,A*4C
$GPRMC,203225.000,A,3748.7976,N,12217.8592,W,0.17,100.54,271211,,,A*7E
$GPRMC,203226.000,A,3748.7976,N,12217.8591,W,0.12,75.99,271211,,,A*49
$GPRMC,203227.000,A,3748.7976,N,12217.8592,W,0.03,55.31,271211,,,A*4B
$GPRMC,203228.000,A,3748.7976,N,12217.8592,W,0.22,115.18,271211,,,A*79
$GPRMC,203229.000,A,3748.7974,N,12217.8594,W,0.10,156.86,271211,,,A*7D
$GPRMC,203230.000,A,3748.7973,N,12217.8596,W,0.06,181.90,271211,,,A*7A
$GPRMC,203231.000,A,3748.7973,N,12217.8598,W,0.14,112.73,271211,,,A*71
$GPRMC,203232.000,A,3748.7972,N,12217.8596,W,0.02,335.86,271211,,,A*77
$GPRMC,203233.000,A,3748.7972,N,12217.8595,W,0.05,233.15,271211,,,A*7F
$GPRMC,203234.000,A,3748.7972,N,12217.8595,W,0.08,333.10,271211,,,A*71
$GPRMC,203235.000,A,3748.7972,N,12217.8594,W,0.07,53.44,271211,,,A*4A
$GPRMC,203236.000,A,3748.7972,N,12217.8592,W,0.22,105.75,271211,,,A*78
$GPRMC,203237.000,A,3748.7972,N,12217.8591,W,0.26,99.68,271211,,,A*46
$GPRMC,203238.000,A,3748.7972,N,12217.8590,W,0.19,180.67,271211,,,A*72
$GPRMC,203239.000,A,3748.7971,N,12217.8589,W,0.23,117.75,271211,,,A*7C
$GPRMC,203240.000,A,3748.7971,N,12217.8588,W,0.26,144.11,271211,,,A*72
$GPRMC,203241.000,A,3748.7972,N,12217.8587,W,0.61,103.81,271211,,,A*76
$GPRMC,203242.000,A,3748.7972,N,12217.8584,W,1.06,127.98,271211,,,A*78
$GPRMC,203243.000,A,3748.7970,N,12217.8580,W,1.68,130.75,271211,,,A*72
$GPRMC,203244.000,A,3748.7968,N,12217.8576,W,1.87,128.32,271211,,,A*7E
$GPRMC,203245.000,A,3748.7965,N,12217.8570,W,2.25,126.35,271211,,,A*76
$GPRMC,203246.000,A,3748.7962,N,12217.8564,W,2.30,122.65,271211,,,A*72
$GPRMC,203247.000,A,3748.7959,N,12217.8558,W,2.17,117.48,271211,,,A*78
$GPRMC,203248.000,A,3748.7957,N,12217.8552,W,2.29,114.22,271211,,,A*71
$GPRMC,203249.000,A,3748.7955,N,12217.8545,W,2.36,110.94,271211,,,A*73
$GPRMC,203250.000,A,3748.7952,N,12217.8538,W,2.67,119.76,271211,,,A*77
$GPRMC,203251.000,A,3748.7949,N,12217.8531,W,2.51,119.17,271211,,,A*77
$GPRMC,203252.000,A,3748.7946,N,12217.8524,W,2.63,119.60,271211,,,A*7E
$GPRMC,203253.000,A,3748.7942,N,12217.8517,W,2.52,123.98,271211,,,A*77
$GPRMC,203254.000,A,3748.7938,N,12217.8511,W,2.34,128.53,271211,,,A*77
$GPRMC,203255.000,A,3748.7935,N,12217.8506,W,2.46,125.61,271211,,,A*74
$GPRMC,203256.000,A,3748.7932,N,12217.8499,W,2.58,113.56,271211,,,A*79
$GPRMC,203257.000,A,3748.7930,N,12217.8492,W,2.44,107.76,271211,,,A*7B
$GPRMC,203258.000,A,3748.7928,N,12217.8484,W,2.44,110.50,271211,,,A*78
$GPRMC,203259.000,A,3748.7926,N,12217.8476,W,2.47,106.35,271211,,,A*7D
$GPRMC,203300.000,A,3748.7923,N,12217.8467,W,2.55,108.59,271211,,,A*72
$GPRMC,203301.000,A,3748.7920,N,12217.8459,W,2.24,111.28,271211,,,A*75
$GPRMC,203302.000,A,3748.7918,N,12217.8452,W,1.86,98.04,271211,,,A*43
$GPRMC,203303.000,A,3748.7916,N,12217.8446,W,1.54,99.75,271211,,,A*41
$GPRMC,203304.000,A,3748.7915,N,12217.8441,W,1.53,103.13,271211,,,A*77
$GPRMC,203305.000,A,3748.7910,N,12217.8437,W,1.77,116.07,271211,,,A*75
$GPRMC,203306.000,A,3748.7906,N,12217.8431,W,2.06,115.91,271211,,,A*7E
$GPRMC,203307.000,A,3748.7903,N,12217.8423,W,2.23,110.01,271211,,,A*72
$GPRMC,203308.000,A,3748.7900,N,12217.8415,W,2.29,113.80,271211,,,A*7B
$GPRMC,203309.000,A,3748.7897,N,12217.8406,W,2.47,114.18,271211,,,A*79
$GPRMC,203310.000,A,3748.7893,N,12217.8397,W,2.46,113.79,271211,,,A*7B
$GPRMC,203311.000,A,3748.7890,N,12217.8389,W,2.12,112.56,271211,,,A*7B
$GPRMC,203312.000,A,3748.7886,N,12217.8381,W,2.02,118.00,271211,,,A*7F
$GPRMC,203313.000,A,3748.7884,N,12217.8374,W,2.08,109.20,271211,,,A*7E
$GPRMC,203314.000,A,3748.7881,N,12217.8367,W,2.16,118.65,271211,,,A*70
$GPRMC,203315.000,A,3748.7876,N,12217.8359,W,2.36,124.54,271211,,,A*7B
$GPRMC,203316.000,A,3748.7873,N,12217.8351,W,2.16,109.93,271211,,,A*73
$GPRMC,203317.000,A,3748.7870,N,12217.8343,W,2.22,108.29,271211,,,A*75
$GPRMC,203318.000,A,3748.7867,N,12217.8334,W,2.41,115.02,271211,,,A*7C
$GPRMC,203319.000,A,3748.7863,N,12217.8326,W,2.35,113.59,271211,,,A*71
$GPRMC,203320.000,A,3748.7860,N,12217.8319,W,2.28,114.83,271211,,,D*7D
$GPRMC,203321.000,A,3748.7856,N,12217.8311,W,2.52,116.17,271211,,,D*73
$GPRMC,203322.000,A,3748.7853,N,12217.8304,W,2.33,110.47,271211,,,D*75
$GPRMC,203323.000,A,3748.7850,N,12217.8296,W,2.20,109.79,271211,,,D*7A
$GPRMC,203324.000,A,3748.7847,N,12217.8288,W,2.27,106.88,271211,,,D*72
$GPRMC,203325.000,A,3748.7844,N,12217.8279,W,2.12,105.33,271211,,,D*7B
$GPRMC,203326.000,A,3748.7842,N,12217.8271,W,1.62,120.47,271211,,,D*76
$GPRMC,203327.000,A,3748.7840,N,12217.8264,W,2.20,111.37,271211,,,D*71
$GPRMC,203328.000,A,3748.7836,N,12217.8256,W,2.05,123.39,271211,,,D*76
$GPRMC,203329.000,A,3748.7831,N,12217.8250,W,2.33,122.81,271211,,,D*71
$GPRMC,203330.000,A,3748.7828,N,12217.8242,W,2.23,109.80,271211,,,D*7B
$GPRMC,203331.000,A,3748.7825,N,12217.8234,W,2.38,103.33,271211,,,D*7E
$GPRMC,203332.000,A,3748.7823,N,12217.8227,W,2.40,103.59,271211,,,D*7A
$GPRMC,203333.000,A,3748.7820,N,12217.8220,W,2.14,112.31,271211,,,D*70
$GPRMC,203334.000,A,3748.7817,N,12217.8213,W,2.44,115.68,271211,,,D*7D
$GPRMC,203335.000,A,3748.7814,N,12217.8206,W,2.34,100.00,271211,,,D*76
$GPRMC,203336.000,A,3748.7811,N,12217.8199,W,2.03,114.10,271211,,,D*75
$GPRMC,203337.000,A,3748.7807,N,12217.8192,W,2.44,121.02,271211,,,D*7E
$GPRMC,203338.000,A,3748.7804,N,12217.8184,W,2.42,110.11,271211,,,D*73
$GPRMC,203339.000,A,3748.7802,N,12217.8176,W,2.46,106.16,271211,,,D*7D
$GPRMC,203340.000,A,3748.7799,N,12217.8168,W,2.34,109.92,271211,,,D*77
$GPRMC,203341.000,A,3748.7796,N,12217.8160,W,2.43,116.58,271211,,,D*79
$GPRMC,203342.000,A,3748.7793,N,12217.8152,W,2.45,113.02,271211,,,D*72
$GPRMC,203343.000,A,3748.7789,N,12217.8145,W,2.52,122.04,271211,,,D*7C
$GPRMC,203344.000,A,3748.7785,N,12217.8137,W,2.58,124.22,271211,,,D*7A
$GPRMC,203345.000,A,3748.7782,N,12217.8129,W,2.36,116.96,271211,,,D*75
$GPRMC,203346.000,A,3748.7779,N,12217.8122,W,2.26,114.74,271211,,,D*76
$GPRMC,203347.000,A,3748.7776,N,12217.8115,W,2.05,109.45,271211,,,D*73
$GPRMC,203348.000,A,3748.7774,N,12217.8108,W,2.26,111.20,271211,,,D*79
$GPRMC,203349.000,A,3748.7771,N,12217.8101,W,2.20,105.97,271211,,,D*7B
$GPRMC,203350.000,A,3748.7769,N,12217.8094,W,2.23,107.67,271211,,,D*79
$GPRMC,203351.000,A,3748.7766,N,12217.8087,W,2.22,108.39,271211,,,D*70
$GPRMC,203352.000,A,3748.7763,N,12217.8080,W,2.07,118.32,271211,,,D*7C
$GPRMC,203353.000,A,3748.7759,N,12217.8075,W,2.12,123.24,271211,,,D*75
$GPRMC,203354.000,A,3748.7756,N,12217.8069,W,2.08,116.50,271211,,,D*7E
$GPRMC,203355.000,A,3748.7753,N,12217.8062,W,1.95,107.69,271211,,,D*7C
$GPRMC,203356.000,A,3748.7751,N,12217.8056,W,2.18,104.68,271211,,,D*7E
$GPRMC,203357.000,A,3748.7748,N,12217.8049,W,1.99,113.84,271211,,,D*77
$GPRMC,203358.000,A,3748.7745,N,12217.8043,W,2.10,112.64,271211,,,D*72
$GPRMC,203359.000,A,3748.7742,N,12217.8036,W,2.11,110.96,271211,,,D*78
$GPRMC,203400.000,A,3748.7740,N,12217.8030,W,2.09,109.35,271211,,,D*7F
$GPRMC,203401.000,A,3748.7737,N,12217.8024,W,1.98,116.38,271211,,,D*73
$GPRMC,203402.000,A,3748.7734,N,12217.8017,W,2.24,112.52,271211,,,D*7F
$GPRMC,203403.000,A,3748.7731,N,12217.8010,W,2.17,103.71,271211,,,D*7D
$GPRMC,203404.000,A,3748.7729,N,12217.8004,W,1.90,114.32,271211,,,D*7B
$GPRMC,203405.000,A,3748.7726,N,12217.7998,W,1.94,114.26,271211,,,D*77
$GPRMC,203406.000,A,3748.7724,N,12217.7993,W,1.74,108.09,271211,,,D*73
$GPRMC,203407.000,A,3748.7721,N,12217.7987,W,1.74,116.56,271211,,,D*77
$GPRMC,203408.000,A,3748.7718,N,12217.7982,W,1.86,110.41,271211,,,D*7A
$GPRMC,203409.000,A,3748.7716,N,12217.7976,W,1.87,102.98,271211,,,D*78
$GPRMC,203410.000,A,3748.7714,N,12217.7970,W,1.85,102.32,271211,,,D*76
$GPRMC,203411.000,A,3748.7712,N,12217.7964,W,2.00,113.82,271211,,,D*71
$GPRMC,203412.000,A,3748.7708,N,12217.7958,W,2.28,119.81,271211,,,D*75
$GPRMC,203413.000,A,3748.7704,N,12217.7951,W,2.41,116.86,271211,,,D*76
$GPRMC,203414.000,A,3748.7700,N,12217.7943,W,2.53,106.77,271211,,,D*7A
$GPRMC,203415.000,A,3748.7697,N,12217.7936,W,2.27,110.46,271211,,,D*70
$GPRMC,203416.000,A,3748.7694,N,12217.7928,W,2.67,117.26,271211,,,D*7A
$GPRMC,203417.000,A,3748.7690,N,12217.7920,W,2.44,113.63,271211,,,D*73
$GPRMC,203418.000,A,3748.7687,N,12217.7913,W,2.31,110.69,271211,,,D*71
$GPRMC,203419.000,A,3748.7684,N,12217.7906,W,2.07,113.70,271211,,,D*79
$GPRMC,203420.000,A,3748.7680,N,12217.7900,W,2.23,128.50,271211,,,D*7D
$GPRMC,203421.000,A,3748.7676,N,12217.7893,W,2.40,123.61,271211,,,D*72
$GPRMC,203422.000,A,3748.7672,N,12217.7887,W,2.24,121.45,271211,,,D*76
$GPRMC,203423.000,A,3748.7665,N,12217.7882,W,2.37,119.44,271211,,,D*7C
$GPRMC,203424.000,A,3748.7661,N,12217.7874,W,2.46,115.57,271211,,,D*7E
$GPRMC,203425.000,A,3748.7657,N,12217.7867,W,2.58,111.00,271211,,,D*71
$GPRMC,203426.000,A,3748.7653,N,12217.7857,W,2.77,103.93,271211,,,D*71
$GPRMC,203427.000,A,3748.7648,N,12217.7850,W,2.40,99.88,271211,,,D*41
$GPRMC,203428.000,A,3748.7643,N,12217.7842,W,2.49,107.80,271211,,,D*71
$GPRMC,203429.000,A,3748.7640,N,12217.7835,W,2.55,110.46,271211,,,D*72
$GPRMC,203430.000,A,3748.7637,N,12217.7826,W,2.42,102.07,271211,,,D*78
$GPRMC,203431.000,A,3748.7631,N,12217.7821,W,2.42,108.01,271211,,,D*74
$GPRMC,203432.000,A,3748.7627,N,12217.7814,W,2.48,117.33,271211,,,D*73
$GPRMC,203433.000,A,3748.7623,N,12217.7806,W,2.40,112.83,271211,,,D*73
$GPRMC,203434.000,A,3748.7618,N,12217.7797,W,2.40,111.57,271211,,,D*71
$GPRMC,203435.000,A,3748.7614,N,12217.7790,W,2.36,120.06,271211,,,D*7C
$GPRMC,203436.000,A,3748.7610,N,12217.7782,W,2.37,110.84,271211,,,D*70
$GPRMC,203437.000,A,3748.7606,N,12217.7774,W,2.43,107.86,271211,,,D*78
$GPRMC,203438.000,A,3748.7601,N,12217.7766,W,2.41,121.14,271211,,,D*7E
$GPRMC,203439.000,A,3748.7597,N,12217.7759,W,2.39,123.85,271211,,,D*7A
$GPRMC,203440.000,A,3748.7591,N,12217.7752,W,2.65,111.08,271211,,,D*74
$GPRMC,203441.000,A,3748.7587,N,12217.7745,W,2.30,112.48,271211,,,D*73
$GPRMC,203442.000,A,3748.7581,N,12217.7739,W,2.37,118.91,271211,,,D*74
$GPRMC,203443.000,A,3748.7577,N,12217.7732,W,2.66,118.94,271211,,,D*76
$GPRMC,203444.000,A,3748.7571,N,12217.7724,W,2.56,119.49,271211,,,D*72
$GPRMC,203445.000,A,3748.7567,N,12217.7716,W,2.57,107.88,271211,,,D*76
$GPRMC,203446.000,A,3748.7563,N,12217.7708,W,2.33,105.05,271211,,,D*7B
$GPRMC,203447.000,A,3748.7559,N,12217.7700,W,2.41,108.27,271211,,,D*73
$GPRMC,203448.000,A,3748.7554,N,12217.7692,W,2.40,108.34,271211,,,D*78
$GPRMC,203449.000,A,3748.7549,N,12217.7684,W,2.36,108.72,271211,,,D*71
$GPRMC,203450.000,A,3748.7544,N,12217.7677,W,2.27,114.37,271211,,,D*74
$GPRMC,203451.000,A,3748.7538,N,12217.7671,W,2.27,114.27,271211,,,D*79
$GPRMC,203452.000,A,3748.7529,N,12217.7665,W,2.42,117.68,271211,,,D*74
$GPRMC,203453.000,A,3748.7525,N,12217.7658,W,2.44,118.91,271211,,,D*78
$GPRMC,203454.000,A,3748.7520,N,12217.7651,W,2.43,112.76,271211,,,D*77
$GPRMC,203455.000,A,3748.7513,N,12217.7644,W,2.41,107.75,271211,,,D*77
$GPRMC,203456.000,A,3748.7510,N,12217.7637,W,2.42,110.73,271211,,,D*70
$GPRMC,203457.000,A,3748.7504,N,12217.7630,W,2.71,119.27,271211,,,D*7B
$GPRMC,203458.000,A,3748.7497,N,12217.7626,W,2.43,119.54,271211,,,D*7D
$GPRMC,203459.000,A,3748.7489,N,12217.7620,W,2.53,110.57,271211,,,D*7E
$GPRMC,203500.000,A,3748.7483,N,12217.7612,W,2.43,112.81,271211,,,D*70
$GPRMC,203501.000,A,3748.7478,N,12217.7605,W,2.31,100.43,271211,,,D*7B
$GPRMC,203502.000,A,3748.7473,N,12217.7598,W,2.34,105.48,271211,,,D*7F
$GPRMC,203503.000,A,3748.7470,N,12217.7591,W,2.28,100.11,271211,,,D*70
$GPRMC,203504.000,A,3748.7469,N,12217.7583,W,2.29,107.81,271211,,,D*73
$GPRMC,203505.000,A,3748.7468,N,12217.7575,W,2.10,113.98,271211,,,D*7D
$GPRMC,203506.000,A,3748.7467,N,12217.7567,W,2.36,112.69,271211,,,D*79
$GPRMC,203507.000,A,3748.7465,N,12217.7558,W,2.41,111.27,271211,,,D*7F
$GPRMC,203508.000,A,3748.7464,N,12217.7549,W,2.39,109.05,271211,,,D*77
$GPRMC,203509.000,A,3748.7462,N,12217.7541,W,2.00,108.84,271211,,,D*7A
$GPRMC,203510.000,A,3748.7461,N,12217.7533,W,2.17,114.49,271211,,,D*7E
$GPRMC,203511.000,A,3748.7459,N,12217.7526,W,2.06,114.56,271211,,,D*7E
$GPRMC,203512.000,A,3748.7456,N,12217.7518,W,1.91,102.84,271211,,,D*7A
$GPRMC,203513.000,A,3748.7455,N,12217.7511,W,1.65,100.01,271211,,,D*75
$GPRMC,203514.000,A,3748.7453,N,12217.7504,W,1.82,106.81,271211,,,D*77
$GPRMC,203515.000,A,3748.7451,N,12217.7497,W,1.96,112.65,271211,,,D*75
$GPRMC,203516.000,A,3748.7448,N,12217.7490,W,1.82,111.14,271211,,,D*79
$GPRMC,203517.000,A,3748.7443,N,12217.7485,W,1.83,116.17,271211,,,D*72
$GPRMC,203518.000,A,3748.7439,N,12217.7478,W,2.39,130.27,271211,,,D*77
$GPRMC,203519.000,A,3748.7434,N,12217.7472,W,1.89,117.78,271211,,,D*76
$GPRMC,203520.000,A,3748.7431,N,12217.7465,W,1.94,107.09,271211,,,D*74
$GPRMC,203521.000,A,3748.7426,N,12217.7456,W,2.25,118.18,271211,,,D*74
$GPRMC,203522.000,A,3748.7421,N,12217.7446,W,2.20,117.46,271211,,,D*70
$GPRMC,203523.000,A,3748.7418,N,12217.7440,W,1.49,100.72,271211,,,D*70
$GPRMC,203524.000,A,3748.7416,N,12217.7432,W,2.15,108.19,271211,,,D*73
$GPRMC,203525.000,A,3748.7414,N,12217.7425,W,1.84,97.09,271211,,,D*4B
$GPRMC,203526.000,A,3748.7413,N,12217.7419,W,1.57,77.94,271211,,,D*44
$GPRMC,203527.000,A,3748.7412,N,12217.7413,W,1.50,97.22,271211,,,D*4A
$GPRMC,203528.000,A,3748.7409,N,12217.7406,W,1.85,109.10,271211,,,D*74
$GPRMC,203529.000,A,3748.7405,N,12217.7398,W,2.34,111.01,271211,,,D*79
$GPRMC,203530.000,A,3748.7402,N,12217.7389,W,2.41,102.52,271211,,,D*70
$GPRMC,203531.000,A,3748.7402,N,12217.7383,W,1.87,89.08,271211,,,D*4F
$GPRMC,203532.000,A,3748.7402,N,12217.7377,W,1.51,91.33,271211,,,D*4D
$GPRMC,203533.000,A,3748.7401,N,12217.7370,W,1.87,113.57,271211,,,D*7A
$GPRMC,203534.000,A,3748.7398,N,12217.7359,W,1.76,112.90,271211,,,D*75
$GPRMC,203535.000,A,3748.7395,N,12217.7351,W,1.51,113.87,271211,,,D*73
$GPRMC,203536.000,A,3748.7392,N,12217.7343,W,2.11,119.49,271211,,,D*7B
$GPRMC,203537.000,A,3748.7388,N,12217.7335,W,1.93,124.62,271211,,,D*7E
$GPRMC,203538.000,A,3748.7384,N,12217.7327,W,2.03,110.52,271211,,,D*70
$GPRMC,203539.000,A,3748.7381,N,12217.7320,W,2.03,111.66,271211,,,D*75
$GPRMC,203540.000,A,3748.7378,N,12217.7313,W,1.91,120.21,271211,,,D*74
$GPRMC,203541.000,A,3748.7372,N,12217.7306,W,2.35,118.82,271211,,,D*74
$GPRMC,203542.000,A,3748.7367,N,12217.7299,W,2.17,116.90,271211,,,D*79
$GPRMC,203543.000,A,3748.7363,N,12217.7291,W,2.08,114.42,271211,,,D*77
$GPRMC,203544.000,A,3748.7359,N,12217.7284,W,2.15,116.15,271211,,,D*71
$GPRMC,203545.000,A,3748.7356,N,12217.7277,W,2.13,118.60,271211,,,D*79
$GPRMC,203546.000,A,3748.7352,N,12217.7269,W,2.20,114.98,271211,,,D*7A
$GPRMC,203547.000,A,3748.7346,N,12217.7264,W,2.26,111.25,271211,,,D*76
$GPRMC,203548.000,A,3748.7339,N,12217.7255,W,2.30,113.34,271211,,,D*76
$GPRMC,203549.000,A,3748.7333,N,12217.7243,W,2.31,108.96,271211,,,D*79
$GPRMC,203550.000,A,3748.7329,N,12217.7235,W,2.47,115.87,271211,,,D*76
$GPRMC,203551.000,A,3748.7325,N,12217.7227,W,2.36,121.81,271211,,,D*7F
$GPRMC,203552.000,A,3748.7321,N,12217.7218,W,2.44,118.35,271211,,,D*74
$GPRMC,203553.000,A,3748.7317,N,12217.7210,W,2.62,114.41,271211,,,D*73
$GPRMC,203554.000,A,3748.7314,N,12217.7201,W,2.50,106.92,271211,,,D*7B
$GPRMC,203555.000,A,3748.7312,N,12217.7192,W,2.54,108.09,271211,,,D*7D
$GPRMC,203556.000,A,3748.7309,N,12217.7183,W,2.59,106.09,271211,,,D*77
$GPRMC,203557.000,A,3748.7307,N,12217.7174,W,2.28,98.64,271211,,,D*4B
$GPRMC,203558.000,A,3748.7308,N,12217.7165,W,2.05,66.86,271211,,,D*49
$GPRMC,203559.000,A,3748.7312,N,12217.7158,W,2.22,41.55,271211,,,D*43
$GPRMC,203600.000,A,3748.7319,N,12217.7149,W,2.31,27.39,271211,,,D*4F
$GPRMC,203601.000,A,3748.7326,N,12217.7142,W,2.51,25.40,271211,,,D*43
$GPRMC,203602.000,A,3748.7331,N,12217.7138,W,2.49,28.31,271211,,,D*49
$GPRMC,203603.000,A,3748.7337,N,12217.7134,W,2.42,23.78,271211,,,D*4F
$GPRMC,203604.000,A,3748.7343,N,12217.7131,W,2.42,18.19,271211,,,D*41
$GPRMC,203605.000,A,3748.7349,N,12217.7129,W,2.45,13.49,271211,,,D*4A
$GPRMC,203606.000,A,3748.7356,N,12217.7125,W,2.66,18.58,271211,,,D*41
$GPRMC,203607.000,A,3748.7363,N,12217.7119,W,2.52,20.28,271211,,,D*42
$GPRMC,203608.000,A,3748.7368,N,12217.7112,W,2.43,31.48,271211,,,D*4B
$GPRMC,203609.000,A,3748.7372,N,12217.7106,W,2.27,27.19,271211,,,D*45
$GPRMC,203610.000,A,3748.7377,N,12217.7102,W,2.19,33.18,271211,,,D*45
$GPRMC,203611.000,A,3748.7380,N,12217.7093,W,2.43,42.15,271211,,,D*41
$GPRMC,203612.000,A,3748.7387,N,12217.7084,W,2.20,33.59,271211,,,D*48
$GPRMC,203613.000,A,3748.7392,N,12217.7080,W,2.29,36.73,271211,,,D*4D
$GPRMC,203614.000,A,3748.7399,N,12217.7075,W,2.51,26.69,271211,,,D*4E
$GPRMC,203615.000,A,3748.7406,N,12217.7071,W,2.27,21.05,271211,,,D*46
$GPRMC,203616.000,A,3748.7412,N,12217.7068,W,2.37,20.67,271211,,,D*4C
$GPRMC,203617.000,A,3748.7419,N,12217.7062,W,2.22,17.29,271211,,,D*46
$GPRMC,203618.000,A,3748.7425,N,12217.7060,W,2.40,9.55,271211,,,D*74
$GPRMC,203619.000,A,3748.7433,N,12217.7057,W,2.25,9.28,271211,,,D*7F
$GPRMC,203620.000,A,3748.7441,N,12217.7054,W,2.52,27.01,271211,,,D*44
$GPRMC,203621.000,A,3748.7445,N,12217.7047,W,2.34,30.59,271211,,,D*48
$GPRMC,203622.000,A,3748.7449,N,12217.7042,W,2.37,32.62,271211,,,D*4B
$GPRMC,203623.000,A,3748.7454,N,12217.7038,W,2.35,15.83,271211,,,D*43
$GPRMC,203624.000,A,3748.7458,N,12217.7032,W,2.27,26.27,271211,,,D*4F
$GPRMC,203625.000,A,3748.7466,N,12217.7025,W,2.16,24.64,271211,,,D*42
$GPRMC,203626.000,A,3748.7472,N,12217.7019,W,2.28,23.91,271211,,,D*4B
$GPRMC,203627.000,A,3748.7479,N,12217.7012,W,2.28,17.62,271211,,,D*41
$GPRMC,203628.000,A,3748.7486,N,12217.7006,W,2.21,12.71,271211,,,D*45
$GPRMC,203629.000,A,3748.7493,N,12217.7004,W,2.41,0.90,271211,,,D*78
$GPRMC,203630.000,A,3748.7500,N,12217.7001,W,2.28,9.57,271211,,,D*73
$GPRMC,203631.000,A,3748.7504,N,12217.6997,W,1.94,17.90,271211,,,D*41
$GPRMC,203632.000,A,3748.7508,N,12217.6995,W,1.97,20.97,271211,,,D*4C
$GPRMC,203633.000,A,3748.7512,N,12217.6991,W,2.23,22.97,271211,,,D*4C
$GPRMC,203634.000,A,3748.7517,N,12217.6983,W,2.20,16.21,271211,,,D*44
$GPRMC,203635.000,A,3748.7521,N,12217.6978,W,1.75,22.59,271211,,,D*4F
$GPRMC,203636.000,A,3748.7525,N,12217.6973,W,1.87,24.29,271211,,,D*4F
$GPRMC,203637.000,A,3748.7529,N,12217.6969,W,1.96,22.48,271211,,,D*48
$GPRMC,203638.000,A,3748.7534,N,12217.6962,W,2.02,14.88,271211,,,D*47
$GPRMC,203639.000,A,3748.7540,N,12217.6959,W,2.04,11.91,271211,,,D*46
$GPRMC,203640.000,A,3748.7544,N,12217.6955,W,2.25,23.09,271211,,,D*43
$GPRMC,203641.000,A,3748.7549,N,12217.6949,W,2.30,31.97,271211,,,D*42
$GPRMC,203642.000,A,3748.7556,N,12217.6941,W,2.41,18.23,271211,,,D*45
$GPRMC,203643.000,A,3748.7561,N,12217.6937,W,2.24,22.27,271211,,,D*4F
$GPRMC,203644.000,A,3748.7566,N,12217.6933,W,2.17,17.83,271211,,,D*43
$GPRMC,203645.000,A,3748.7569,N,12217.6928,W,1.93,21.21,271211,,,D*45
$GPRMC,203646.000,A,3748.7573,N,12217.6922,W,2.13,30.19,271211,,,D*47
$GPRMC,203647.000,A,3748.7578,N,12217.6917,W,2.02,28.96,271211,,,D*45
$GPRMC,203648.000,A,3748.7582,N,12217.6913,W,2.14,21.84,271211,,,D*46
$GPRMC,203649.000,A,3748.7587,N,12217.6910,W,2.01,16.03,271211,,,D*4E
$GPRMC,203650.000,A,3748.7592,N,12217.6906,W,2.04,19.05,271211,,,D*49
$GPRMC,203651.000,A,3748.7598,N,12217.6901,W,2.78,32.88,271211,,,D*42
$GPRMC,203652.000,A,3748.7604,N,12217.6897,W,2.27,32.32,271211,,,D*42
$GPRMC,203653.000,A,3748.7609,N,12217.6891,W,2.18,31.55,271211,,,D*46
$GPRMC,203654.000,A,3748.7615,N,12217.6886,W,2.31,34.21,271211,,,D*47
$GPRMC,203655.000,A,3748.7620,N,12217.6881,W,2.27,33.54,271211,,,D*45
$GPRMC,203656.000,A,3748.7627,N,12217.6880,W,2.02,30.09,271211,,,D*4C
$GPRMC,203657.000,A,3748.7632,N,12217.6877,W,2.05,28.91,271211,,,D*4E
$GPRMC,203658.000,A,3748.7637,N,12217.6872,W,1.97,32.03,271211,,,D*49
$GPRMC,203659.000,A,3748.7642,N,12217.6868,W,2.30,23.25,271211,,,D*4B
$GPRMC,203700.000,A,3748.7648,N,12217.6867,W,2.14,15.27,271211,,,D*42
$GPRMC,203701.000,A,3748.7654,N,12217.6863,W,2.14,22.25,271211,,,D*4C
$GPRMC,203702.000,A,3748.7659,N,12217.6859,W,2.10,23.19,271211,,,D*41
$GPRMC,203703.000,A,3748.7664,N,12217.6855,W,2.26,19.01,271211,,,D*47
$GPRMC,203704.000,A,3748.7671,N,12217.6851,W,2.23,21.40,271211,,,D*4B
$GPRMC,203705.000,A,3748.7677,N,12217.6849,W,2.20,20.67,271211,,,D*42
$GPRMC,203706.000,A,3748.7682,N,12217.6844,W,2.07,23.34,271211,,,D*46
$GPRMC,203707.000,A,3748.7688,N,12217.6840,W,2.20,34.25,271211,,,D*4A
$GPRMC,203708.000,A,3748.7694,N,12217.6834,W,2.33,28.74,271211,,,D*40
$GPRMC,203709.000,A,3748.7699,N,12217.6829,W,2.23,29.38,271211,,,D*48
$GPRMC,203710.000,A,3748.7705,N,12217.6823,W,2.20,22.52,271211,,,D*4A
$GPRMC,203711.000,A,3748.7710,N,12217.6818,W,2.03,20.79,271211,,,D*4D
$GPRMC,203712.000,A,3748.7715,N,12217.6812,W,2.36,33.92,271211,,,D*40
$GPRMC,203713.000,A,3748.7721,N,12217.6806,W,2.21,32.66,271211,,,D*4F
$GPRMC,203714.000,A,3748.7727,N,12217.6800,W,2.30,29.80,271211,,,D*4A
$GPRMC,203715.000,A,3748.7734,N,12217.6795,W,2.23,24.96,271211,,,D*42
$GPRMC,203716.000,A,3748.7740,N,12217.6790,W,2.53,33.06,271211,,,D*4F
$GPRMC,203717.000,A,3748.7747,N,12217.6781,W,2.34,31.74,271211,,,D*4F
$GPRMC,203718.000,A,3748.7754,N,12217.6773,W,2.25,28.98,271211,,,D*45
$GPRMC,203719.000,A,3748.7759,N,12217.6767,W,2.36,30.54,271211,,,D*47
$GPRMC,203720.000,A,3748.7766,N,12217.6763,W,2.40,33.68,271211,,,D*48
$GPRMC,203721.000,A,3748.7772,N,12217.6759,W,2.26,26.80,271211,,,D*47
$GPRMC,203722.000,A,3748.7778,N,12217.6755,W,2.19,22.01,271211,,,D*43
$GPRMC,203723.000,A,3748.7785,N,12217.6752,W,2.14,21.99,271211,,,D*48
$GPRMC,203724.000,A,3748.7790,N,12217.6749,W,2.25,27.43,271211,,,D*42
$GPRMC,203725.000,A,3748.7796,N,12217.6744,W,2.39,30.64,271211,,,D*46
$GPRMC,203726.000,A,3748.7802,N,12217.6739,W,2.19,26.52,271211,,,D*4D
$GPRMC,203727.000,A,3748.7807,N,12217.6733,W,2.20,32.55,271211,,,D*4B
$GPRMC,203728.000,A,3748.7812,N,12217.6727,W,2.21,32.65,271211,,,D*47
$GPRMC,203729.000,A,3748.7818,N,12217.6721,W,2.22,22.23,271211,,,D*4A
$GPRMC,203730.000,A,3748.7824,N,12217.6717,W,2.37,14.85,271211,,,D*45
$GPRMC,203731.000,A,3748.7830,N,12217.6713,W,2.22,19.17,271211,,,D*47
$GPRMC,203732.000,A,3748.7836,N,12217.6709,W,2.25,22.07,271211,,,D*47
$GPRMC,203733.000,A,3748.7842,N,12217.6705,W,2.21,18.63,271211,,,D*46
$GPRMC,203734.000,A,3748.7847,N,12217.6701,W,1.80,22.44,271211,,,D*44
$GPRMC,203735.000,A,3748.7853,N,12217.6698,W,2.26,20.02,271211,,,D*4E
$GPRMC,203736.000,A,3748.7860,N,12217.6694,W,2.24,22.89,271211,,,D*42
$GPRMC,203737.000,A,3748.7866,N,12217.6690,W,2.20,23.14,271211,,,D*40
$GPRMC,203738.000,A,3748.7873,N,12217.6688,W,2.20,19.44,271211,,,D*4E
$GPRMC,203739.000,A,3748.7878,N,12217.6682,W,2.17,21.51,271211,,,D*45
$GPRMC,203740.000,A,3748.7884,N,12217.6679,W,2.10,19.58,271211,,,D*49
$GPRMC,203741.000,A,3748.7892,N,12217.6673,W,2.11,14.13,271211,,,D*46
$GPRMC,203742.000,A,3748.7900,N,12217.6672,W,2.24,17.44,271211,,,D*49
$GPRMC,203743.000,A,3748.7905,N,12217.6667,W,2.12,20.76,271211,,,D*49
$GPRMC,203744.000,A,3748.7911,N,12217.6664,W,2.26,29.41,271211,,,D*42
$GPRMC,203745.000,A,3748.7916,N,12217.6657,W,2.07,29.15,271211,,,D*46
$GPRMC,203746.000,A,3748.7921,N,12217.6652,W,2.14,25.37,271211,,,A*4F
$GPRMC,203747.000,A,3748.7926,N,12217.6647,W,1.77,32.60,271211,,,A*4F
$GPRMC,203748.000,A,3748.7931,N,12217.6643,W,1.96,32.70,271211,,,A*4C
$GPRMC,203749.000,A,3748.7936,N,12217.6638,W,2.08,32.06,271211,,,A*43
$GPRMC,203750.000,A,3748.7941,N,12217.6631,W,2.17,35.23,271211,,,A*4C
$GPRMC,203751.000,A,3748.7948,N,12217.6624,W,2.13,30.80,271211,,,A*48
$GPRMC,203752.000,A,3748.7953,N,12217.6619,W,2.34,26.21,271211,,,D*43
$GPRMC,203753.000,A,3748.7960,N,12217.6614,W,2.52,22.50,271211,,,D*4D
$GPRMC,203754.000,A,3748.7966,N,12217.6609,W,2.50,21.31,271211,,,D*46
$GPRMC,203755.000,A,3748.7972,N,12217.6605,W,2.38,25.31,271211,,,D*44
$GPRMC,203756.000,A,3748.7977,N,12217.6600,W,2.47,30.56,271211,,,D*4A
$GPRMC,203757.000,A,3748.7982,N,12217.6596,W,2.32,27.86,271211,,,D*44
$GPRMC,203758.000,A,3748.7987,N,12217.6590,W,2.40,24.92,271211,,,D*4B
$GPRMC,203759.000,A,3748.7992,N,12217.6583,W,2.19,30.63,271211,,,D*4B
$GPRMC,203800.000,A,3748.7998,N,12217.6579,W,2.58,25.24,271211,,,D*45
$GPRMC,203801.000,A,3748.8005,N,12217.6575,W,2.20,30.87,271211,,,D*48
$GPRMC,203802.000,A,3748.8011,N,12217.6571,W,2.07,34.53,271211,,,D*42
$GPRMC,203803.000,A,3748.8016,N,12217.6566,W,1.96,31.72,271211,,,D*4F
$GPRMC,203804.000,A,3748.8022,N,12217.6562,W,2.22,31.18,271211,,,D*4B
$GPRMC,203805.000,A,3748.8028,N,12217.6556,W,2.15,34.13,271211,,,D*4D
$GPRMC,203806.000,A,3748.8034,N,12217.6551,W,2.19,31.96,271211,,,D*40
$GPRMC,203807.000,A,3748.8040,N,12217.6546,W,2.16,27.35,271211,,,D*45
$GPRMC,203808.000,A,3748.8045,N,12217.6541,W,2.28,41.33,271211,,,D*43
$GPRMC,203809.000,A,3748.8052,N,12217.6536,W,2.41,28.58,271211,,,D*49
$GPRMC,203810.000,A,3748.8058,N,12217.6531,W,2.05,25.95,271211,,,D*40
$GPRMC,203811.000,A,3748.8065,N,12217.6527,W,2.16,14.12,271211,,,D*47
$GPRMC,203812.000,A,3748.8073,N,12217.6518,W,2.49,19.83,271211,,,D*40
$GPRMC,203813.000,A,3748.8080,N,12217.6513,W,2.36,24.88,271211,,,D*4B
$GPRMC,203814.000,A,3748.8085,N,12217.6505,W,2.30,26.62,271211,,,D*4E
$GPRMC,203815.000,A,3748.8091,N,12217.6501,W,2.36,19.92,271211,,,D*4B
$GPRMC,203816.000,A,3748.8098,N,12217.6497,W,2.18,16.41,271211,,,D*42
$GPRMC,203817.000,A,3748.8104,N,12217.6495,W,2.13,20.76,271211,,,D*4F
$GPRMC,203818.000,A,3748.8109,N,12217.6491,W,2.01,18.16,271211,,,D*47
$GPRMC,203819.000,A,3748.8114,N,12217.6488,W,1.04,19.49,271211,,,D*4F
$GPRMC,203820.000,A,3748.8116,N,12217.6483,W,0.92,39.33,271211,,,D*4D
$GPRMC,203821.000,A,3748.8118,N,12217.6476,W,0.70,61.68,271211,,,D*47
$GPRMC,203822.000,A,3748.8120,N,12217.6472,W,0.77,58.21,271211,,,D*4B
$GPRMC,203823.000,A,3748.8122,N,12217.6467,W,1.29,39.46,271211,,,D*40
$GPRMC,203824.000,A,3748.8127,N,12217.6460,W,1.66,47.22,271211,,,D*45
$GPRMC,203825.000,A,3748.8130,N,12217.6454,W,1.78,45.14,271211,,,D*4D
$GPRMC,203826.000,A,3748.8133,N,12217.6449,W,1.94,41.91,271211,,,D*4A
$GPRMC,203827.000,A,3748.8137,N,12217.6443,W,1.97,34.04,271211,,,D*48
$GPRMC,203828.000,A,3748.8146,N,12217.6435,W,2.03,33.37,271211,,,D*49
$GPRMC,203829.000,A,3748.8152,N,12217.6430,W,2.46,26.47,271211,,,D*4A
$GPRMC,203830.000,A,3748.8156,N,12217.6425,W,1.87,26.51,271211,,,D*4B
$GPRMC,203831.000,A,3748.8162,N,12217.6420,W,1.86,28.35,271211,,,D*45
$GPRMC,203832.000,A,3748.8166,N,12217.6413,W,2.05,25.68,271211,,,D*4F
$GPRMC,203833.000,A,3748.8174,N,12217.6409,W,2.27,29.38,271211,,,D*4F
$GPRMC,203834.000,A,3748.8178,N,12217.6402,W,2.01,28.19,271211,,,A*4C
$GPRMC,203835.000,A,3748.8182,N,12217.6396,W,2.08,30.74,271211,,,A*49
$GPRMC,203836.000,A,3748.8187,N,12217.6389,W,2.08,27.99,271211,,,A*44
$GPRMC,203837.000,A,3748.8196,N,12217.6383,W,2.28,31.41,271211,,,A*4F
$GPRMC,203838.000,A,3748.8200,N,12217.6374,W,1.80,36.43,271211,,,A*40
$GPRMC,203839.000,A,3748.8205,N,12217.6369,W,1.86,30.68,271211,,,A*41
$GPRMC,203840.000,A,3748.8215,N,12217.6365,W,2.46,28.06,271211,,,A*4C
$GPRMC,203841.000,A,3748.8220,N,12217.6359,W,2.08,33.57,271211,,,A*40
$GPRMC,203842.000,A,3748.8224,N,12217.6352,W,1.85,31.82,271211,,,A*40
$GPRMC,203843.000,A,3748.8231,N,12217.6346,W,1.93,29.53,271211,,,A*42
$GPRMC,203844.000,A,3748.8236,N,12217.6340,W,2.08,33.11,271211,,,A*48
$GPRMC,203845.000,A,3748.8246,N,12217.6333,W,2.14,34.25,271211,,,A*47
$GPRMC,203846.000,A,3748.8249,N,12217.6327,W,1.73,39.53,271211,,,D*45
$GPRMC,203847.000,A,3748.8253,N,12217.6322,W,1.81,39.62,271211,,,D*45
$GPRMC,203848.000,A,3748.8257,N,12217.6318,W,2.06,29.79,271211,,,D*40
$GPRMC,203849.000,A,3748.8262,N,12217.6313,W,1.90,36.33,271211,,,D*40
$GPRMC,203850.000,A,3748.8264,N,12217.6307,W,1.64,31.08,271211,,,D*4F
$GPRMC,203851.000,A,3748.8268,N,12217.6302,W,2.05,38.78,271211,,,D*4D
$GPRMC,203852.000,A,3748.8272,N,12217.6296,W,2.03,41.87,271211,,,D*41
$GPRMC,203853.000,A,3748.8276,N,12217.6290,W,1.96,33.58,271211,,,D*4A
$GPRMC,203854.000,A,3748.8278,N,12217.6284,W,1.60,37.04,271211,,,D*42
$GPRMC,203855.000,A,3748.8280,N,12217.6280,W,1.19,40.01,271211,,,D*4B
$GPRMC,203856.000,A,3748.8282,N,12217.6277,W,1.07,61.57,271211,,,D*4D
$GPRMC,203857.000,A,3748.8283,N,12217.6272,W,1.52,44.30,271211,,,D*4E
$GPRMC,203858.000,A,3748.8302,N,12217.6267,W,1.98,23.65,271211,,,D*4A
$GPRMC,203859.000,A,3748.8323,N,12217.6258,W,2.34,24.91,271211,,,D*4D
$GPRMC,203900.000,A,3748.8340,N,12217.6253,W,2.46,28.44,271211,,,D*4F
$GPRMC,203901.000,A,3748.8351,N,12217.6248,W,2.18,30.78,271211,,,D*49
$GPRMC,203902.000,A,3748.8362,N,12217.6244,W,2.38,31.09,271211,,,D*43
$GPRMC,203903.000,A,3748.8370,N,12217.6240,W,1.77,33.32,271211,,,D*47
$GPRMC,203904.000,A,3748.8383,N,12217.6240,W,2.30,22.14,271211,,,D*48
$GPRMC,203905.000,A,3748.8396,N,12217.6238,W,2.03,27.44,271211,,,D*42
$GPRMC,203906.000,A,3748.8398,N,12217.6233,W,1.40,44.40,271211,,,D*41
$GPRMC,203907.000,A,3748.8398,N,12217.6230,W,0.84,69.91,271211,,,D*49
$GPRMC,203908.000,A,3748.8396,N,12217.6227,W,1.66,97.37,271211,,,D*4E
$GPRMC,203909.000,A,3748.8394,N,12217.6223,W,1.86,116.03,271211,,,D*78
$GPRMC,203910.000,A,3748.8390,N,12217.6217,W,2.13,118.10,271211,,,D*70
$GPRMC,203911.000,A,3748.8386,N,12217.6212,W,2.77,127.00,271211,,,D*7C
$GPRMC,203912.000,A,3748.8381,N,12217.6205,W,2.75,121.24,271211,,,D*7C
$GPRMC,203913.000,A,3748.8378,N,12217.6197,W,2.36,106.28,271211,,,D*7D
$GPRMC,203914.000,A,3748.8375,N,12217.6191,W,1.91,112.79,271211,,,D*7E
$GPRMC,203915.000,A,3748.8372,N,12217.6186,W,2.31,125.37,271211,,,D*79
$GPRMC,203916.000,A,3748.8369,N,12217.6180,W,2.49,119.03,271211,,,D*71
$GPRMC,203917.000,A,3748.8366,N,12217.6173,W,1.85,101.25,271211,,,D*7D
$GPRMC,203918.000,A,3748.8365,N,12217.6168,W,1.63,94.37,271211,,,D*4D
$GPRMC,203919.000,A,3748.8362,N,12217.6162,W,2.36,120.55,271211,,,D*78
$GPRMC,203920.000,A,3748.8358,N,12217.6155,W,2.00,122.31,271211,,,D*7A
$GPRMC,203921.000,A,3748.8355,N,12217.6151,W,2.14,121.08,271211,,,D*7E
$GPRMC,203922.000,A,3748.8350,N,12217.6146,W,2.09,116.96,271211,,,D*71
$GPRMC,203923.000,A,3748.8348,N,12217.6141,W,1.90,121.37,271211,,,D*72
$GPRMC,203924.000,A,3748.8343,N,12217.6135,W,1.92,129.54,271211,,,D*72
$GPRMC,203925.000,A,3748.8338,N,12217.6128,W,2.03,129.62,271211,,,D*7D
$GPRMC,203926.000,A,3748.8329,N,12217.6120,W,2.05,119.31,271211,,,D*75
$GPRMC,203927.000,A,3748.8326,N,12217.6114,W,1.71,112.83,271211,,,D*7E
$GPRMC,203928.000,A,3748.8320,N,12217.6106,W,2.13,115.44,271211,,,D*7F
$GPRMC,203929.000,A,3748.8322,N,12217.6103,W,2.00,124.46,271211,,,D*7B
$GPRMC,203930.000,A,3748.8321,N,12217.6099,W,1.91,125.49,271211,,,D*77
$GPRMC,203931.000,A,3748.8316,N,12217.6091,W,1.81,111.07,271211,,,D*76
$GPRMC,203932.000,A,3748.8311,N,12217.6082,W,1.64,124.29,271211,,,D*71
$GPRMC,203933.000,A,3748.8307,N,12217.6076,W,0.96,92.15,271211,,,D*43
$GPRMC,203934.000,A,3748.8302,N,12217.6069,W,1.39,122.69,271211,,,D*7A
$GPRMC,203935.000,A,3748.8296,N,12217.6061,W,1.98,137.28,271211,,,A*70
$GPRMC,203936.000,A,3748.8292,N,12217.6055,W,1.63,133.48,271211,,,A*76
$GPRMC,203937.000,A,3748.8288,N,12217.6051,W,1.78,143.98,271211,,,A*78
$GPRMC,203938.000,A,3748.8284,N,12217.6044,W,1.65,140.02,271211,,,A*73
$GPRMC,203939.000,A,3748.8279,N,12217.6035,W,1.73,152.93,271211,,,A*7A
$GPRMC,203940.000,A,3748.8275,N,12217.6032,W,1.51,140.14,271211,,,A*73
$GPRMC,203941.000,A,3748.8275,N,12217.6024,W,1.12,138.68,271211,,,D*73
$GPRMC,203942.000,A,3748.8275,N,12217.6018,W,1.14,132.26,271211,,,D*79
$GPRMC,203943.000,A,3748.8273,N,12217.6012,W,1.31,131.71,271211,,,D*72
$GPRMC,203944.000,A,3748.8272,N,12217.6006,W,1.27,121.49,271211,,,D*7C
$GPRMC,203945.000,A,3748.8271,N,12217.5999,W,1.56,114.87,271211,,,D*70
$GPRMC,203946.000,A,3748.8268,N,12217.5993,W,1.48,128.04,271211,,,D*7A
$GPRMC,203947.000,A,3748.8265,N,12217.5988,W,1.78,124.62,271211,,,D*73
$GPRMC,203948.000,A,3748.8262,N,12217.5979,W,1.95,121.39,271211,,,D*7D
$GPRMC,203949.000,A,3748.8258,N,12217.5970,W,2.10,114.35,271211,,,D*78
$GPRMC,203950.000,A,3748.8256,N,12217.5963,W,1.53,116.65,271211,,,D*7F
$GPRMC,203951.000,A,3748.8253,N,12217.5956,W,1.57,121.00,271211,,,D*7E
$GPRMC,203952.000,A,3748.8250,N,12217.5949,W,1.67,117.14,271211,,,D*73
$GPRMC,203953.000,A,3748.8246,N,12217.5941,W,1.79,125.95,271211,,,D*7A
$GPRMC,203954.000,A,3748.8242,N,12217.5935,W,1.44,137.13,271211,,,D*79
$GPRMC,203955.000,A,3748.8239,N,12217.5930,W,1.50,119.04,271211,,,D*7E
$GPRMC,203956.000,A,3748.8236,N,12217.5922,W,1.72,118.84,271211,,,D*78
$GPRMC,203957.000,A,3748.8232,N,12217.5914,W,1.94,122.97,271211,,,D*7B
$GPRMC,203958.000,A,3748.8227,N,12217.5907,W,1.86,122.10,271211,,,D*7E
$GPRMC,203959.000,A,3748.8224,N,12217.5898,W,2.15,113.82,271211,,,D*7B
$GPRMC,204000.000,A,3748.8220,N,12217.5892,W,1.71,120.65,271211,,,D*7F
$GPRMC,204001.000,A,3748.8217,N,12217.5884,W,1.84,117.88,271211,,,D*70
$GPRMC,204002.000,A,3748.8213,N,12217.5876,W,1.80,119.77,271211,,,D*70
$GPRMC,204003.000,A,3748.8210,N,12217.5869,W,1.72,124.27,271211,,,D*7A
$GPRMC,204004.000,A,3748.8206,N,12217.5860,W,2.11,112.93,271211,,,D*7F
$GPRMC,204005.000,A,3748.8203,N,12217.5849,W,2.33,108.72,271211,,,D*74
$GPRMC,204006.000,A,3748.8201,N,12217.5838,W,2.19,103.36,271211,,,D*70
$GPRMC,204007.000,A,3748.8198,N,12217.5828,W,2.38,110.37,271211,,,D*73
$GPRMC,204008.000,A,3748.8195,N,12217.5818,W,2.38,114.35,271211,,,D*74
$GPRMC,204009.000,A,3748.8191,N,12217.5809,W,2.13,113.49,271211,,,D*74
$GPRMC,204010.000,A,3748.8188,N,12217.5799,W,2.17,118.60,271211,,,D*76
$GPRMC,204011.000,A,3748.8184,N,12217.5790,W,1.71,125.86,271211,,,D*77
$GPRMC,204012.000,A,3748.8180,N,12217.5783,W,2.17,123.77,271211,,,D*79
$GPRMC,204013.000,A,3748.8178,N,12217.5775,W,1.65,103.42,271211,,,D*74
$GPRMC,204014.000,A,3748.8176,N,12217.5769,W,1.56,92.07,271211,,,D*48
$GPRMC,204015.000,A,3748.8174,N,12217.5761,W,1.92,106.87,271211,,,D*7F
$GPRMC,204016.000,A,3748.8170,N,12217.5755,W,1.43,128.00,271211,,,D*70
$GPRMC,204017.000,A,3748.8166,N,12217.5750,W,1.42,128.08,271211,,,D*7A
$GPRMC,204018.000,A,3748.8162,N,12217.5743,W,1.62,124.55,271211,,,D*75
$GPRMC,204019.000,A,3748.8158,N,12217.5736,W,1.45,122.92,271211,,,D*77
$GPRMC,204020.000,A,3748.8152,N,12217.5725,W,2.04,114.91,271211,,,D*75
$GPRMC,204021.000,A,3748.8147,N,12217.5715,W,2.41,114.22,271211,,,D*7A
$GPRMC,204022.000,A,3748.8144,N,12217.5707,W,0.88,129.85,271211,,,D*7D
$GPRMC,204023.000,A,3748.8144,N,12217.5702,W,1.13,83.20,271211,,,D*44
$GPRMC,204024.000,A,3748.8144,N,12217.5696,W,1.00,91.99,271211,,,D*4C
$GPRMC,204025.000,A,3748.8142,N,12217.5690,W,1.54,118.06,271211,,,D*7A
$GPRMC,204026.000,A,3748.8138,N,12217.5684,W,1.59,125.06,271211,,,D*72
$GPRMC,204027.000,A,3748.8135,N,12217.5679,W,1.88,124.95,271211,,,D*7B
$GPRMC,204028.000,A,3748.8132,N,12217.5671,W,2.03,120.85,271211,,,D*7E
$GPRMC,204029.000,A,3748.8127,N,12217.5663,W,1.75,137.77,271211,,,D*71
$GPRMC,204030.000,A,3748.8122,N,12217.5656,W,1.50,141.71,271211,,,D*7A
$GPRMC,204031.000,A,3748.8116,N,12217.5649,W,1.81,109.28,271211,,,D*7E
$GPRMC,204032.000,A,3748.8111,N,12217.5640,W,1.44,104.79,271211,,,D*73
$GPRMC,204033.000,A,3748.8106,N,12217.5633,W,1.86,133.76,271211,,,D*75
$GPRMC,204034.000,A,3748.8098,N,12217.5624,W,2.63,130.69,271211,,,D*77
$GPRMC,204035.000,A,3748.8092,N,12217.5615,W,2.01,122.52,271211,,,D*71
$GPRMC,204036.000,A,3748.8085,N,12217.5608,W,1.50,118.61,271211,,,D*76
$GPRMC,204037.000,A,3748.8079,N,12217.5602,W,1.29,127.07,271211,,,D*7C
$GPRMC,204038.000,A,3748.8075,N,12217.5597,W,1.25,121.74,271211,,,D*7E
$GPRMC,204039.000,A,3748.8080,N,12217.5590,W,1.46,72.60,271211,,,D*45
$GPRMC,204040.000,A,3748.8082,N,12217.5582,W,0.90,85.73,271211,,,D*4A
$GPRMC,204041.000,A,3748.8078,N,12217.5575,W,0.87,110.17,271211,,,A*7A
$GPRMC,204042.000,A,3748.8074,N,12217.5566,W,1.18,133.84,271211,,,A*7B
$GPRMC,204043.000,A,3748.8070,N,12217.5554,W,2.10,124.14,271211,,,A*7B
$GPRMC,204044.000,A,3748.8060,N,12217.5546,W,2.24,126.78,271211,,,A*71
$GPRMC,204045.000,A,3748.8051,N,12217.5537,W,1.73,145.66,271211,,,A*7F
$GPRMC,204046.000,A,3748.8045,N,12217.5533,W,1.93,142.19,271211,,,A*7C
$GPRMC,204047.000,A,3748.8037,N,12217.5530,W,1.98,156.40,271211,,,A*79
$GPRMC,204048.000,A,3748.8034,N,12217.5523,W,1.44,165.07,271211,,,A*75
$GPRMC,204049.000,A,3748.8032,N,12217.5519,W,0.54,189.45,271211,,,A*7F
$GPRMC,204050.000,A,3748.8029,N,12217.5517,W,1.11,208.14,271211,,,A*7D
$GPRMC,204051.000,A,3748.8025,N,12217.5519,W,2.16,219.74,271211,,,A*7C
$GPRMC,204052.000,A,3748.8021,N,12217.5517,W,1.55,209.35,271211,,,A*75
$GPRMC,204053.000,A,3748.8017,N,12217.5519,W,1.20,214.70,271211,,,A*70
$GPRMC,204054.000,A,3748.8012,N,12217.5522,W,1.43,201.95,271211,,,A*70
$GPRMC,204055.000,A,3748.8008,N,12217.5523,W,1.42,204.15,271211,,,A*77
$GPRMC,204056.000,A,3748.8003,N,12217.5525,W,1.74,207.89,271211,,,A*7A
$GPRMC,204057.000,A,3748.8000,N,12217.5526,W,1.38,232.74,271211,,,A*77
$GPRMC,204058.000,A,3748.7994,N,12217.5534,W,2.79,215.60,271211,,,A*76
$GPRMC,204059.000,A,3748.7985,N,12217.5541,W,2.63,218.02,271211,,,A*77
$GPRMC,204100.000,A,3748.7978,N,12217.5545,W,2.34,208.54,271211,,,D*79
$GPRMC,204101.000,A,3748.7969,N,12217.5553,W,2.15,207.08,271211,,,D*7A
$GPRMC,204102.000,A,3748.7963,N,12217.5554,W,1.40,213.87,271211,,,D*75
$GPRMC,204103.000,A,3748.7959,N,12217.5558,W,1.52,207.42,271211,,,D*7E
$GPRMC,204104.000,A,3748.7954,N,12217.5562,W,1.34,222.89,271211,,,D*7D
$GPRMC,204105.000,A,3748.7950,N,12217.5567,W,1.78,222.40,271211,,,D*70
$GPRMC,204106.000,A,3748.7947,N,12217.5571,W,1.83,224.47,271211,,,D*77
$GPRMC,204107.000,A,3748.7938,N,12217.5574,W,1.66,198.62,271211,,,D*73
$GPRMC,204108.000,A,3748.7931,N,12217.5576,W,2.04,207.48,271211,,,D*7D
$GPRMC,204109.000,A,3748.7925,N,12217.5579,W,2.04,214.47,271211,,,D*7B
$GPRMC,204110.000,A,3748.7918,N,12217.5585,W,2.07,218.84,271211,,,D*7E
$GPRMC,204111.000,A,3748.7909,N,12217.5592,W,2.07,208.94,271211,,,D*79
$GPRMC,204112.000,A,3748.7902,N,12217.5598,W,1.83,218.60,271211,,,D*7E
$GPRMC,204113.000,A,3748.7897,N,12217.5603,W,1.65,214.87,271211,,,D*7E
$GPRMC,204114.000,A,3748.7892,N,12217.5609,W,1.51,218.64,271211,,,D*70
$GPRMC,204115.000,A,3748.7888,N,12217.5614,W,1.41,223.23,271211,,,D*7C
$GPRMC,204116.000,A,3748.7884,N,12217.5618,W,1.05,231.75,271211,,,D*7F
$GPRMC,204117.000,A,3748.7881,N,12217.5623,W,1.45,212.24,271211,,,D*72
$GPRMC,204118.000,A,3748.7876,N,12217.5627,W,1.80,202.51,271211,,,D*7B
$GPRMC,204119.000,A,3748.7866,N,12217.5633,W,2.10,197.69,271211,,,D*70
$GPRMC,204120.000,A,3748.7856,N,12217.5639,W,2.22,201.74,271211,,,D*72
$GPRMC,204121.000,A,3748.7851,N,12217.5645,W,1.72,228.67,271211,,,D*70
$GPRMC,204122.000,A,3748.7846,N,12217.5652,W,1.90,226.92,271211,,,D*7B
$GPRMC,204123.000,A,3748.7841,N,12217.5657,W,1.77,219.68,271211,,,D*78
$GPRMC,204124.000,A,3748.7834,N,12217.5664,W,1.67,212.54,271211,,,D*78
$GPRMC,204125.000,A,3748.7827,N,12217.5668,W,1.63,222.35,271211,,,D*77
$GPRMC,204126.000,A,3748.7818,N,12217.5677,W,1.96,225.70,271211,,,D*7A
$GPRMC,204127.000,A,3748.7812,N,12217.5683,W,1.44,229.64,271211,,,D*7C
$GPRMC,204128.000,A,3748.7807,N,12217.5691,W,2.07,219.02,271211,,,D*73
$GPRMC,204129.000,A,3748.7800,N,12217.5699,W,1.99,213.47,271211,,,D*72
$GPRMC,204130.000,A,3748.7794,N,12217.5707,W,1.90,204.11,271211,,,D*72
$GPRMC,204131.000,A,3748.7788,N,12217.5708,W,1.81,202.87,271211,,,D*78
$GPRMC,204132.000,A,3748.7782,N,12217.5709,W,1.75,209.01,271211,,,D*7E
$GPRMC,204133.000,A,3748.7776,N,12217.5711,W,1.82,218.23,271211,,,D*75
$GPRMC,204134.000,A,3748.7770,N,12217.5712,W,1.63,214.54,271211,,,D*74
$GPRMC,204135.000,A,3748.7759,N,12217.5712,W,1.31,205.56,271211,,,D*7B
$GPRMC,204136.000,A,3748.7753,N,12217.5716,W,2.04,214.80,271211,,,D*78
$GPRMC,204137.000,A,3748.7747,N,12217.5721,W,1.88,215.34,271211,,,D*71
$GPRMC,204138.000,A,3748.7740,N,12217.5727,W,1.20,204.93,271211,,,D*70
$GPRMC,204139.000,A,3748.7733,N,12217.5734,W,1.81,211.35,271211,,,D*74
$GPRMC,204140.000,A,3748.7727,N,12217.5738,W,2.17,210.43,271211,,,D*7F
$GPRMC,204141.000,A,3748.7720,N,12217.5742,W,2.37,211.48,271211,,,D*7C
$GPRMC,204142.000,A,3748.7713,N,12217.5751,W,2.27,212.14,271211,,,D*76
$GPRMC,204143.000,A,3748.7708,N,12217.5756,W,2.36,218.55,271211,,,D*75
$GPRMC,204144.000,A,3748.7703,N,12217.5761,W,2.47,213.39,271211,,,D*7A
$GPRMC,204145.000,A,3748.7697,N,12217.5768,W,2.49,217.54,271211,,,D*7F
$GPRMC,204146.000,A,3748.7691,N,12217.5773,W,2.47,212.23,271211,,,D*7B
$GPRMC,204147.000,A,3748.7685,N,12217.5779,W,2.52,210.38,271211,,,D*79
$GPRMC,204148.000,A,3748.7678,N,12217.5784,W,2.49,203.26,271211,,,D*71
$GPRMC,204149.000,A,3748.7671,N,12217.5788,W,2.58,205.72,271211,,,D*72
$GPRMC,204150.000,A,3748.7665,N,12217.5793,W,2.50,207.15,271211,,,D*7E
$GPRMC,204151.000,A,3748.7658,N,12217.5797,W,2.42,206.21,271211,,,D*70
$GPRMC,204152.000,A,3748.7652,N,12217.5802,W,2.51,206.58,271211,,,D*76
$GPRMC,204153.000,A,3748.7645,N,12217.5807,W,2.58,206.23,271211,,,D*71
$GPRMC,204154.000,A,3748.7639,N,12217.5811,W,2.17,205.28,271211,,,D*79
$GPRMC,204155.000,A,3748.7634,N,12217.5815,W,2.01,207.01,271211,,,D*7F
$GPRMC,204156.000,A,3748.7628,N,12217.5820,W,2.21,212.10,271211,,,D*71
$GPRMC,204157.000,A,3748.7623,N,12217.5824,W,2.07,203.27,271211,,,D*7F
$GPRMC,204158.000,A,3748.7617,N,12217.5826,W,2.07,202.94,271211,,,D*7C
$GPRMC,204159.000,A,3748.7612,N,12217.5829,W,1.93,197.32,271211,,,D*7A
$GPRMC,204200.000,A,3748.7606,N,12217.5830,W,1.89,190.63,271211,,,D*70
$GPRMC,204201.000,A,3748.7600,N,12217.5830,W,2.02,186.05,271211,,,D*70
$GPRMC,204202.000,A,3748.7594,N,12217.5832,W,1.86,188.01,271211,,,D*7A
$GPRMC,204203.000,A,3748.7589,N,12217.5834,W,1.67,199.79,271211,,,D*71
$GPRMC,204204.000,A,3748.7584,N,12217.5843,W,1.19,219.66,271211,,,D*77
$GPRMC,204205.000,A,3748.7579,N,12217.5850,W,1.54,229.39,271211,,,D*76
$GPRMC,204206.000,A,3748.7571,N,12217.5857,W,2.16,211.27,271211,,,D*7B
$GPRMC,204207.000,A,3748.7564,N,12217.5861,W,1.99,214.94,271211,,,D*72
$GPRMC,204208.000,A,3748.7559,N,12217.5866,W,1.94,211.76,271211,,,D*70
$GPRMC,204209.000,A,3748.7555,N,12217.5874,W,1.19,231.83,271211,,,D*73
$GPRMC,204210.000,A,3748.7547,N,12217.5882,W,1.99,214.63,271211,,,D*70
$GPRMC,204211.000,A,3748.7541,N,12217.5887,W,1.59,200.40,271211,,,D*7A
$GPRMC,204212.000,A,3748.7536,N,12217.5889,W,1.52,196.32,271211,,,D*75
$GPRMC,204213.000,A,3748.7530,N,12217.5892,W,1.80,201.56,271211,,,D*78
$GPRMC,204214.000,A,3748.7524,N,12217.5896,W,1.82,204.46,271211,,,D*78
$GPRMC,204215.000,A,3748.7516,N,12217.5904,W,2.02,217.33,271211,,,D*79
$GPRMC,204216.000,A,3748.7509,N,12217.5909,W,1.98,211.91,271211,,,D*77
$GPRMC,204217.000,A,3748.7502,N,12217.5917,W,1.66,228.46,271211,,,D*73
$GPRMC,204218.000,A,3748.7494,N,12217.5924,W,1.53,222.03,271211,,,D*7F
$GPRMC,204219.000,A,3748.7487,N,12217.5930,W,1.59,201.66,271211,,,D*71
$GPRMC,204220.000,A,3748.7480,N,12217.5932,W,1.54,204.34,271211,,,D*71
$GPRMC,204221.000,A,3748.7477,N,12217.5935,W,1.24,208.44,271211,,,D*73
$GPRMC,204222.000,A,3748.7474,N,12217.5938,W,0.99,178.91,271211,,,D*75
$GPRMC,204223.000,A,3748.7471,N,12217.5939,W,1.29,200.02,271211,,,D*7C
$GPRMC,204224.000,A,3748.7466,N,12217.5941,W,1.24,193.34,271211,,,D*73
$GPRMC,204225.000,A,3748.7461,N,12217.5944,W,1.83,180.64,271211,,,D*7A
$GPRMC,204226.000,A,3748.7455,N,12217.5946,W,1.98,194.72,271211,,,D*74
$GPRMC,204227.000,A,3748.7449,N,12217.5952,W,1.61,205.29,271211,,,D*7E
$GPRMC,204228.000,A,3748.7442,N,12217.5961,W,2.21,221.50,271211,,,D*75
$GPRMC,204229.000,A,3748.7432,N,12217.5972,W,1.94,211.87,271211,,,D*75
$GPRMC,204230.000,A,3748.7428,N,12217.5976,W,0.96,226.87,271211,,,D*75
$GPRMC,204231.000,A,3748.7425,N,12217.5981,W,1.33,235.98,271211,,,D*73
$GPRMC,204232.000,A,3748.7416,N,12217.5988,W,1.43,211.24,271211,,,D*7F
$GPRMC,204233.000,A,3748.7409,N,12217.5994,W,1.31,215.69,271211,,,D*75
$GPRMC,204234.000,A,3748.7403,N,12217.6002,W,1.57,202.75,271211,,,D*76
$GPRMC,204235.000,A,3748.7399,N,12217.6007,W,1.57,221.66,271211,,,D*75
$GPRMC,204236.000,A,3748.7390,N,12217.6013,W,2.24,209.54,271211,,,D*76
$GPRMC,204237.000,A,3748.7383,N,12217.6017,W,2.23,208.01,271211,,,D*77
$GPRMC,204238.000,A,3748.7379,N,12217.6021,W,2.11,200.91,271211,,,D*78
$GPRMC,204239.000,A,3748.7373,N,12217.6024,W,2.21,202.50,271211,,,D*7A
$GPRMC,204240.000,A,3748.7367,N,12217.6027,W,1.97,200.67,271211,,,D*7A
$GPRMC,204241.000,A,3748.7362,N,12217.6031,W,1.87,205.42,271211,,,D*7A
$GPRMC,204242.000,A,3748.7357,N,12217.6037,W,2.33,213.48,271211,,,D*78
$GPRMC,204243.000,A,3748.7352,N,12217.6043,W,2.23,215.82,271211,,,D*7E
$GPRMC,204244.000,A,3748.7347,N,12217.6049,W,2.13,212.63,271211,,,D*7C
$GPRMC,204245.000,A,3748.7342,N,12217.6054,W,2.10,203.09,271211,,,D*7B
$GPRMC,204246.000,A,3748.7336,N,12217.6059,W,2.16,209.28,271211,,,D*79
$GPRMC,204247.000,A,3748.7330,N,12217.6064,W,1.58,217.63,271211,,,D*79
$GPRMC,204248.000,A,3748.7327,N,12217.6068,W,1.76,210.81,271211,,,D*7B
$GPRMC,204249.000,A,3748.7322,N,12217.6072,W,1.80,203.67,271211,,,D*77
$GPRMC,204250.000,A,3748.7317,N,12217.6076,W,1.72,201.95,271211,,,D*7F
$GPRMC,204251.000,A,3748.7311,N,12217.6080,W,2.18,211.06,271211,,,D*75
$GPRMC,204252.000,A,3748.7306,N,12217.6086,W,2.29,211.94,271211,,,D*7F
$GPRMC,204253.000,A,3748.7299,N,12217.6090,W,2.55,204.66,271211,,,D*7C
$GPRMC,204254.000,A,3748.7291,N,12217.6095,W,2.66,207.56,271211,,,D*76
$GPRMC,204255.000,A,3748.7284,N,12217.6100,W,2.20,199.71,271211,,,D*7D
$GPRMC,204256.000,A,3748.7278,N,12217.6104,W,2.10,200.70,271211,,,D*78
$GPRMC,204257.000,A,3748.7271,N,12217.6106,W,2.08,195.34,271211,,,D*74
$GPRMC,204258.000,A,3748.7265,N,12217.6111,W,2.35,201.29,271211,,,D*74
$GPRMC,204259.000,A,3748.7258,N,12217.6115,W,2.32,192.64,271211,,,D*78
$GPRMC,204300.000,A,3748.7251,N,12217.6117,W,2.41,188.85,271211,,,D*7E
$GPRMC,204301.000,A,3748.7243,N,12217.6121,W,2.46,199.03,271211,,,D*70
$GPRMC,204302.000,A,3748.7236,N,12217.6125,W,2.15,204.23,271211,,,D*76
$GPRMC,204303.000,A,3748.7230,N,12217.6129,W,2.05,192.58,271211,,,D*7C
$GPRMC,204304.000,A,3748.7224,N,12217.6132,W,2.06,198.96,271211,,,D*7F
$GPRMC,204305.000,A,3748.7217,N,12217.6136,W,2.08,197.32,271211,,,D*75
$GPRMC,204306.000,A,3748.7212,N,12217.6140,W,2.40,195.96,271211,,,D*72
$GPRMC,204307.000,A,3748.7205,N,12217.6145,W,2.12,206.14,271211,,,D*74
$GPRMC,204308.000,A,3748.7200,N,12217.6151,W,2.01,220.69,271211,,,D*77
$GPRMC,204309.000,A,3748.7195,N,12217.6156,W,1.92,210.58,271211,,,D*76
$GPRMC,204310.000,A,3748.7189,N,12217.6161,W,1.91,199.51,271211,,,D*7F
$GPRMC,204311.000,A,3748.7183,N,12217.6164,W,1.91,190.64,271211,,,D*7E
$GPRMC,204312.000,A,3748.7178,N,12217.6167,W,2.07,197.03,271211,,,D*70
$GPRMC,204313.000,A,3748.7171,N,12217.6170,W,2.15,194.27,271211,,,D*78
$GPRMC,204314.000,A,3748.7165,N,12217.6173,W,2.02,192.47,271211,,,D*7F
$GPRMC,204315.000,A,3748.7159,N,12217.6176,W,2.01,198.68,271211,,,D*70
$GPRMC,204316.000,A,3748.7154,N,12217.6180,W,1.76,210.97,271211,,,D*77
$GPRMC,204317.000,A,3748.7149,N,12217.6184,W,1.83,210.13,271211,,,D*78
$GPRMC,204318.000,A,3748.7143,N,12217.6189,W,1.96,200.10,271211,,,D*76
$GPRMC,204319.000,A,3748.7138,N,12217.6193,W,2.11,202.22,271211,,,D*7F
$GPRMC,204320.000,A,3748.7132,N,12217.6198,W,1.87,208.97,271211,,,D*7C
$GPRMC,204321.000,A,3748.7127,N,12217.6202,W,1.79,205.16,271211,,,D*7C
$GPRMC,204322.000,A,3748.7121,N,12217.6207,W,1.91,201.56,271211,,,D*7A
$GPRMC,204323.000,A,3748.7116,N,12217.6211,W,1.98,198.75,271211,,,D*73
$GPRMC,204324.000,A,3748.7110,N,12217.6215,W,2.08,198.39,271211,,,D*74
$GPRMC,204325.000,A,3748.7102,N,12217.6219,W,2.37,202.49,271211,,,D*71
$GPRMC,204326.000,A,3748.7095,N,12217.6224,W,2.14,202.18,271211,,,D*76
$GPRMC,204327.000,A,3748.7089,N,12217.6229,W,2.24,201.89,271211,,,D*7F
$GPRMC,204328.000,A,3748.7083,N,12217.6233,W,1.80,197.56,271211,,,D*72
$GPRMC,204329.000,A,3748.7077,N,12217.6238,W,2.00,210.28,271211,,,D*7D
$GPRMC,204330.000,A,3748.7072,N,12217.6242,W,2.03,194.01,271211,,,D*7A
$GPRMC,204331.000,A,3748.7066,N,12217.6246,W,2.00,200.10,271211,,,D*77
$GPRMC,204332.000,A,3748.7060,N,12217.6250,W,1.95,199.66,271211,,,D*78
$GPRMC,204333.000,A,3748.7054,N,12217.6253,W,1.78,198.19,271211,,,D*77
$GPRMC,204334.000,A,3748.7048,N,12217.6258,W,2.28,207.05,271211,,,D*78
$GPRMC,204335.000,A,3748.7042,N,12217.6263,W,1.81,205.54,271211,,,D*7D
$GPRMC,204336.000,A,3748.7033,N,12217.6272,W,2.22,202.72,271211,,,D*71
$GPRMC,204337.000,A,3748.7027,N,12217.6278,W,0.68,191.64,271211,,,D*7D
$GPRMC,204338.000,A,3748.7026,N,12217.6279,W,1.91,42.15,271211,,,D*4C
$GPRMC,204339.000,A,3748.7028,N,12217.6275,W,2.05,13.15,271211,,,D*45
$GPRMC,204340.000,A,3748.7032,N,12217.6274,W,1.75,359.18,271211,,,D*75
$GPRMC,204341.000,A,3748.7034,N,12217.6276,W,0.20,294.52,271211,,,D*7F
$GPRMC,204342.000,A,3748.7032,N,12217.6280,W,0.93,208.19,271211,,,D*71
$GPRMC,204343.000,A,3748.7030,N,12217.6286,W,0.44,212.09,271211,,,D*74
$GPRMC,204344.000,A,3748.7027,N,12217.6290,W,0.22,194.08,271211,,,D*7E
$GPRMC,204345.000,A,3748.7027,N,12217.6293,W,0.37,117.57,271211,,,D*79
$GPRMC,204346.000,A,3748.7023,N,12217.6296,W,1.33,184.45,271211,,,D*77
$GPRMC,204347.000,A,3748.7017,N,12217.6301,W,1.01,208.15,271211,,,D*7D
$GPRMC,204348.000,A,3748.7012,N,12217.6309,W,1.06,240.44,271211,,,D*70
$GPRMC,204349.000,A,3748.7008,N,12217.6316,W,0.85,213.64,271211,,,D*7A
$GPRMC,204350.000,A,3748.7004,N,12217.6321,W,1.35,224.65,271211,,,D*75
$GPRMC,204351.000,A,3748.7000,N,12217.6326,W,1.15,210.69,271211,,,D*7E
$GPRMC,204352.000,A,3748.6994,N,12217.6333,W,1.16,219.74,271211,,,D*7A
$GPRMC,204353.000,A,3748.6989,N,12217.6335,W,1.80,201.68,271211,,,D*7A
$GPRMC,204354.000,A,3748.6984,N,12217.6338,W,1.91,208.39,271211,,,D*70
$GPRMC,204355.000,A,3748.6979,N,12217.6342,W,1.89,206.29,271211,,,D*78
$GPRMC,204356.000,A,3748.6974,N,12217.6346,W,1.91,206.41,271211,,,D*75
$GPRMC,204357.000,A,3748.6969,N,12217.6350,W,1.91,214.34,271211,,,D*7E
$GPRMC,204358.000,A,3748.6965,N,12217.6355,W,1.97,209.92,271211,,,D*7E
$GPRMC,204359.000,A,3748.6959,N,12217.6359,W,2.05,201.98,271211,,,D*76
$GPRMC,204400.000,A,3748.6954,N,12217.6362,W,1.82,201.44,271211,,,D*75
$GPRMC,204401.000,A,3748.6949,N,12217.6365,W,1.59,192.47,271211,,,D*73
$GPRMC,204402.000,A,3748.6944,N,12217.6367,W,1.69,199.49,271211,,,D*79
$GPRMC,204403.000,A,3748.6939,N,12217.6371,W,2.03,210.28,271211,,,D*7F
$GPRMC,204404.000,A,3748.6934,N,12217.6376,W,1.85,211.28,271211,,,D*7E
$GPRMC,204405.000,A,3748.6930,N,12217.6381,W,1.70,215.07,271211,,,D*70
$GPRMC,204406.000,A,3748.6924,N,12217.6383,W,1.69,209.06,271211,,,D*70
$GPRMC,204407.000,A,3748.6919,N,12217.6388,W,2.00,219.81,271211,,,D*76
$GPRMC,204408.000,A,3748.6915,N,12217.6393,W,1.95,218.22,271211,,,D*78
$GPRMC,204409.000,A,3748.6909,N,12217.6396,W,1.97,204.81,271211,,,D*77
$GPRMC,204410.000,A,3748.6902,N,12217.6401,W,2.54,209.86,271211,,,D*7B
$GPRMC,204411.000,A,3748.6895,N,12217.6407,W,2.60,212.67,271211,,,D*71
$GPRMC,204412.000,A,3748.6888,N,12217.6412,W,2.70,204.36,271211,,,D*78
$GPRMC,204413.000,A,3748.6881,N,12217.6417,W,2.32,198.29,271211,,,D*7B
$GPRMC,204414.000,A,3748.6874,N,12217.6421,W,2.38,202.83,271211,,,D*79
$GPRMC,204415.000,A,3748.6868,N,12217.6425,W,2.20,208.27,271211,,,D*7C
$GPRMC,204416.000,A,3748.6862,N,12217.6430,W,2.22,215.70,271211,,,D*7D
$GPRMC,204417.000,A,3748.6855,N,12217.6437,W,2.48,215.96,271211,,,D*7B
$GPRMC,204418.000,A,3748.6849,N,12217.6441,W,2.44,200.25,271211,,,D*78
$GPRMC,204419.000,A,3748.6843,N,12217.6445,W,2.26,196.62,271211,,,D*7C
$GPRMC,204420.000,A,3748.6837,N,12217.6447,W,2.18,187.31,271211,,,D*7C
$GPRMC,204421.000,A,3748.6831,N,12217.6449,W,2.07,185.25,271211,,,D*7C
$GPRMC,204422.000,A,3748.6824,N,12217.6451,W,2.40,192.66,271211,,,D*70
$GPRMC,204423.000,A,3748.6818,N,12217.6454,W,2.30,194.99,271211,,,D*7A
$GPRMC,204424.000,A,3748.6812,N,12217.6456,W,2.03,179.29,271211,,,D*7D
$GPRMC,204425.000,A,3748.6807,N,12217.6459,W,1.90,184.65,271211,,,D*74
$GPRMC,204426.000,A,3748.6801,N,12217.6460,W,1.56,182.09,271211,,,D*7D
$GPRMC,204427.000,A,3748.6793,N,12217.6466,W,1.84,199.68,271211,,,D*7C
$GPRMC,204428.000,A,3748.6787,N,12217.6470,W,1.96,201.14,271211,,,D*7B
$GPRMC,204429.000,A,3748.6779,N,12217.6478,W,2.12,197.53,271211,,,D*73
$GPRMC,204430.000,A,3748.6772,N,12217.6484,W,1.90,199.53,271211,,,D*74
$GPRMC,204431.000,A,3748.6766,N,12217.6491,W,1.77,216.56,271211,,,D*7C
$GPRMC,204432.000,A,3748.6760,N,12217.6499,W,1.38,239.22,271211,,,D*74
$GPRMC,204433.000,A,3748.6755,N,12217.6511,W,1.31,235.45,271211,,,D*76
$GPRMC,204434.000,A,3748.6751,N,12217.6514,W,1.35,205.61,271211,,,D*71
$GPRMC,204435.000,A,3748.6748,N,12217.6524,W,1.35,221.96,271211,,,D*75
$GPRMC,204436.000,A,3748.6743,N,12217.6528,W,1.47,211.71,271211,,,D*7E
$GPRMC,204437.000,A,3748.6736,N,12217.6533,W,1.42,203.83,271211,,,D*7C
$GPRMC,204438.000,A,3748.6729,N,12217.6538,W,1.09,219.95,271211,,,D*75
$GPRMC,204439.000,A,3748.6726,N,12217.6539,W,0.66,195.48,271211,,,D*75
$GPRMC,204440.000,A,3748.6721,N,12217.6541,W,0.82,183.73,271211,,,D*76
$GPRMC,204441.000,A,3748.6715,N,12217.6546,W,1.29,206.21,271211,,,D*7E
$GPRMC,204442.000,A,3748.6711,N,12217.6549,W,1.33,187.82,271211,,,D*7E
$GPRMC,204443.000,A,3748.6703,N,12217.6555,W,1.05,191.17,271211,,,D*7F
$GPRMC,204444.000,A,3748.6696,N,12217.6556,W,0.96,185.56,271211,,,D*7D
$GPRMC,204445.000,A,3748.6691,N,12217.6558,W,1.27,214.23,271211,,,D*77
$GPRMC,204446.000,A,3748.6685,N,12217.6564,W,1.83,211.91,271211,,,D*7C
$GPRMC,204447.000,A,3748.6680,N,12217.6569,W,1.71,219.65,271211,,,D*7B
$GPRMC,204448.000,A,3748.6675,N,12217.6573,W,1.48,225.19,271211,,,D*7B
$GPRMC,204449.000,A,3748.6671,N,12217.6576,W,1.58,201.94,271211,,,D*79
$GPRMC,204450.000,A,3748.6667,N,12217.6578,W,1.45,221.32,271211,,,D*7A
$GPRMC,204451.000,A,3748.6660,N,12217.6586,W,2.02,214.29,271211,,,D*71
$GPRMC,204452.000,A,3748.6653,N,12217.6595,W,2.06,215.38,271211,,,D*75
$GPRMC,204453.000,A,3748.6648,N,12217.6600,W,1.84,210.87,271211,,,D*79
$GPRMC,204454.000,A,3748.6645,N,12217.6603,W,1.50,196.81,271211,,,D*72
$GPRMC,204455.000,A,3748.6642,N,12217.6606,W,1.80,192.15,271211,,,D*75
$GPRMC,204456.000,A,3748.6637,N,12217.6607,W,1.70,183.53,271211,,,D*78
$GPRMC,204457.000,A,3748.6633,N,12217.6609,W,1.62,199.29,271211,,,D*76
$GPRMC,204458.000,A,3748.6628,N,12217.6613,W,1.45,217.55,271211,,,D*73
$GPRMC,204459.000,A,3748.6624,N,12217.6618,W,1.77,210.73,271211,,,D*77
$GPRMC,204500.000,A,3748.6619,N,12217.6621,W,1.88,200.85,271211,,,D*76
$GPRMC,204501.000,A,3748.6614,N,12217.6624,W,1.82,201.38,271211,,,D*72
$GPRMC,204502.000,A,3748.6609,N,12217.6627,W,1.64,202.45,271211,,,D*7F
$GPRMC,204503.000,A,3748.6604,N,12217.6630,W,1.76,197.29,271211,,,D*73
$GPRMC,204504.000,A,3748.6599,N,12217.6632,W,1.75,193.25,271211,,,D*7A
$GPRMC,204505.000,A,3748.6594,N,12217.6636,W,1.92,201.58,271211,,,D*79
$GPRMC,204506.000,A,3748.6588,N,12217.6641,W,2.21,201.13,271211,,,D*73
$GPRMC,204507.000,A,3748.6581,N,12217.6646,W,1.94,199.45,271211,,,D*70
$GPRMC,204508.000,A,3748.6576,N,12217.6650,W,2.00,202.25,271211,,,D*79
$GPRMC,204509.000,A,3748.6570,N,12217.6654,W,2.13,214.00,271211,,,D*78
$GPRMC,204510.000,A,3748.6564,N,12217.6658,W,2.03,195.13,271211,,,D*70
$GPRMC,204511.000,A,3748.6559,N,12217.6661,W,1.65,194.47,271211,,,D*76
$GPRMC,204512.000,A,3748.6555,N,12217.6664,W,1.44,215.33,271211,,,D*76
$GPRMC,204513.000,A,3748.6550,N,12217.6668,W,2.11,219.24,271211,,,D*77
$GPRMC,204514.000,A,3748.6545,N,12217.6673,W,2.23,215.47,271211,,,D*76
$GPRMC,204515.000,A,3748.6539,N,12217.6678,W,2.11,207.94,271211,,,D*7B
$GPRMC,204516.000,A,3748.6533,N,12217.6682,W,2.21,205.61,271211,,,D*7C
$GPRMC,204517.000,A,3748.6527,N,12217.6686,W,2.24,203.94,271211,,,D*75
$GPRMC,204518.000,A,3748.6520,N,12217.6690,W,2.28,201.99,271211,,,D*79
$GPRMC,204519.000,A,3748.6514,N,12217.6694,W,2.16,204.08,271211,,,D*7B
$GPRMC,204520.000,A,3748.6508,N,12217.6698,W,2.00,207.49,271211,,,D*71
$GPRMC,204521.000,A,3748.6503,N,12217.6702,W,2.04,206.17,271211,,,D*77
$GPRMC,204522.000,A,3748.6498,N,12217.6706,W,1.11,208.34,271211,,,D*7B
$GPRMC,204523.000,A,3748.6497,N,12217.6708,W,0.22,139.43,271211,,,D*7B
$GPRMC,204524.000,A,3748.6497,N,12217.6708,W,0.85,230.60,271211,,,D*7A
$GPRMC,204525.000,A,3748.6494,N,12217.6711,W,1.34,189.87,271211,,,D*73
$GPRMC,204526.000,A,3748.6489,N,12217.6714,W,1.91,205.05,271211,,,D*7B
$GPRMC,204527.000,A,3748.6485,N,12217.6719,W,1.71,220.20,271211,,,D*75
$GPRMC,204528.000,A,3748.6481,N,12217.6724,W,1.72,215.62,271211,,,D*73
$GPRMC,204529.000,A,3748.6477,N,12217.6728,W,1.75,207.77,271211,,,D*77
$GPRMC,204530.000,A,3748.6471,N,12217.6732,W,2.19,198.61,271211,,,D*79
$GPRMC,204531.000,A,3748.6465,N,12217.6735,W,1.96,184.82,271211,,,D*7E
$GPRMC,204532.000,A,3748.6460,N,12217.6738,W,1.60,193.01,271211,,,D*71
$GPRMC,204533.000,A,3748.6454,N,12217.6744,W,2.33,210.37,271211,,,D*74
$GPRMC,204534.000,A,3748.6449,N,12217.6748,W,1.32,185.74,271211,,,D*79
$GPRMC,204535.000,A,3748.6443,N,12217.6753,W,1.36,168.11,271211,,,D*7C
$GPRMC,204536.000,A,3748.6437,N,12217.6755,W,1.45,165.85,271211,,,D*7E
$GPRMC,204537.000,A,3748.6430,N,12217.6759,W,0.95,171.90,271211,,,D*79
$GPRMC,204538.000,A,3748.6424,N,12217.6761,W,0.54,183.36,271211,,,D*74
$GPRMC,204539.000,A,3748.6419,N,12217.6763,W,0.34,136.46,271211,,,D*76
$GPRMC,204540.000,A,3748.6416,N,12217.6764,W,0.29,196.91,271211,,,D*7C
$GPRMC,204541.000,A,3748.6412,N,12217.6770,W,0.61,233.51,271211,,,D*70
