$ADVER,3080,2.3
$GPRMC,221104.172,A,3748.8008,N,12217.8653,W,0.14,27.33,261211,,,A*4C
$GPRMC,221105.172,A,3748.7995,N,12217.8656,W,0.08,77.59,261211,,,A*4E
$GPRMC,221106.000,A,3748.7996,N,12217.8656,W,0.07,72.73,261211,,,A*48
$GPRMC,221107.000,A,3748.7996,N,12217.8656,W,0.07,103.82,261211,,,A*70
$GPRMC,221108.000,A,3748.7996,N,12217.8656,W,0.07,98.22,261211,,,A*46
$GPRMC,221109.000,A,3748.7997,N,12217.8655,W,0.08,89.13,261211,,,A*48
$GPRMC,221109.000,A,3748.7997,N,12217.8655,W,0.05,110.97,261211,,,A*78
$GPRMC,221110.000,A,3748.7998,N,12217.8655,W,0.06,91.34,261211,,,A*4D
$GPRMC,221111.000,A,3748.7998,N,12217.8655,W,0.06,92.17,261211,,,A*4E
$GPRMC,221112.000,A,3748.7998,N,12217.8655,W,0.03,134.94,261211,,,A*7E
$GPRMC,221113.000,A,3748.7999,N,12217.8654,W,0.07,96.74,261211,,,A*4C
$GPRMC,221114.000,A,3748.7999,N,12217.8654,W,0.07,109.07,261211,,,A*78
$GPRMC,221115.000,A,3748.7999,N,12217.8654,W,0.05,113.08,261211,,,A*7F
$GPRMC,221116.000,A,3748.8000,N,12217.8654,W,0.04,99.31,261211,,,A*42
$GPRMC,221117.000,A,3748.8000,N,12217.8653,W,0.04,122.11,261211,,,A*77
$GPRMC,221118.000,A,3748.8000,N,12217.8653,W,0.05,141.53,261211,,,A*7A
$GPRMC,221119.000,A,3748.8001,N,12217.8653,W,0.03,130.22,261211,,,A*7C
$GPRMC,221120.000,A,3748.8001,N,12217.8652,W,0.06,150.79,261211,,,A*7A
$GPRMC,221121.000,A,3748.8011,N,12217.8643,W,0.04,166.36,261211,,,A*76
$GPRMC,221122.000,A,3748.8017,N,12217.8638,W,0.04,170.50,261211,,,A*78
$GPRMC,221123.000,A,3748.8021,N,12217.8634,W,0.07,189.31,261211,,,A*72
$GPRMC,221124.000,A,3748.8024,N,12217.8632,W,0.06,190.62,261211,,,A*79
$GPRMC,221125.000,A,3748.8026,N,12217.8630,W,0.03,222.28,261211,,,A*79
$GPRMC,221126.000,A,3748.8028,N,12217.8628,W,0.07,199.27,261211,,,A*75
$GPRMC,221127.000,A,3748.8029,N,12217.8625,W,0.10,170.89,261211,,,A*7D
$GPRMC,221128.000,A,3748.8029,N,12217.8623,W,0.07,183.34,261211,,,A*78
$GPRMC,221129.000,A,3748.8030,N,12217.8621,W,0.07,188.50,261211,,,A*7A
$GPRMC,221130.000,A,3748.8030,N,12217.8620,W,0.08,184.31,261211,,,A*77
$GPRMC,221131.000,A,3748.8030,N,12217.8618,W,0.10,176.19,261211,,,A*73
$GPRMC,221132.000,A,3748.8030,N,12217.8617,W,0.07,192.26,261211,,,A*7F
$GPRMC,221133.000,A,3748.8025,N,12217.8617,W,0.04,201.80,261211,,,A*7C
$GPRMC,221134.000,A,3748.8021,N,12217.8617,W,0.05,205.75,261211,,,A*70
$GPRMC,221135.000,A,3748.8019,N,12217.8616,W,0.04,199.11,261211,,,A*7E
$GPRMC,221136.000,A,3748.8017,N,12217.8616,W,0.04,220.63,261211,,,A*77
$GPRMC,221137.000,A,3748.8016,N,12217.8616,W,0.03,133.11,261211,,,A*74
$GPRMC,221138.000,A,3748.8015,N,12217.8616,W,0.07,256.43,261211,,,A*7B
$GPRMC,221139.000,A,3748.8014,N,12217.8617,W,0.02,174.09,261211,,,A*72
$GPRMC,221140.000,A,3748.8014,N,12217.8617,W,0.07,49.80,261211,,,A*47
$GPRMC,221141.000,A,3748.8014,N,12217.8616,W,0.37,74.83,261211,,,A*49
$GPRMC,221142.000,A,3748.8013,N,12217.8616,W,0.09,142.71,261211,,,A*79
$GPRMC,221143.000,A,3748.8013,N,12217.8616,W,0.02,75.32,261211,,,A*41
$GPRMC,221144.000,A,3748.8013,N,12217.8616,W,0.09,232.44,261211,,,A*7D
$GPRMC,221145.000,A,3748.8012,N,12217.8615,W,0.89,128.97,261211,,,A*70
$GPRMC,221146.000,A,3748.8007,N,12217.8612,W,0.74,117.69,261211,,,A*7F
$GPRMC,221147.000,A,3748.8003,N,12217.8608,W,0.45,169.30,261211,,,A*76
$GPRMC,221148.000,A,3748.8001,N,12217.8608,W,0.14,161.75,261211,,,A*76
$GPRMC,221149.000,A,3748.7999,N,12217.8606,W,0.15,27.57,261211,,,A*4C
$GPRMC,221150.000,A,3748.7998,N,12217.8605,W,0.41,76.70,261211,,,A*46
$GPRMC,221151.000,A,3748.7998,N,12217.8607,W,0.54,337.02,261211,,,A*72
$GPRMC,221152.000,A,3748.7997,N,12217.8611,W,0.18,13.16,261211,,,A*41
$GPRMC,221153.000,A,3748.7997,N,12217.8613,W,0.42,27.82,261211,,,A*47
$GPRMC,221154.000,A,3748.7999,N,12217.8614,W,0.08,306.82,261211,,,A*77
$GPRMC,221155.000,A,3748.8000,N,12217.8615,W,0.47,0.81,261211,,,A*7C
$GPRMC,221156.000,A,3748.7999,N,12217.8618,W,1.49,229.21,261211,,,A*78
$GPRMC,221157.000,A,3748.7999,N,12217.8618,W,0.17,135.83,261211,,,A*75
$GPRMC,221158.000,A,3748.7997,N,12217.8619,W,0.83,324.85,261211,,,A*7C
$GPRMC,221159.000,A,3748.7997,N,12217.8619,W,0.27,82.20,261211,,,A*43
$GPRMC,221200.000,A,3748.7996,N,12217.8618,W,0.45,57.45,261211,,,A*43
$GPRMC,221201.000,A,3748.7995,N,12217.8616,W,0.44,57.56,261211,,,A*4C
$GPRMC,221202.000,A,3748.7995,N,12217.8617,W,0.13,292.34,261211,,,A*73
$GPRMC,221203.000,A,3748.7995,N,12217.8618,W,0.08,206.74,261211,,,A*7E
$GPRMC,221204.000,A,3748.7994,N,12217.8617,W,0.26,125.00,261211,,,A*7A
$GPRMC,221205.000,A,3748.7993,N,12217.8613,W,0.37,125.05,261211,,,A*7D
$GPRMC,221206.000,A,3748.7991,N,12217.8609,W,0.28,75.10,261211,,,A*49
$GPRMC,221207.000,A,3748.7991,N,12217.8604,W,0.17,90.45,261211,,,A*42
$GPRMC,221208.000,A,3748.7992,N,12217.8603,W,0.09,27.90,261211,,,A*42
$GPRMC,221209.000,A,3748.7993,N,12217.8601,W,0.23,106.38,261211,,,A*78
$GPRMC,221210.000,A,3748.7993,N,12217.8599,W,0.14,41.32,261211,,,A*4E
$GPRMC,221211.000,A,3748.7994,N,12217.8598,W,0.25,337.94,261211,,,A*75
$GPRMC,221212.000,A,3748.7994,N,12217.8597,W,0.27,329.05,261211,,,A*7C
$GPRMC,221213.000,A,3748.7995,N,12217.8596,W,0.36,4.86,261211,,,A*7A
$GPRMC,221214.000,A,3748.7996,N,12217.8596,W,0.40,12.59,261211,,,A*4A
$GPRMC,221215.000,A,3748.7997,N,12217.8597,W,0.13,341.38,261211,,,A*7F
$GPRMC,221216.000,A,3748.7997,N,12217.8597,W,0.09,229.22,261211,,,A*73
$GPRMC,221217.000,A,3748.7997,N,12217.8597,W,0.21,105.17,261211,,,A*73
$GPRMC,221218.000,A,3748.7998,N,12217.8598,W,0.21,326.14,261211,,,A*7C
$GPRMC,221219.000,A,3748.7998,N,12217.8598,W,0.06,326.81,261211,,,A*74
$GPRMC,221220.000,A,3748.7999,N,12217.8599,W,0.26,303.21,261211,,,A*71
$GPRMC,221221.000,A,3748.7999,N,12217.8600,W,0.09,321.60,261211,,,A*7B
$GPRMC,221222.000,A,3748.8000,N,12217.8601,W,0.18,324.77,261211,,,A*7C
$GPRMC,221223.000,A,3748.8001,N,12217.8602,W,0.08,337.41,261211,,,A*79
$GPRMC,221224.000,A,3748.8001,N,12217.8602,W,0.03,167.10,261211,,,A*76
$GPRMC,221225.000,A,3748.8001,N,12217.8603,W,0.02,306.41,261211,,,A*76
$GPRMC,221226.000,A,3748.8002,N,12217.8603,W,0.12,102.83,261211,,,A*7F
$GPRMC,221227.000,A,3748.8002,N,12217.8603,W,0.05,95.16,261211,,,A*4B
$GPRMC,221228.000,A,3748.8002,N,12217.8603,W,0.14,338.45,261211,,,A*76
$GPRMC,221229.000,A,3748.8002,N,12217.8604,W,0.28,312.07,261211,,,A*71
$GPRMC,221230.000,A,3748.8003,N,12217.8604,W,0.09,95.88,261211,,,A*40
$GPRMC,221231.000,A,3748.8003,N,12217.8604,W,0.15,117.41,261211,,,A*72
$GPRMC,221232.000,A,3748.8002,N,12217.8604,W,0.15,99.48,261211,,,A*4E
$GPRMC,221233.000,A,3748.8002,N,12217.8604,W,0.20,328.56,261211,,,A*7F
$GPRMC,221234.000,A,3748.8003,N,12217.8604,W,0.08,358.16,261211,,,A*70
$GPRMC,221235.000,A,3748.8003,N,12217.8604,W,0.24,309.02,261211,,,A*7E
$GPRMC,221236.000,A,3748.8002,N,12217.8604,W,0.10,89.69,261211,,,A*4D
$GPRMC,221237.000,A,3748.8002,N,12217.8604,W,0.13,93.40,261211,,,A*4F
$GPRMC,221238.000,A,3748.8002,N,12217.8604,W,0.13,115.95,261211,,,A*77
$GPRMC,221239.000,A,3748.8002,N,12217.8603,W,0.09,22.58,261211,,,A*4E
$GPRMC,221240.000,A,3748.8002,N,12217.8603,W,0.08,50.42,261211,,,A*4F
$GPRMC,221241.000,A,3748.8002,N,12217.8603,W,0.13,329.71,261211,,,A*79
$GPRMC,221242.000,A,3748.8002,N,12217.8603,W,0.20,317.64,261211,,,A*73
$GPRMC,221243.000,A,3748.8002,N,12217.8604,W,0.10,312.46,261211,,,A*73
$GPRMC,221244.000,A,3748.8002,N,12217.8604,W,0.15,334.04,261211,,,A*73
$GPRMC,221245.000,A,3748.8002,N,12217.8603,W,0.16,112.28,261211,,,A*7E
$GPRMC,221246.000,A,3748.8001,N,12217.8603,W,0.23,133.20,261211,,,A*73
$GPRMC,221247.000,A,3748.8000,N,12217.8600,W,0.48,147.62,261211,,,A*78
$GPRMC,221248.000,A,3748.7994,N,12217.8589,W,1.40,116.78,261211,,,A*78
$GPRMC,221249.000,A,3748.7990,N,12217.8584,W,1.65,120.50,261211,,,A*78
$GPRMC,221250.000,A,3748.7988,N,12217.8579,W,1.98,123.15,261211,,,A*7B
$GPRMC,221251.000,A,3748.7984,N,12217.8574,W,2.18,127.91,261211,,,A*78
$GPRMC,221252.000,A,3748.7980,N,12217.8569,W,1.87,126.28,261211,,,A*75
$GPRMC,221253.000,A,3748.7976,N,12217.8563,W,1.89,124.25,261211,,,A*76
$GPRMC,221254.000,A,3748.7973,N,12217.8557,W,2.00,117.19,261211,,,A*7E
$GPRMC,221255.000,A,3748.7969,N,12217.8549,W,2.49,115.89,261211,,,A*7D
$GPRMC,221256.000,A,3748.7966,N,12217.8541,W,2.21,110.72,261211,,,A*76
$GPRMC,221257.000,A,3748.7963,N,12217.8534,W,2.34,117.52,261211,,,A*71
$GPRMC,221258.000,A,3748.7960,N,12217.8527,W,2.09,117.99,261211,,,A*76
$GPRMC,221259.000,A,3748.7957,N,12217.8520,W,2.11,121.80,261211,,,A*70
$GPRMC,221300.000,A,3748.7954,N,12217.8514,W,1.77,121.79,261211,,,A*7C
$GPRMC,221301.000,A,3748.7950,N,12217.8507,W,1.98,123.25,261211,,,A*71
$GPRMC,221302.000,A,3748.7947,N,12217.8502,W,1.96,120.40,261211,,,A*7F
$GPRMC,221303.000,A,3748.7944,N,12217.8496,W,2.24,113.75,261211,,,A*7D
$GPRMC,221304.000,A,3748.7940,N,12217.8489,W,2.24,111.66,261211,,,A*70
$GPRMC,221305.000,A,3748.7937,N,12217.8481,W,2.24,116.49,261211,,,A*73
$GPRMC,221306.000,A,3748.7935,N,12217.8474,W,2.29,112.32,261211,,,A*7D
$GPRMC,221307.000,A,3748.7931,N,12217.8466,W,2.20,115.46,261211,,,A*76
$GPRMC,221308.000,A,3748.7927,N,12217.8460,W,1.93,117.64,261211,,,A*71
$GPRMC,221309.000,A,3748.7922,N,12217.8457,W,1.54,114.08,261211,,,A*73
$GPRMC,221310.000,A,3748.7920,N,12217.8452,W,1.79,114.81,261211,,,A*72
$GPRMC,221311.000,A,3748.7917,N,12217.8446,W,1.74,112.86,261211,,,A*7E
$GPRMC,221312.000,A,3748.7914,N,12217.8438,W,2.16,116.36,261211,,,A*7F
$GPRMC,221313.000,A,3748.7911,N,12217.8430,W,2.35,113.23,261211,,,A*73
$GPRMC,221314.000,A,3748.7908,N,12217.8423,W,2.07,120.80,261211,,,A*76
$GPRMC,221315.000,A,3748.7903,N,12217.8415,W,2.51,127.51,261211,,,A*71
$GPRMC,221316.000,A,3748.7899,N,12217.8405,W,2.30,123.04,261211,,,A*72
$GPRMC,221317.000,A,3748.7894,N,12217.8398,W,2.10,116.34,261211,,,A*7A
$GPRMC,221318.000,A,3748.7890,N,12217.8390,W,2.00,121.47,261211,,,A*78
$GPRMC,221319.000,A,3748.7886,N,12217.8382,W,1.84,116.20,261211,,,A*77
$GPRMC,221320.000,A,3748.7882,N,12217.8374,W,2.05,123.06,261211,,,A*78
$GPRMC,221321.000,A,3748.7878,N,12217.8366,W,2.45,126.43,261211,,,A*7F
$GPRMC,221322.000,A,3748.7872,N,12217.8358,W,2.55,126.11,261211,,,A*7D
$GPRMC,221323.000,A,3748.7868,N,12217.8349,W,2.61,122.30,261211,,,A*77
$GPRMC,221324.000,A,3748.7864,N,12217.8340,W,2.33,116.82,261211,,,A*7C
$GPRMC,221325.000,A,3748.7860,N,12217.8332,W,2.29,109.51,261211,,,A*77
$GPRMC,221326.000,A,3748.7857,N,12217.8324,W,2.16,109.62,261211,,,A*7B
$GPRMC,221327.000,A,3748.7854,N,12217.8316,W,2.39,121.55,261211,,,A*7B
$GPRMC,221328.000,A,3748.7849,N,12217.8307,W,2.12,117.81,261211,,,A*7D
$GPRMC,221329.000,A,3748.7846,N,12217.8299,W,2.19,110.78,261211,,,A*7F
$GPRMC,221330.000,A,3748.7843,N,12217.8291,W,1.86,100.10,261211,,,A*70
$GPRMC,221331.000,A,3748.7840,N,12217.8284,W,1.88,100.52,261211,,,A*7E
$GPRMC,221332.000,A,3748.7837,N,12217.8276,W,1.89,110.64,261211,,,A*75
$GPRMC,221333.000,A,3748.7832,N,12217.8269,W,1.78,129.77,261211,,,A*79
$GPRMC,221334.000,A,3748.7827,N,12217.8263,W,1.89,126.47,261211,,,A*72
$GPRMC,221335.000,A,3748.7821,N,12217.8257,W,2.35,117.56,261211,,,A*74
$GPRMC,221336.000,A,3748.7817,N,12217.8248,W,2.58,113.83,261211,,,A*7B
$GPRMC,221337.000,A,3748.7813,N,12217.8240,W,2.38,123.15,261211,,,A*7C
$GPRMC,221338.000,A,3748.7807,N,12217.8233,W,2.32,121.98,261211,,,A*7F
$GPRMC,221339.000,A,3748.7803,N,12217.8224,W,2.40,113.22,261211,,,D*7C
$GPRMC,221340.000,A,3748.7799,N,12217.8214,W,2.19,119.96,261211,,,D*74
$GPRMC,221341.000,A,3748.7794,N,12217.8204,W,2.29,118.75,261211,,,D*76
$GPRMC,221342.000,A,3748.7788,N,12217.8196,W,2.18,121.95,261211,,,D*76
$GPRMC,221343.000,A,3748.7783,N,12217.8187,W,2.39,114.81,261211,,,D*7C
$GPRMC,221344.000,A,3748.7780,N,12217.8177,W,2.27,111.53,261211,,,D*72
$GPRMC,221345.000,A,3748.7777,N,12217.8168,W,2.31,116.20,261211,,,D*71
$GPRMC,221346.000,A,3748.7774,N,12217.8158,W,2.31,113.98,261211,,,D*74
$GPRMC,221347.000,A,3748.7770,N,12217.8148,W,2.36,114.61,261211,,,D*76
$GPRMC,221348.000,A,3748.7765,N,12217.8140,W,2.30,123.13,261211,,,D*72
$GPRMC,221349.000,A,3748.7759,N,12217.8133,W,2.57,124.21,261211,,,D*7F
$GPRMC,221350.000,A,3748.7755,N,12217.8122,W,2.71,120.71,261211,,,D*7E
$GPRMC,221351.000,A,3748.7751,N,12217.8113,W,2.44,120.82,261211,,,D*73
$GPRMC,221352.000,A,3748.7746,N,12217.8104,W,2.51,123.65,261211,,,D*7E
$GPRMC,221353.000,A,3748.7742,N,12217.8096,W,2.26,118.09,261211,,,D*73
$GPRMC,221354.000,A,3748.7738,N,12217.8087,W,2.57,115.43,261211,,,D*7C
$GPRMC,221355.000,A,3748.7732,N,12217.8080,W,2.61,123.72,261211,,,D*72
$GPRMC,221356.000,A,3748.7727,N,12217.8072,W,2.55,119.61,261211,,,D*74
$GPRMC,221357.000,A,3748.7722,N,12217.8063,W,2.33,120.76,261211,,,D*7C
$GPRMC,221358.000,A,3748.7718,N,12217.8055,W,2.42,120.31,261211,,,D*7A
$GPRMC,221359.000,A,3748.7713,N,12217.8046,W,2.31,116.26,261211,,,D*75
$GPRMC,221400.000,A,3748.7709,N,12217.8037,W,2.48,118.15,261211,,,D*73
$GPRMC,221401.000,A,3748.7705,N,12217.8027,W,2.48,116.49,261211,,,D*78
$GPRMC,221402.000,A,3748.7702,N,12217.8020,W,2.19,116.87,261211,,,D*7D
$GPRMC,221403.000,A,3748.7700,N,12217.8013,W,2.29,115.70,261211,,,D*76
$GPRMC,221404.000,A,3748.7697,N,12217.8006,W,2.22,113.37,261211,,,D*74
$GPRMC,221405.000,A,3748.7694,N,12217.7999,W,2.29,118.01,261211,,,D*73
$GPRMC,221406.000,A,3748.7691,N,12217.7993,W,2.39,121.52,261211,,,D*72
$GPRMC,221407.000,A,3748.7688,N,12217.7985,W,2.35,109.64,261211,,,D*7F
$GPRMC,221408.000,A,3748.7686,N,12217.7979,W,1.93,114.22,261211,,,D*7C
$GPRMC,221409.000,A,3748.7682,N,12217.7969,W,2.18,117.64,261211,,,D*79
$GPRMC,221410.000,A,3748.7677,N,12217.7960,W,2.02,114.64,261211,,,D*7A
$GPRMC,221411.000,A,3748.7673,N,12217.7950,W,2.05,115.09,261211,,,D*71
$GPRMC,221412.000,A,3748.7669,N,12217.7941,W,2.14,117.55,261211,,,D*72
$GPRMC,221413.000,A,3748.7664,N,12217.7933,W,2.44,122.97,261211,,,D*76
$GPRMC,221414.000,A,3748.7660,N,12217.7925,W,2.53,111.44,261211,,,D*7A
$GPRMC,221415.000,A,3748.7658,N,12217.7917,W,2.41,113.71,261211,,,D*76
$GPRMC,221416.000,A,3748.7655,N,12217.7910,W,2.18,114.19,261211,,,D*7A
$GPRMC,221417.000,A,3748.7652,N,12217.7903,W,2.12,121.38,261211,,,D*71
$GPRMC,221418.000,A,3748.7648,N,12217.7897,W,2.14,115.93,261211,,,D*79
$GPRMC,221419.000,A,3748.7644,N,12217.7889,W,1.75,111.42,261211,,,D*77
$GPRMC,221420.000,A,3748.7640,N,12217.7880,W,2.32,107.69,261211,,,D*7E
$GPRMC,221421.000,A,3748.7636,N,12217.7869,W,2.37,112.55,261211,,,D*77
$GPRMC,221422.000,A,3748.7632,N,12217.7860,W,2.29,115.79,261211,,,D*7F
$GPRMC,221423.000,A,3748.7626,N,12217.7852,W,2.61,124.45,261211,,,D*7B
$GPRMC,221424.000,A,3748.7618,N,12217.7846,W,2.66,127.43,261211,,,D*76
$GPRMC,221425.000,A,3748.7611,N,12217.7840,W,2.56,117.96,261211,,,D*70
$GPRMC,221426.000,A,3748.7601,N,12217.7827,W,2.45,115.52,261211,,,D*7B
$GPRMC,221427.000,A,3748.7595,N,12217.7816,W,2.31,110.87,261211,,,D*78
$GPRMC,221428.000,A,3748.7590,N,12217.7809,W,2.14,109.33,261211,,,D*7C
$GPRMC,221429.000,A,3748.7584,N,12217.7799,W,2.14,112.03,261211,,,D*77
$GPRMC,221430.000,A,3748.7579,N,12217.7793,W,2.17,116.81,261211,,,D*7A
$GPRMC,221431.000,A,3748.7574,N,12217.7785,W,2.49,115.95,261211,,,D*7C
$GPRMC,221432.000,A,3748.7569,N,12217.7776,W,2.30,118.52,261211,,,D*77
$GPRMC,221433.000,A,3748.7563,N,12217.7769,W,2.40,127.02,261211,,,D*7C
$GPRMC,221434.000,A,3748.7556,N,12217.7763,W,2.47,119.59,261211,,,D*73
$GPRMC,221435.000,A,3748.7550,N,12217.7756,W,2.63,119.67,261211,,,D*79
$GPRMC,221436.000,A,3748.7544,N,12217.7748,W,2.51,121.75,261211,,,D*79
$GPRMC,221437.000,A,3748.7540,N,12217.7741,W,2.38,116.61,261211,,,D*7B
$GPRMC,221438.000,A,3748.7535,N,12217.7734,W,2.48,114.29,261211,,,D*7D
$GPRMC,221439.000,A,3748.7530,N,12217.7727,W,2.37,122.16,261211,,,D*7A
$GPRMC,221440.000,A,3748.7525,N,12217.7719,W,2.32,117.14,261211,,,D*7C
$GPRMC,221441.000,A,3748.7520,N,12217.7712,W,2.45,121.72,261211,,,D*76
$GPRMC,221442.000,A,3748.7513,N,12217.7705,W,2.55,126.88,261211,,,D*70
$GPRMC,221443.000,A,3748.7506,N,12217.7695,W,2.53,121.05,261211,,,D*79
$GPRMC,221444.000,A,3748.7497,N,12217.7683,W,2.44,113.44,261211,,,D*72
$GPRMC,221445.000,A,3748.7493,N,12217.7677,W,2.44,110.01,261211,,,D*7E
$GPRMC,221446.000,A,3748.7489,N,12217.7670,W,2.35,115.00,261211,,,D*73
$GPRMC,221447.000,A,3748.7484,N,12217.7664,W,2.32,119.45,261211,,,D*70
$GPRMC,221448.000,A,3748.7478,N,12217.7658,W,2.51,117.85,261211,,,D*74
$GPRMC,221449.000,A,3748.7472,N,12217.7652,W,2.54,113.82,261211,,,D*73
$GPRMC,221450.000,A,3748.7467,N,12217.7644,W,2.61,118.96,261211,,,D*70
$GPRMC,221451.000,A,3748.7462,N,12217.7637,W,2.38,121.18,261211,,,D*70
$GPRMC,221452.000,A,3748.7458,N,12217.7631,W,2.44,117.29,261211,,,D*70
$GPRMC,221453.000,A,3748.7455,N,12217.7625,W,2.51,122.69,261211,,,D*7F
$GPRMC,221454.000,A,3748.7450,N,12217.7617,W,2.50,114.21,261211,,,D*74
$GPRMC,221455.000,A,3748.7446,N,12217.7610,W,2.31,114.47,261211,,,D*72
$GPRMC,221456.000,A,3748.7439,N,12217.7599,W,2.72,118.02,261211,,,D*71
$GPRMC,221457.000,A,3748.7433,N,12217.7590,W,2.44,113.84,261211,,,D*73
$GPRMC,221458.000,A,3748.7430,N,12217.7580,W,2.46,114.22,261211,,,D*77
$GPRMC,221459.000,A,3748.7427,N,12217.7570,W,2.58,109.92,261211,,,D*77
$GPRMC,221500.000,A,3748.7424,N,12217.7561,W,2.44,110.23,261211,,,D*76
$GPRMC,221501.000,A,3748.7422,N,12217.7552,W,2.51,105.79,261211,,,D*7E
$GPRMC,221502.000,A,3748.7419,N,12217.7544,W,2.18,116.82,261211,,,D*79
$GPRMC,221503.000,A,3748.7416,N,12217.7536,W,2.15,114.85,261211,,,D*7A
$GPRMC,221504.000,A,3748.7412,N,12217.7529,W,2.19,114.84,261211,,,D*7A
$GPRMC,221505.000,A,3748.7408,N,12217.7522,W,2.02,118.93,261211,,,D*7B
$GPRMC,221506.000,A,3748.7405,N,12217.7515,W,2.13,116.10,261211,,,D*74
$GPRMC,221507.000,A,3748.7402,N,12217.7508,W,2.18,111.92,261211,,,D*78
$GPRMC,221508.000,A,3748.7400,N,12217.7500,W,2.14,116.39,261211,,,D*77
$GPRMC,221509.000,A,3748.7398,N,12217.7493,W,2.21,117.20,261211,,,D*74
$GPRMC,221510.000,A,3748.7398,N,12217.7482,W,1.68,72.26,261211,,,D*46
$GPRMC,221511.000,A,3748.7386,N,12217.7463,W,1.78,54.79,261211,,,D*48
$GPRMC,221512.000,A,3748.7389,N,12217.7451,W,1.74,100.19,261211,,,D*7F
$GPRMC,221513.000,A,3748.7388,N,12217.7446,W,2.03,131.90,261211,,,D*79
$GPRMC,221514.000,A,3748.7385,N,12217.7444,W,2.49,124.22,261211,,,D*72
$GPRMC,221515.000,A,3748.7380,N,12217.7435,W,1.70,126.95,261211,,,D*77
$GPRMC,221516.000,A,3748.7375,N,12217.7427,W,1.65,117.55,261211,,,D*77
$GPRMC,221517.000,A,3748.7370,N,12217.7422,W,1.15,110.07,261211,,,D*71
$GPRMC,221518.000,A,3748.7369,N,12217.7415,W,1.97,102.41,261211,,,D*79
$GPRMC,221519.000,A,3748.7367,N,12217.7407,W,1.43,109.65,261211,,,D*71
$GPRMC,221520.000,A,3748.7364,N,12217.7399,W,2.16,109.74,261211,,,D*7B
$GPRMC,221521.000,A,3748.7360,N,12217.7390,W,1.60,108.00,261211,,,D*77
$GPRMC,221522.000,A,3748.7357,N,12217.7381,W,1.61,120.80,261211,,,D*73
$GPRMC,221523.000,A,3748.7353,N,12217.7373,W,2.01,117.22,261211,,,D*72
$GPRMC,221524.000,A,3748.7349,N,12217.7364,W,1.63,108.62,261211,,,D*75
$GPRMC,221525.000,A,3748.7346,N,12217.7357,W,1.76,100.97,261211,,,D*7D
$GPRMC,221526.000,A,3748.7342,N,12217.7348,W,1.50,109.40,261211,,,D*73
$GPRMC,221527.000,A,3748.7339,N,12217.7343,W,1.82,113.71,261211,,,A*76
$GPRMC,221528.000,A,3748.7335,N,12217.7335,W,1.85,116.33,261211,,,A*70
$GPRMC,221529.000,A,3748.7332,N,12217.7329,W,1.43,104.41,261211,,,A*77
$GPRMC,221530.000,A,3748.7332,N,12217.7322,W,1.06,95.76,261211,,,A*48
$GPRMC,221531.000,A,3748.7330,N,12217.7319,W,1.12,92.10,261211,,,A*41
$GPRMC,221532.000,A,3748.7328,N,12217.7315,W,1.76,116.37,261211,,,A*7D
$GPRMC,221533.000,A,3748.7323,N,12217.7313,W,1.61,119.60,261211,,,A*7A
$GPRMC,221534.000,A,3748.7323,N,12217.7307,W,1.58,109.14,261211,,,A*70
$GPRMC,221535.000,A,3748.7322,N,12217.7301,W,1.80,113.64,261211,,,A*7F
$GPRMC,221536.000,A,3748.7320,N,12217.7294,W,2.09,109.81,261211,,,A*71
$GPRMC,221537.000,A,3748.7318,N,12217.7286,W,2.30,110.96,261211,,,A*7C
$GPRMC,221538.000,A,3748.7315,N,12217.7277,W,2.40,106.21,261211,,,A*7C
$GPRMC,221539.000,A,3748.7312,N,12217.7268,W,2.29,110.88,261211,,,A*7F
$GPRMC,221540.000,A,3748.7309,N,12217.7260,W,2.50,117.90,261211,,,A*73
$GPRMC,221541.000,A,3748.7303,N,12217.7254,W,2.53,124.55,261211,,,A*75
$GPRMC,221542.000,A,3748.7299,N,12217.7246,W,2.32,121.40,261211,,,A*71
$GPRMC,221543.000,A,3748.7295,N,12217.7240,W,2.15,122.70,261211,,,A*7F
$GPRMC,221544.000,A,3748.7291,N,12217.7233,W,2.57,117.57,261211,,,A*7D
$GPRMC,221545.000,A,3748.7288,N,12217.7225,W,2.36,117.72,261211,,,A*73
$GPRMC,221546.000,A,3748.7285,N,12217.7216,W,2.40,110.69,261211,,,A*71
$GPRMC,221547.000,A,3748.7282,N,12217.7208,W,2.37,128.57,261211,,,A*7E
$GPRMC,221548.000,A,3748.7278,N,12217.7201,W,2.26,126.92,261211,,,A*7A
$GPRMC,221549.000,A,3748.7273,N,12217.7195,W,2.36,117.34,261211,,,A*71
$GPRMC,221550.000,A,3748.7270,N,12217.7187,W,2.48,111.69,261211,,,A*7E
$GPRMC,221551.000,A,3748.7269,N,12217.7177,W,2.70,92.30,261211,,,A*45
$GPRMC,221552.000,A,3748.7271,N,12217.7167,W,2.56,64.45,261211,,,A*41
$GPRMC,221553.000,A,3748.7277,N,12217.7162,W,2.59,38.67,261211,,,A*45
$GPRMC,221554.000,A,3748.7284,N,12217.7156,W,2.48,33.68,261211,,,A*4D
$GPRMC,221555.000,A,3748.7292,N,12217.7151,W,2.37,30.46,261211,,,A*4B
$GPRMC,221556.000,A,3748.7300,N,12217.7146,W,2.53,23.62,261211,,,A*42
$GPRMC,221557.000,A,3748.7308,N,12217.7141,W,2.50,28.91,261211,,,A*48
$GPRMC,221558.000,A,3748.7315,N,12217.7137,W,2.48,27.16,261211,,,A*43
$GPRMC,221559.000,A,3748.7322,N,12217.7133,W,2.44,22.44,261211,,,A*4C
$GPRMC,221600.000,A,3748.7330,N,12217.7129,W,2.47,19.61,261211,,,A*47
$GPRMC,221601.000,A,3748.7337,N,12217.7125,W,2.55,21.11,261211,,,A*42
$GPRMC,221602.000,A,3748.7344,N,12217.7121,W,2.47,27.13,261211,,,A*46
$GPRMC,221603.000,A,3748.7352,N,12217.7115,W,2.59,30.26,261211,,,A*48
$GPRMC,221604.000,A,3748.7359,N,12217.7109,W,2.35,31.12,261211,,,A*45
$GPRMC,221605.000,A,3748.7369,N,12217.7102,W,2.58,28.43,261211,,,A*4B
$GPRMC,221606.000,A,3748.7378,N,12217.7095,W,2.77,26.88,261211,,,A*43
$GPRMC,221607.000,A,3748.7386,N,12217.7089,W,2.70,29.44,261211,,,A*46
$GPRMC,221608.000,A,3748.7393,N,12217.7083,W,2.59,27.75,261211,,,A*40
$GPRMC,221609.000,A,3748.7400,N,12217.7078,W,2.74,23.89,261211,,,A*40
$GPRMC,221610.000,A,3748.7407,N,12217.7075,W,2.31,22.82,261211,,,A*49
$GPRMC,221611.000,A,3748.7412,N,12217.7071,W,2.45,24.35,261211,,,A*41
$GPRMC,221612.000,A,3748.7418,N,12217.7067,W,2.57,29.75,261211,,,A*45
$GPRMC,221613.000,A,3748.7424,N,12217.7062,W,2.62,27.80,261211,,,A*4C
$GPRMC,221614.000,A,3748.7430,N,12217.7057,W,2.53,30.58,261211,,,A*49
$GPRMC,221615.000,A,3748.7437,N,12217.7053,W,2.56,23.35,261211,,,A*47
$GPRMC,221616.000,A,3748.7443,N,12217.7049,W,2.68,25.09,261211,,,A*48
$GPRMC,221617.000,A,3748.7449,N,12217.7044,W,2.43,32.77,261211,,,A*48
$GPRMC,221618.000,A,3748.7455,N,12217.7037,W,2.39,26.38,261211,,,A*4D
$GPRMC,221619.000,A,3748.7459,N,12217.7032,W,2.10,29.97,261211,,,A*44
$GPRMC,221620.000,A,3748.7464,N,12217.7027,W,2.66,22.14,261211,,,A*45
$GPRMC,221621.000,A,3748.7470,N,12217.7022,W,2.31,19.20,261211,,,A*49
$GPRMC,221622.000,A,3748.7475,N,12217.7018,W,2.54,14.21,261211,,,A*49
$GPRMC,221623.000,A,3748.7481,N,12217.7015,W,2.66,14.70,261211,,,A*4B
$GPRMC,221624.000,A,3748.7488,N,12217.7006,W,2.29,26.19,261211,,,A*42
$GPRMC,221625.000,A,3748.7492,N,12217.7000,W,1.70,26.28,261211,,,A*43
$GPRMC,221626.000,A,3748.7496,N,12217.6998,W,1.74,23.39,261211,,,A*4C
$GPRMC,221627.000,A,3748.7505,N,12217.6993,W,2.02,21.75,261211,,,A*45
$GPRMC,221628.000,A,3748.7512,N,12217.6988,W,2.25,30.42,261211,,,A*47
$GPRMC,221629.000,A,3748.7520,N,12217.6981,W,2.19,35.28,261211,,,A*48
$GPRMC,221630.000,A,3748.7524,N,12217.6974,W,2.37,30.71,261211,,,A*4B
$GPRMC,221631.000,A,3748.7529,N,12217.6969,W,1.96,27.28,261211,,,A*49
$GPRMC,221632.000,A,3748.7532,N,12217.6965,W,1.74,16.11,261211,,,A*48
$GPRMC,221633.000,A,3748.7536,N,12217.6961,W,1.84,21.51,261211,,,A*46
$GPRMC,221634.000,A,3748.7542,N,12217.6957,W,2.24,19.97,261211,,,A*4F
$GPRMC,221635.000,A,3748.7549,N,12217.6952,W,2.39,23.20,261211,,,A*49
$GPRMC,221636.000,A,3748.7556,N,12217.6948,W,2.69,21.31,261211,,,A*48
$GPRMC,221637.000,A,3748.7562,N,12217.6943,W,2.59,16.08,261211,,,A*48
$GPRMC,221638.000,A,3748.7569,N,12217.6938,W,2.55,27.18,261211,,,A*4F
$GPRMC,221639.000,A,3748.7576,N,12217.6932,W,2.35,29.91,261211,,,A*43
$GPRMC,221640.000,A,3748.7581,N,12217.6926,W,2.29,35.94,261211,,,A*45
$GPRMC,221641.000,A,3748.7586,N,12217.6920,W,2.33,34.22,261211,,,D*47
$GPRMC,221642.000,A,3748.7591,N,12217.6913,W,2.87,37.62,261211,,,D*4A
$GPRMC,221643.000,A,3748.7597,N,12217.6906,W,2.54,29.07,261211,,,D*4B
$GPRMC,221644.000,A,3748.7603,N,12217.6901,W,2.31,23.93,261211,,,D*41
$GPRMC,221645.000,A,3748.7609,N,12217.6895,W,2.36,23.92,261211,,,D*40
$GPRMC,221646.000,A,3748.7614,N,12217.6892,W,2.24,22.71,261211,,,D*47
$GPRMC,221647.000,A,3748.7620,N,12217.6887,W,2.46,25.53,261211,,,D*46
$GPRMC,221648.000,A,3748.7627,N,12217.6882,W,2.66,29.13,261211,,,D*41
$GPRMC,221649.000,A,3748.7633,N,12217.6877,W,2.61,26.45,261211,,,D*44
$GPRMC,221650.000,A,3748.7640,N,12217.6874,W,2.44,17.52,261211,,,D*48
$GPRMC,221651.000,A,3748.7647,N,12217.6869,W,2.69,23.48,261211,,,D*41
$GPRMC,221652.000,A,3748.7655,N,12217.6865,W,2.41,22.21,261211,,,D*49
$GPRMC,221653.000,A,3748.7661,N,12217.6861,W,2.25,25.22,261211,,,D*4D
$GPRMC,221654.000,A,3748.7668,N,12217.6856,W,2.58,19.37,261211,,,D*46
$GPRMC,221655.000,A,3748.7675,N,12217.6852,W,2.69,27.32,261211,,,D*45
$GPRMC,221656.000,A,3748.7683,N,12217.6846,W,2.81,27.09,261211,,,D*44
$GPRMC,221657.000,A,3748.7690,N,12217.6841,W,2.67,23.77,261211,,,D*45
$GPRMC,221658.000,A,3748.7696,N,12217.6837,W,2.67,23.87,261211,,,D*42
$GPRMC,221659.000,A,3748.7703,N,12217.6833,W,2.65,23.94,261211,,,D*4A
$GPRMC,221700.000,A,3748.7711,N,12217.6828,W,2.42,25.71,261211,,,D*46
$GPRMC,221701.000,A,3748.7718,N,12217.6822,W,2.35,33.01,261211,,,D*44
$GPRMC,221702.000,A,3748.7724,N,12217.6816,W,2.32,32.89,261211,,,D*49
$GPRMC,221703.000,A,3748.7731,N,12217.6809,W,2.60,32.42,261211,,,D*42
$GPRMC,221704.000,A,3748.7738,N,12217.6803,W,2.61,25.20,261211,,,D*45
$GPRMC,221705.000,A,3748.7745,N,12217.6798,W,2.53,31.68,261211,,,D*4B
$GPRMC,221706.000,A,3748.7751,N,12217.6791,W,2.72,33.61,261211,,,D*4C
$GPRMC,221707.000,A,3748.7758,N,12217.6785,W,2.80,31.06,261211,,,D*4F
$GPRMC,221708.000,A,3748.7765,N,12217.6779,W,2.54,23.90,261211,,,D*48
$GPRMC,221709.000,A,3748.7773,N,12217.6774,W,2.52,17.27,261211,,,D*4E
$GPRMC,221710.000,A,3748.7780,N,12217.6770,W,2.66,21.93,261211,,,D*43
$GPRMC,221711.000,A,3748.7787,N,12217.6765,W,2.95,21.18,261211,,,D*4E
$GPRMC,221712.000,A,3748.7794,N,12217.6761,W,2.69,27.05,261211,,,D*42
$GPRMC,221713.000,A,3748.7800,N,12217.6757,W,2.53,21.11,261211,,,D*4E
$GPRMC,221714.000,A,3748.7805,N,12217.6754,W,2.48,25.67,261211,,,D*40
$GPRMC,221715.000,A,3748.7813,N,12217.6748,W,2.52,24.91,261211,,,D*48
$GPRMC,221716.000,A,3748.7819,N,12217.6743,W,2.33,28.94,261211,,,D*44
$GPRMC,221717.000,A,3748.7826,N,12217.6737,W,2.49,28.53,261211,,,D*4C
$GPRMC,221718.000,A,3748.7832,N,12217.6733,W,2.38,19.06,261211,,,D*46
$GPRMC,221719.000,A,3748.7837,N,12217.6730,W,2.37,16.82,261211,,,D*4D
$GPRMC,221720.000,A,3748.7842,N,12217.6725,W,1.78,21.89,261211,,,D*46
$GPRMC,221721.000,A,3748.7846,N,12217.6720,W,2.30,15.03,261211,,,D*4C
$GPRMC,221722.000,A,3748.7851,N,12217.6714,W,2.68,24.98,261211,,,D*43
$GPRMC,221723.000,A,3748.7856,N,12217.6709,W,1.87,25.79,261211,,,D*45
$GPRMC,221724.000,A,3748.7861,N,12217.6703,W,1.99,25.56,261211,,,D*4E
$GPRMC,221725.000,A,3748.7868,N,12217.6699,W,2.50,19.78,261211,,,D*41
$GPRMC,221726.000,A,3748.7876,N,12217.6697,W,2.65,19.51,261211,,,D*4E
$GPRMC,221727.000,A,3748.7884,N,12217.6692,W,2.72,26.11,261211,,,D*49
$GPRMC,221728.000,A,3748.7890,N,12217.6685,W,2.22,17.52,261211,,,D*45
$GPRMC,221729.000,A,3748.7896,N,12217.6679,W,2.21,29.24,261211,,,D*4E
$GPRMC,221730.000,A,3748.7901,N,12217.6673,W,1.96,19.09,261211,,,D*40
$GPRMC,221731.000,A,3748.7907,N,12217.6666,W,1.96,22.17,261211,,,D*44
$GPRMC,221732.000,A,3748.7913,N,12217.6661,W,2.19,18.71,261211,,,D*48
$GPRMC,221733.000,A,3748.7918,N,12217.6650,W,2.67,30.72,261211,,,D*40
$GPRMC,221734.000,A,3748.7923,N,12217.6641,W,2.51,25.49,261211,,,D*46
$GPRMC,221735.000,A,3748.7929,N,12217.6631,W,2.50,27.15,261211,,,D*40
$GPRMC,221736.000,A,3748.7933,N,12217.6621,W,2.35,37.77,261211,,,D*4F
$GPRMC,221737.000,A,3748.7939,N,12217.6615,W,2.73,35.05,261211,,,D*46
$GPRMC,221738.000,A,3748.7944,N,12217.6609,W,2.23,31.39,261211,,,D*40
$GPRMC,221739.000,A,3748.7950,N,12217.6604,W,2.58,28.33,261211,,,D*47
$GPRMC,221740.000,A,3748.7957,N,12217.6599,W,2.30,21.71,261211,,,D*48
$GPRMC,221741.000,A,3748.7964,N,12217.6595,W,2.56,8.62,261211,,,D*7C
$GPRMC,221742.000,A,3748.7971,N,12217.6591,W,2.52,8.75,261211,,,D*7D
$GPRMC,221743.000,A,3748.7976,N,12217.6586,W,2.35,8.33,261211,,,D*7E
$GPRMC,221744.000,A,3748.7984,N,12217.6579,W,2.90,20.70,261211,,,D*46
$GPRMC,221745.000,A,3748.7992,N,12217.6571,W,2.88,22.93,261211,,,D*4E
$GPRMC,221746.000,A,3748.8000,N,12217.6565,W,3.06,35.51,261211,,,D*4A
$GPRMC,221747.000,A,3748.8009,N,12217.6559,W,3.22,30.57,261211,,,D*48
$GPRMC,221748.000,A,3748.8017,N,12217.6554,W,2.79,26.98,261211,,,D*4E
$GPRMC,221749.000,A,3748.8025,N,12217.6550,W,2.63,26.17,261211,,,D*46
$GPRMC,221750.000,A,3748.8032,N,12217.6547,W,2.62,34.74,261211,,,D*49
$GPRMC,221751.000,A,3748.8038,N,12217.6540,W,2.68,41.88,261211,,,D*4E
$GPRMC,221752.000,A,3748.8044,N,12217.6535,W,2.61,34.38,261211,,,D*44
$GPRMC,221753.000,A,3748.8050,N,12217.6529,W,2.63,29.76,261211,,,D*49
$GPRMC,221754.000,A,3748.8056,N,12217.6523,W,2.66,29.33,261211,,,D*46
$GPRMC,221755.000,A,3748.8062,N,12217.6517,W,2.85,25.69,261211,,,D*49
$GPRMC,221756.000,A,3748.8069,N,12217.6512,W,2.24,19.78,261211,,,D*40
$GPRMC,221757.000,A,3748.8076,N,12217.6512,W,2.23,13.62,261211,,,D*49
$GPRMC,221758.000,A,3748.8079,N,12217.6501,W,2.68,20.40,261211,,,D*44
$GPRMC,221759.000,A,3748.8083,N,12217.6491,W,2.33,26.94,261211,,,D*49
$GPRMC,221800.000,A,3748.8087,N,12217.6483,W,2.00,29.66,261211,,,D*4F
$GPRMC,221801.000,A,3748.8092,N,12217.6473,W,2.51,21.36,261211,,,D*4C
$GPRMC,221802.000,A,3748.8100,N,12217.6468,W,2.28,16.74,261211,,,D*43
$GPRMC,221803.000,A,3748.8106,N,12217.6466,W,1.57,6.92,261211,,,D*78
$GPRMC,221804.000,A,3748.8111,N,12217.6465,W,2.00,3.04,261211,,,D*71
$GPRMC,221805.000,A,3748.8117,N,12217.6463,W,1.92,25.37,261211,,,D*4C
$GPRMC,221806.000,A,3748.8121,N,12217.6457,W,1.87,53.44,261211,,,D*4C
$GPRMC,221807.000,A,3748.8124,N,12217.6449,W,1.71,51.52,261211,,,D*4B
$GPRMC,221808.000,A,3748.8128,N,12217.6444,W,1.80,42.83,261211,,,D*45
$GPRMC,221809.000,A,3748.8132,N,12217.6439,W,1.14,44.30,261211,,,D*46
$GPRMC,221810.000,A,3748.8137,N,12217.6432,W,2.01,37.90,261211,,,D*49
$GPRMC,221811.000,A,3748.8144,N,12217.6428,W,2.63,22.18,261211,,,D*47
$GPRMC,221812.000,A,3748.8150,N,12217.6422,W,2.04,39.17,261211,,,D*4F
$GPRMC,221813.000,A,3748.8155,N,12217.6416,W,2.42,39.11,261211,,,D*48
$GPRMC,221814.000,A,3748.8160,N,12217.6412,W,2.61,19.02,261211,,,D*4C
$GPRMC,221815.000,A,3748.8167,N,12217.6408,W,2.48,20.51,261211,,,D*46
$GPRMC,221816.000,A,3748.8175,N,12217.6405,W,2.44,13.93,261211,,,D*49
$GPRMC,221817.000,A,3748.8180,N,12217.6399,W,2.08,22.92,261211,,,D*4B
$GPRMC,221818.000,A,3748.8187,N,12217.6395,W,2.61,32.58,261211,,,D*47
$GPRMC,221819.000,A,3748.8194,N,12217.6390,W,2.58,31.53,261211,,,D*43
$GPRMC,221820.000,A,3748.8200,N,12217.6385,W,2.49,35.70,261211,,,D*46
$GPRMC,221821.000,A,3748.8206,N,12217.6379,W,2.60,30.94,261211,,,D*46
$GPRMC,221822.000,A,3748.8213,N,12217.6375,W,2.53,25.22,261211,,,D*44
$GPRMC,221823.000,A,3748.8220,N,12217.6371,W,2.60,21.38,261211,,,D*4E
$GPRMC,221824.000,A,3748.8227,N,12217.6367,W,2.53,23.90,261211,,,D*49
$GPRMC,221825.000,A,3748.8234,N,12217.6363,W,2.34,24.80,261211,,,D*49
$GPRMC,221826.000,A,3748.8241,N,12217.6359,W,2.81,26.05,261211,,,D*40
$GPRMC,221827.000,A,3748.8248,N,12217.6354,W,2.66,27.19,261211,,,D*40
$GPRMC,221828.000,A,3748.8255,N,12217.6350,W,2.57,28.30,261211,,,D*41
$GPRMC,221829.000,A,3748.8261,N,12217.6344,W,2.56,28.54,261211,,,D*41
$GPRMC,221830.000,A,3748.8268,N,12217.6340,W,2.43,20.87,261211,,,D*46
$GPRMC,221831.000,A,3748.8275,N,12217.6338,W,2.63,30.20,261211,,,D*4A
$GPRMC,221832.000,A,3748.8281,N,12217.6333,W,2.54,25.79,261211,,,D*45
$GPRMC,221833.000,A,3748.8287,N,12217.6327,W,2.28,37.46,261211,,,D*43
$GPRMC,221834.000,A,3748.8293,N,12217.6321,W,2.34,37.51,261211,,,D*4C
$GPRMC,221835.000,A,3748.8300,N,12217.6316,W,2.53,24.23,261211,,,D*44
$GPRMC,221836.000,A,3748.8308,N,12217.6311,W,2.61,30.24,261211,,,D*4B
$GPRMC,221837.000,A,3748.8315,N,12217.6305,W,2.62,32.49,261211,,,D*49
$GPRMC,221838.000,A,3748.8322,N,12217.6299,W,2.67,33.93,261211,,,D*45
$GPRMC,221839.000,A,3748.8329,N,12217.6294,W,2.66,30.91,261211,,,D*42
$GPRMC,221840.000,A,3748.8335,N,12217.6289,W,2.51,31.73,261211,,,D*44
$GPRMC,221841.000,A,3748.8342,N,12217.6286,W,2.46,25.46,261211,,,D*4F
$GPRMC,221842.000,A,3748.8349,N,12217.6282,W,2.57,26.63,261211,,,D*47
$GPRMC,221843.000,A,3748.8355,N,12217.6277,W,2.56,25.64,261211,,,D*44
$GPRMC,221844.000,A,3748.8363,N,12217.6273,W,2.67,25.53,261211,,,D*44
$GPRMC,221845.000,A,3748.8370,N,12217.6269,W,2.77,26.92,261211,,,D*43
$GPRMC,221846.000,A,3748.8377,N,12217.6264,W,2.73,26.93,261211,,,D*4F
$GPRMC,221847.000,A,3748.8384,N,12217.6260,W,2.73,26.77,261211,,,D*4C
$GPRMC,221848.000,A,3748.8391,N,12217.6256,W,2.62,25.74,261211,,,D*42
$GPRMC,221849.000,A,3748.8397,N,12217.6251,W,2.26,37.61,261211,,,D*45
$GPRMC,221850.000,A,3748.8401,N,12217.6246,W,1.39,60.86,261211,,,D*45
$GPRMC,221851.000,A,3748.8398,N,12217.6232,W,2.41,92.61,261211,,,D*48
$GPRMC,221852.000,A,3748.8396,N,12217.6224,W,2.36,108.98,261211,,,D*76
$GPRMC,221853.000,A,3748.8393,N,12217.6216,W,2.01,115.74,261211,,,D*79
$GPRMC,221854.000,A,3748.8388,N,12217.6206,W,2.29,121.75,261211,,,D*79
$GPRMC,221855.000,A,3748.8384,N,12217.6197,W,2.32,123.18,261211,,,D*7C
$GPRMC,221856.000,A,3748.8379,N,12217.6188,W,2.57,114.74,261211,,,D*7E
$GPRMC,221857.000,A,3748.8376,N,12217.6180,W,2.15,108.59,261211,,,D*7C
$GPRMC,221858.000,A,3748.8373,N,12217.6171,W,2.29,110.05,261211,,,D*77
$GPRMC,221859.000,A,3748.8367,N,12217.6162,W,2.39,118.99,261211,,,D*7D
$GPRMC,221900.000,A,3748.8364,N,12217.6153,W,2.48,116.00,261211,,,D*79
$GPRMC,221901.000,A,3748.8360,N,12217.6145,W,2.44,118.98,261211,,,D*78
$GPRMC,221902.000,A,3748.8355,N,12217.6136,W,2.53,123.76,261211,,,D*77
$GPRMC,221903.000,A,3748.8349,N,12217.6129,W,2.35,117.39,261211,,,D*79
$GPRMC,221904.000,A,3748.8346,N,12217.6121,W,2.24,115.22,261211,,,D*71
$GPRMC,221905.000,A,3748.8340,N,12217.6114,W,2.65,123.59,261211,,,D*7C
$GPRMC,221906.000,A,3748.8333,N,12217.6106,W,2.96,129.96,261211,,,D*7D
$GPRMC,221907.000,A,3748.8327,N,12217.6096,W,2.92,120.63,261211,,,D*76
$GPRMC,221908.000,A,3748.8323,N,12217.6087,W,2.29,116.85,261211,,,D*70
$GPRMC,221909.000,A,3748.8330,N,12217.6079,W,2.10,116.04,261211,,,D*71
$GPRMC,221910.000,A,3748.8325,N,12217.6074,W,2.05,124.93,261211,,,A*7E
$GPRMC,221911.000,A,3748.8322,N,12217.6069,W,1.56,115.64,261211,,,A*7B
$GPRMC,221912.000,A,3748.8319,N,12217.6064,W,1.81,115.03,261211,,,A*76
$GPRMC,221913.000,A,3748.8315,N,12217.6058,W,1.62,119.91,261211,,,A*7E
$GPRMC,221914.000,A,3748.8310,N,12217.6054,W,1.58,118.87,261211,,,A*7F
$GPRMC,221915.000,A,3748.8302,N,12217.6048,W,1.99,119.12,261211,,,D*75
$GPRMC,221916.000,A,3748.8296,N,12217.6043,W,1.73,118.43,261211,,,D*70
$GPRMC,221917.000,A,3748.8295,N,12217.6037,W,1.56,109.36,261211,,,D*74
$GPRMC,221918.000,A,3748.8292,N,12217.6030,W,2.34,120.74,261211,,,D*71
$GPRMC,221919.000,A,3748.8287,N,12217.6023,W,1.76,121.11,261211,,,D*71
$GPRMC,221920.000,A,3748.8283,N,12217.6018,W,1.59,118.06,261211,,,D*76
$GPRMC,221921.000,A,3748.8276,N,12217.6012,W,2.16,121.46,261211,,,D*71
$GPRMC,221922.000,A,3748.8271,N,12217.6004,W,2.30,120.31,261211,,,D*77
$GPRMC,221923.000,A,3748.8267,N,12217.5997,W,1.84,109.54,261211,,,D*75
$GPRMC,221924.000,A,3748.8264,N,12217.5989,W,1.77,115.06,261211,,,D*78
$GPRMC,221925.000,A,3748.8262,N,12217.5982,W,1.62,107.38,261211,,,D*7E
$GPRMC,221926.000,A,3748.8260,N,12217.5974,W,2.33,112.45,261211,,,D*7F
$GPRMC,221927.000,A,3748.8256,N,12217.5965,W,2.17,121.35,261211,,,D*7A
$GPRMC,221928.000,A,3748.8253,N,12217.5956,W,2.40,111.37,261211,,,D*73
$GPRMC,221929.000,A,3748.8250,N,12217.5948,W,2.11,115.78,261211,,,D*75
$GPRMC,221930.000,A,3748.8247,N,12217.5940,W,2.06,111.71,261211,,,D*78
$GPRMC,221931.000,A,3748.8244,N,12217.5932,W,2.38,119.48,261211,,,D*70
$GPRMC,221932.000,A,3748.8240,N,12217.5924,W,2.43,115.94,261211,,,D*71
$GPRMC,221933.000,A,3748.8235,N,12217.5912,W,2.34,116.22,261211,,,D*79
$GPRMC,221934.000,A,3748.8226,N,12217.5908,W,2.09,111.35,261211,,,D*78
$GPRMC,221935.000,A,3748.8221,N,12217.5895,W,2.33,115.34,261211,,,D*77
$GPRMC,221936.000,A,3748.8215,N,12217.5883,W,2.09,111.09,261211,,,D*77
$GPRMC,221937.000,A,3748.8210,N,12217.5872,W,2.65,118.42,261211,,,D*71
$GPRMC,221938.000,A,3748.8206,N,12217.5864,W,2.02,114.93,261211,,,D*7F
$GPRMC,221939.000,A,3748.8201,N,12217.5854,W,2.30,117.68,261211,,,D*7C
$GPRMC,221940.000,A,3748.8196,N,12217.5845,W,2.33,118.33,261211,,,D*7D
$GPRMC,221941.000,A,3748.8191,N,12217.5836,W,2.11,121.23,261211,,,D*74
$GPRMC,221942.000,A,3748.8186,N,12217.5827,W,2.78,125.78,261211,,,D*74
$GPRMC,221943.000,A,3748.8181,N,12217.5817,W,2.09,116.70,261211,,,D*7F
$GPRMC,221944.000,A,3748.8175,N,12217.5807,W,2.50,116.44,261211,,,D*79
$GPRMC,221945.000,A,3748.8172,N,12217.5800,W,2.20,119.01,261211,,,D*71
$GPRMC,221946.000,A,3748.8168,N,12217.5793,W,2.09,116.19,261211,,,D*71
$GPRMC,221947.000,A,3748.8165,N,12217.5787,W,2.00,114.00,261211,,,D*7B
$GPRMC,221948.000,A,3748.8163,N,12217.5780,W,2.58,119.12,261211,,,D*76
$GPRMC,221949.000,A,3748.8158,N,12217.5771,W,2.59,118.77,261211,,,D*72
$GPRMC,221950.000,A,3748.8154,N,12217.5761,W,2.39,112.88,261211,,,D*7B
$GPRMC,221951.000,A,3748.8152,N,12217.5749,W,2.35,111.22,261211,,,D*79
$GPRMC,221952.000,A,3748.8146,N,12217.5737,W,4.12,121.30,261211,,,D*75
$GPRMC,221953.000,A,3748.8141,N,12217.5725,W,2.80,119.60,261211,,,D*73
$GPRMC,221954.000,A,3748.8136,N,12217.5714,W,2.82,121.81,261211,,,D*70
$GPRMC,221955.000,A,3748.8132,N,12217.5708,W,1.74,118.16,261211,,,D*76
$GPRMC,221956.000,A,3748.8127,N,12217.5698,W,2.28,114.13,261211,,,D*7A
$GPRMC,221957.000,A,3748.8125,N,12217.5692,W,1.92,114.93,261211,,,D*79
$GPRMC,221958.000,A,3748.8123,N,12217.5686,W,1.92,106.58,261211,,,D*71
$GPRMC,221959.000,A,3748.8121,N,12217.5680,W,2.14,117.05,261211,,,D*71
$GPRMC,222000.000,A,3748.8118,N,12217.5673,W,2.07,109.55,261211,,,D*79
$GPRMC,222001.000,A,3748.8117,N,12217.5667,W,2.10,108.10,261211,,,D*74
$GPRMC,222002.000,A,3748.8114,N,12217.5659,W,2.32,116.83,261211,,,D*7C
$GPRMC,222003.000,A,3748.8112,N,12217.5653,W,1.87,108.50,261211,,,D*7D
$GPRMC,222004.000,A,3748.8108,N,12217.5646,W,1.82,107.38,261211,,,D*71
$GPRMC,222005.000,A,3748.8105,N,12217.5638,W,2.16,119.73,261211,,,D*7A
$GPRMC,222006.000,A,3748.8098,N,12217.5630,W,2.32,131.05,261211,,,D*79
$GPRMC,222007.000,A,3748.8091,N,12217.5620,W,2.11,135.69,261211,,,D*7F
$GPRMC,222008.000,A,3748.8086,N,12217.5615,W,1.32,134.39,261211,,,D*76
$GPRMC,222009.000,A,3748.8082,N,12217.5606,W,0.93,105.30,261211,,,D*70
$GPRMC,222010.000,A,3748.8077,N,12217.5596,W,1.14,139.18,261211,,,D*73
$GPRMC,222011.000,A,3748.8077,N,12217.5588,W,1.93,117.25,261211,,,D*70
$GPRMC,222012.000,A,3748.8076,N,12217.5579,W,1.75,125.93,261211,,,D*78
$GPRMC,222013.000,A,3748.8072,N,12217.5568,W,1.66,121.03,261211,,,D*72
$GPRMC,222014.000,A,3748.8067,N,12217.5564,W,1.73,121.07,261211,,,D*7D
$GPRMC,222015.000,A,3748.8061,N,12217.5556,W,1.84,133.98,261211,,,D*76
$GPRMC,222016.000,A,3748.8052,N,12217.5546,W,2.55,143.98,261211,,,A*79
$GPRMC,222017.000,A,3748.8044,N,12217.5541,W,2.03,125.73,261211,,,A*7E
$GPRMC,222018.000,A,3748.8043,N,12217.5535,W,1.60,123.94,261211,,,A*7C
$GPRMC,222019.000,A,3748.8039,N,12217.5529,W,1.87,119.27,261211,,,A*75
$GPRMC,222020.000,A,3748.8035,N,12217.5524,W,2.15,136.94,261211,,,A*73
$GPRMC,222021.000,A,3748.8032,N,12217.5519,W,1.39,128.28,261211,,,A*7E
$GPRMC,222022.000,A,3748.8025,N,12217.5515,W,1.66,147.91,261211,,,A*76
$GPRMC,222023.000,A,3748.8018,N,12217.5512,W,2.01,158.23,261211,,,A*7B
$GPRMC,222024.000,A,3748.8007,N,12217.5507,W,1.64,182.35,261211,,,A*76
$GPRMC,222025.000,A,3748.8002,N,12217.5506,W,1.37,190.94,261211,,,A*7D
$GPRMC,222026.000,A,3748.7998,N,12217.5508,W,1.34,215.60,261211,,,A*73
$GPRMC,222027.000,A,3748.7990,N,12217.5515,W,1.83,227.00,261211,,,A*7D
$GPRMC,222028.000,A,3748.7983,N,12217.5521,W,1.70,208.25,261211,,,A*71
$GPRMC,222029.000,A,3748.7979,N,12217.5529,W,2.17,217.17,261211,,,A*70
$GPRMC,222030.000,A,3748.7975,N,12217.5533,W,1.76,227.69,261211,,,A*71
$GPRMC,222031.000,A,3748.7973,N,12217.5542,W,1.45,224.78,261211,,,A*73
$GPRMC,222032.000,A,3748.7970,N,12217.5547,W,2.48,216.39,261211,,,A*7C
$GPRMC,222033.000,A,3748.7964,N,12217.5549,W,2.10,220.81,261211,,,A*7D
$GPRMC,222034.000,A,3748.7957,N,12217.5550,W,2.53,194.39,261211,,,A*7A
$GPRMC,222035.000,A,3748.7952,N,12217.5559,W,2.31,208.49,261211,,,D*77
$GPRMC,222036.000,A,3748.7946,N,12217.5562,W,2.54,216.02,261211,,,D*7A
$GPRMC,222037.000,A,3748.7942,N,12217.5570,W,2.84,216.77,261211,,,D*73
$GPRMC,222038.000,A,3748.7935,N,12217.5580,W,2.77,214.35,261211,,,D*7B
$GPRMC,222039.000,A,3748.7928,N,12217.5588,W,2.91,221.37,261211,,,D*72
$GPRMC,222040.000,A,3748.7922,N,12217.5594,W,1.74,206.09,261211,,,D*7B
$GPRMC,222041.000,A,3748.7918,N,12217.5601,W,1.46,221.80,261211,,,D*79
$GPRMC,222042.000,A,3748.7915,N,12217.5603,W,2.43,205.23,261211,,,D*7C
$GPRMC,222043.000,A,3748.7908,N,12217.5601,W,2.31,200.77,261211,,,D*72
$GPRMC,222044.000,A,3748.7899,N,12217.5601,W,1.93,197.96,261211,,,D*75
$GPRMC,222045.000,A,3748.7891,N,12217.5603,W,2.32,195.11,261211,,,D*7B
$GPRMC,222046.000,A,3748.7883,N,12217.5605,W,2.13,198.58,261211,,,D*7E
$GPRMC,222047.000,A,3748.7877,N,12217.5612,W,2.03,209.50,261211,,,D*70
$GPRMC,222048.000,A,3748.7870,N,12217.5615,W,1.80,196.59,261211,,,D*7B
$GPRMC,222049.000,A,3748.7861,N,12217.5619,W,1.40,200.93,261211,,,D*70
$GPRMC,222050.000,A,3748.7856,N,12217.5626,W,1.50,218.67,261211,,,D*73
$GPRMC,222051.000,A,3748.7851,N,12217.5636,W,2.35,220.10,261211,,,D*7F
$GPRMC,222052.000,A,3748.7845,N,12217.5638,W,2.02,207.30,261211,,,A*71
$GPRMC,222053.000,A,3748.7836,N,12217.5643,W,2.09,209.83,261211,,,A*75
$GPRMC,222054.000,A,3748.7828,N,12217.5650,W,2.24,212.93,261211,,,A*7B
$GPRMC,222055.000,A,3748.7819,N,12217.5660,W,2.20,203.75,261211,,,A*77
$GPRMC,222056.000,A,3748.7814,N,12217.5663,W,1.76,228.70,261211,,,A*76
$GPRMC,222057.000,A,3748.7805,N,12217.5666,W,2.14,211.21,261211,,,D*7E
$GPRMC,222058.000,A,3748.7799,N,12217.5666,W,2.56,203.69,261211,,,D*72
$GPRMC,222059.000,A,3748.7791,N,12217.5663,W,2.22,199.80,261211,,,D*7A
$GPRMC,222100.000,A,3748.7783,N,12217.5662,W,2.24,202.95,261211,,,D*76
$GPRMC,222101.000,A,3748.7775,N,12217.5670,W,2.06,209.39,261211,,,D*70
$GPRMC,222102.000,A,3748.7766,N,12217.5675,W,2.21,199.88,261211,,,D*71
$GPRMC,222103.000,A,3748.7762,N,12217.5681,W,2.83,223.35,261211,,,D*73
$GPRMC,222104.000,A,3748.7758,N,12217.5688,W,2.60,225.39,261211,,,D*73
$GPRMC,222105.000,A,3748.7748,N,12217.5694,W,2.53,204.49,261211,,,D*7A
$GPRMC,222106.000,A,3748.7740,N,12217.5703,W,2.19,216.42,261211,,,D*78
$GPRMC,222107.000,A,3748.7737,N,12217.5711,W,0.93,215.94,261211,,,D*72
$GPRMC,222108.000,A,3748.7730,N,12217.5707,W,1.00,206.95,261211,,,D*75
$GPRMC,222109.000,A,3748.7723,N,12217.5705,W,2.20,200.69,261211,,,D*70
$GPRMC,222110.000,A,3748.7711,N,12217.5704,W,2.21,197.02,261211,,,D*79
$GPRMC,222111.000,A,3748.7703,N,12217.5705,W,2.18,207.82,261211,,,D*72
$GPRMC,222112.000,A,3748.7698,N,12217.5711,W,1.94,219.79,261211,,,D*7B
$GPRMC,222113.000,A,3748.7693,N,12217.5716,W,2.10,205.25,261211,,,D*7D
$GPRMC,222114.000,A,3748.7686,N,12217.5721,W,2.75,215.08,261211,,,D*77
$GPRMC,222115.000,A,3748.7679,N,12217.5726,W,2.69,217.53,261211,,,D*70
$GPRMC,222116.000,A,3748.7673,N,12217.5731,W,2.60,216.35,261211,,,D*77
$GPRMC,222117.000,A,3748.7666,N,12217.5735,W,2.23,193.73,261211,,,D*7D
$GPRMC,222118.000,A,3748.7659,N,12217.5738,W,2.19,190.08,261211,,,D*75
$GPRMC,222119.000,A,3748.7652,N,12217.5740,W,1.94,187.37,261211,,,D*7C
$GPRMC,222120.000,A,3748.7646,N,12217.5742,W,2.03,178.74,261211,,,D*7B
$GPRMC,222121.000,A,3748.7639,N,12217.5744,W,1.98,184.49,261211,,,D*78
$GPRMC,222122.000,A,3748.7633,N,12217.5745,W,1.91,180.86,261211,,,D*7E
$GPRMC,222123.000,A,3748.7627,N,12217.5748,W,1.93,191.88,261211,,,D*7B
$GPRMC,222124.000,A,3748.7620,N,12217.5752,W,2.05,197.34,261211,,,D*7D
$GPRMC,222125.000,A,3748.7614,N,12217.5756,W,2.36,204.25,261211,,,D*76
$GPRMC,222126.000,A,3748.7605,N,12217.5765,W,2.60,210.69,261211,,,D*7B
$GPRMC,222127.000,A,3748.7599,N,12217.5778,W,2.40,209.85,261211,,,D*78
$GPRMC,222128.000,A,3748.7590,N,12217.5786,W,2.07,195.20,261211,,,D*75
$GPRMC,222129.000,A,3748.7581,N,12217.5794,W,2.07,187.39,261211,,,D*7C
$GPRMC,222130.000,A,3748.7573,N,12217.5798,W,2.09,189.20,261211,,,D*7D
$GPRMC,222131.000,A,3748.7566,N,12217.5803,W,2.27,186.42,261211,,,D*72
$GPRMC,222132.000,A,3748.7557,N,12217.5808,W,2.15,198.79,261211,,,D*7E
$GPRMC,222133.000,A,3748.7552,N,12217.5810,W,1.84,202.34,261211,,,D*71
$GPRMC,222134.000,A,3748.7546,N,12217.5812,W,2.01,191.24,261211,,,D*77
$GPRMC,222135.000,A,3748.7541,N,12217.5816,W,2.16,212.49,261211,,,D*70
$GPRMC,222136.000,A,3748.7537,N,12217.5824,W,1.94,200.18,261211,,,D*7D
$GPRMC,222137.000,A,3748.7528,N,12217.5831,W,2.62,205.36,261211,,,D*75
$GPRMC,222138.000,A,3748.7519,N,12217.5840,W,1.58,212.94,261211,,,D*7A
$GPRMC,222139.000,A,3748.7512,N,12217.5849,W,1.44,204.42,261211,,,D*78
$GPRMC,222140.000,A,3748.7508,N,12217.5855,W,1.35,215.35,261211,,,A*73
$GPRMC,222141.000,A,3748.7503,N,12217.5864,W,1.86,212.12,261211,,,D*74
$GPRMC,222142.000,A,3748.7499,N,12217.5870,W,2.29,271.44,261211,,,D*70
$GPRMC,222143.000,A,3748.7496,N,12217.5880,W,1.54,243.41,261211,,,D*7C
$GPRMC,222144.000,A,3748.7489,N,12217.5889,W,2.81,220.81,261211,,,D*7E
$GPRMC,222145.000,A,3748.7483,N,12217.5898,W,1.97,211.23,261211,,,D*7B
$GPRMC,222146.000,A,3748.7478,N,12217.5904,W,1.64,194.20,261211,,,D*79
$GPRMC,222147.000,A,3748.7474,N,12217.5915,W,1.63,207.71,261211,,,D*7E
$GPRMC,222148.000,A,3748.7470,N,12217.5920,W,1.41,203.46,261211,,,D*73
$GPRMC,222149.000,A,3748.7465,N,12217.5924,W,2.19,200.20,261211,,,D*7F
$GPRMC,222150.000,A,3748.7460,N,12217.5927,W,1.66,196.76,261211,,,D*75
$GPRMC,222151.000,A,3748.7454,N,12217.5930,W,2.02,197.40,261211,,,D*70
$GPRMC,222152.000,A,3748.7448,N,12217.5930,W,1.82,183.82,261211,,,D*7E
$GPRMC,222153.000,A,3748.7441,N,12217.5930,W,1.96,197.15,261211,,,D*78
$GPRMC,222154.000,A,3748.7432,N,12217.5936,W,1.90,221.34,261211,,,D*76
$GPRMC,222155.000,A,3748.7426,N,12217.5947,W,1.74,217.55,261211,,,D*7C
$GPRMC,222156.000,A,3748.7420,N,12217.5950,W,1.26,200.10,261211,,,D*7F
$GPRMC,222157.000,A,3748.7415,N,12217.5958,W,1.56,212.40,261211,,,D*71
$GPRMC,222158.000,A,3748.7410,N,12217.5971,W,1.59,206.80,261211,,,D*76
$GPRMC,222159.000,A,3748.7405,N,12217.5982,W,1.68,199.05,261211,,,D*75
$GPRMC,222200.000,A,3748.7400,N,12217.5993,W,1.56,205.83,261211,,,D*7A
$GPRMC,222201.000,A,3748.7395,N,12217.6004,W,2.13,214.10,261211,,,D*7C
$GPRMC,222202.000,A,3748.7390,N,12217.6012,W,2.05,201.45,261211,,,D*7E
$GPRMC,222203.000,A,3748.7385,N,12217.6013,W,1.88,171.70,261211,,,D*7E
$GPRMC,222204.000,A,3748.7382,N,12217.6012,W,1.24,125.06,261211,,,D*79
$GPRMC,222205.000,A,3748.7380,N,12217.6013,W,0.27,229.38,261211,,,D*7B
$GPRMC,222206.000,A,3748.7376,N,12217.6024,W,2.01,268.42,261211,,,D*7B
$GPRMC,222207.000,A,3748.7370,N,12217.6026,W,1.41,226.01,261211,,,D*74
$GPRMC,222208.000,A,3748.7363,N,12217.6028,W,1.57,206.15,261211,,,D*77
$GPRMC,222209.000,A,3748.7356,N,12217.6033,W,1.64,222.18,261211,,,D*71
$GPRMC,222210.000,A,3748.7348,N,12217.6037,W,2.09,202.87,261211,,,D*7E
$GPRMC,222211.000,A,3748.7341,N,12217.6041,W,1.69,208.32,261211,,,D*76
$GPRMC,222212.000,A,3748.7335,N,12217.6043,W,1.79,208.62,261211,,,D*70
$GPRMC,222213.000,A,3748.7329,N,12217.6046,W,1.92,207.42,261211,,,D*71
$GPRMC,222214.000,A,3748.7323,N,12217.6050,W,2.22,205.31,261211,,,D*75
$GPRMC,222215.000,A,3748.7316,N,12217.6054,W,2.32,205.37,261211,,,D*71
$GPRMC,222216.000,A,3748.7310,N,12217.6058,W,2.14,208.49,261211,,,D*78
$GPRMC,222217.000,A,3748.7305,N,12217.6062,W,2.14,208.99,261211,,,D*79
$GPRMC,222218.000,A,3748.7299,N,12217.6068,W,1.86,215.82,261211,,,D*76
$GPRMC,222219.000,A,3748.7294,N,12217.6073,W,1.64,204.37,261211,,,D*72
$GPRMC,222220.000,A,3748.7288,N,12217.6077,W,1.53,195.97,261211,,,D*74
$GPRMC,222221.000,A,3748.7283,N,12217.6080,W,1.65,186.10,261211,,,D*7E
$GPRMC,222222.000,A,3748.7278,N,12217.6084,W,2.29,210.07,261211,,,D*7C
$GPRMC,222223.000,A,3748.7271,N,12217.6090,W,2.19,210.07,261211,,,D*72
$GPRMC,222224.000,A,3748.7265,N,12217.6096,W,2.13,204.09,261211,,,D*77
$GPRMC,222225.000,A,3748.7260,N,12217.6102,W,2.20,211.82,261211,,,D*78
$GPRMC,222226.000,A,3748.7254,N,12217.6107,W,1.90,195.92,261211,,,D*7F
$GPRMC,222227.000,A,3748.7247,N,12217.6112,W,2.08,180.28,261211,,,D*7F
$GPRMC,222228.000,A,3748.7240,N,12217.6115,W,2.13,175.76,261211,,,D*7B
$GPRMC,222229.000,A,3748.7233,N,12217.6118,W,2.04,166.43,261211,,,D*71
$GPRMC,222230.000,A,3748.7226,N,12217.6120,W,2.15,176.38,261211,,,D*7B
$GPRMC,222231.000,A,3748.7220,N,12217.6122,W,1.84,178.11,261211,,,D*70
$GPRMC,222232.000,A,3748.7214,N,12217.6125,W,2.15,182.88,261211,,,D*7D
$GPRMC,222233.000,A,3748.7207,N,12217.6128,W,2.29,188.49,261211,,,D*7B
$GPRMC,222234.000,A,3748.7200,N,12217.6134,W,1.64,189.46,261211,,,D*72
$GPRMC,222235.000,A,3748.7195,N,12217.6142,W,1.84,226.96,261211,,,D*78
$GPRMC,222236.000,A,3748.7190,N,12217.6151,W,1.66,202.10,261211,,,D*78
$GPRMC,222237.000,A,3748.7185,N,12217.6156,W,2.16,216.88,261211,,,D*7A
$GPRMC,222238.000,A,3748.7181,N,12217.6160,W,1.12,194.28,261211,,,D*70
$GPRMC,222239.000,A,3748.7176,N,12217.6163,W,1.98,194.23,261211,,,D*73
$GPRMC,222240.000,A,3748.7169,N,12217.6167,W,1.78,185.53,261211,,,D*7E
$GPRMC,222241.000,A,3748.7163,N,12217.6169,W,1.78,178.73,261211,,,D*7B
$GPRMC,222242.000,A,3748.7157,N,12217.6172,W,2.33,190.93,261211,,,D*71
$GPRMC,222243.000,A,3748.7150,N,12217.6174,W,1.64,186.05,261211,,,D*78
$GPRMC,222244.000,A,3748.7143,N,12217.6177,W,1.44,191.92,261211,,,D*74
$GPRMC,222245.000,A,3748.7137,N,12217.6181,W,1.57,193.68,261211,,,D*7A
$GPRMC,222246.000,A,3748.7131,N,12217.6186,W,1.19,209.14,261211,,,D*79
$GPRMC,222247.000,A,3748.7124,N,12217.6192,W,1.88,195.53,261211,,,D*74
$GPRMC,222248.000,A,3748.7117,N,12217.6196,W,1.59,194.60,261211,,,D*72
$GPRMC,222249.000,A,3748.7111,N,12217.6201,W,1.45,203.30,261211,,,D*7D
$GPRMC,222250.000,A,3748.7105,N,12217.6206,W,1.16,197.67,261211,,,D*7D
$GPRMC,222251.000,A,3748.7100,N,12217.6212,W,1.50,198.41,261211,,,D*75
$GPRMC,222252.000,A,3748.7094,N,12217.6217,W,1.42,193.45,261211,,,D*73
$GPRMC,222253.000,A,3748.7088,N,12217.6223,W,1.72,204.33,261211,,,D*77
$GPRMC,222254.000,A,3748.7082,N,12217.6229,W,1.37,205.02,261211,,,D*72
$GPRMC,222255.000,A,3748.7077,N,12217.6235,W,1.04,193.98,261211,,,D*7B
$GPRMC,222256.000,A,3748.7072,N,12217.6239,W,1.58,186.95,261211,,,D*71
$GPRMC,222257.000,A,3748.7064,N,12217.6243,W,2.23,185.76,261211,,,D*7B
$GPRMC,222258.000,A,3748.7057,N,12217.6247,W,1.99,185.52,261211,,,D*74
$GPRMC,222259.000,A,3748.7050,N,12217.6250,W,2.00,194.03,261211,,,D*73
$GPRMC,222300.000,A,3748.7043,N,12217.6254,W,2.25,188.07,261211,,,D*76
$GPRMC,222301.000,A,3748.7035,N,12217.6257,W,2.34,184.57,261211,,,D*7C
$GPRMC,222302.000,A,3748.7030,N,12217.6259,W,1.56,177.32,261211,,,D*7C
$GPRMC,222303.000,A,3748.7026,N,12217.6259,W,1.76,183.12,261211,,,D*71
$GPRMC,222304.000,A,3748.7021,N,12217.6262,W,1.84,187.59,261211,,,D*7F
$GPRMC,222305.000,A,3748.7015,N,12217.6265,W,1.47,188.10,261211,,,D*73
$GPRMC,222306.000,A,3748.7011,N,12217.6268,W,1.44,204.72,261211,,,D*79
$GPRMC,222307.000,A,3748.7005,N,12217.6273,W,1.64,211.21,261211,,,D*77
$GPRMC,222308.000,A,3748.6998,N,12217.6277,W,1.92,201.29,261211,,,D*70
$GPRMC,222309.000,A,3748.6992,N,12217.6281,W,2.08,194.53,261211,,,D*70
$GPRMC,222310.000,A,3748.6983,N,12217.6285,W,2.29,197.68,261211,,,D*74
$GPRMC,222311.000,A,3748.6974,N,12217.6290,W,2.57,206.38,261211,,,D*7E
$GPRMC,222312.000,A,3748.6966,N,12217.6295,W,2.48,201.82,261211,,,D*73
$GPRMC,222313.000,A,3748.6958,N,12217.6301,W,2.60,201.17,261211,,,D*75
$GPRMC,222314.000,A,3748.6951,N,12217.6307,W,2.77,209.67,261211,,,D*74
$GPRMC,222315.000,A,3748.6945,N,12217.6315,W,2.97,211.72,261211,,,D*70
$GPRMC,222316.000,A,3748.6938,N,12217.6322,W,2.46,205.14,261211,,,D*74
$GPRMC,222317.000,A,3748.6932,N,12217.6329,W,2.63,206.25,261211,,,D*72
$GPRMC,222318.000,A,3748.6926,N,12217.6336,W,2.65,198.98,261211,,,D*72
$GPRMC,222319.000,A,3748.6920,N,12217.6343,W,1.96,198.71,261211,,,D*7F
$GPRMC,222320.000,A,3748.6913,N,12217.6349,W,2.86,198.87,261211,,,D*74
$GPRMC,222321.000,A,3748.6906,N,12217.6356,W,2.72,198.21,261211,,,D*78
$GPRMC,222322.000,A,3748.6898,N,12217.6363,W,2.43,199.94,261211,,,D*76
$GPRMC,222323.000,A,3748.6892,N,12217.6370,W,2.23,200.63,261211,,,D*72
$GPRMC,222324.000,A,3748.6886,N,12217.6376,W,2.47,201.22,261211,,,D*70
$GPRMC,222325.000,A,3748.6880,N,12217.6382,W,2.39,201.75,261211,,,D*77
$GPRMC,222326.000,A,3748.6874,N,12217.6387,W,2.21,203.17,261211,,,D*75
$GPRMC,222327.000,A,3748.6869,N,12217.6393,W,2.50,207.85,261211,,,D*74
$GPRMC,222328.000,A,3748.6863,N,12217.6400,W,2.34,219.19,261211,,,D*74
$GPRMC,222329.000,A,3748.6859,N,12217.6408,W,2.55,227.05,261211,,,D*73
$GPRMC,222330.000,A,3748.6854,N,12217.6417,W,2.50,224.69,261211,,,D*74
$GPRMC,222331.000,A,3748.6848,N,12217.6425,W,2.42,218.43,261211,,,D*7D
$GPRMC,222332.000,A,3748.6840,N,12217.6434,W,3.18,210.72,261211,,,D*72
$GPRMC,222333.000,A,3748.6833,N,12217.6441,W,2.40,192.00,261211,,,D*75
$GPRMC,222334.000,A,3748.6825,N,12217.6445,W,2.19,183.30,261211,,,D*7E
$GPRMC,222335.000,A,3748.6818,N,12217.6448,W,2.26,174.84,261211,,,D*77
$GPRMC,222336.000,A,3748.6811,N,12217.6449,W,1.79,170.60,261211,,,D*7B
$GPRMC,222337.000,A,3748.6805,N,12217.6456,W,1.85,199.15,261211,,,D*77
$GPRMC,222338.000,A,3748.6799,N,12217.6463,W,2.53,214.16,261211,,,D*79
$GPRMC,222339.000,A,3748.6791,N,12217.6472,W,2.96,211.27,261211,,,D*7E
$GPRMC,222340.000,A,3748.6783,N,12217.6484,W,2.54,216.17,261211,,,D*70
$GPRMC,222341.000,A,3748.6780,N,12217.6493,W,1.61,228.59,261211,,,D*76
$GPRMC,222342.000,A,3748.6774,N,12217.6499,W,1.65,222.29,261211,,,D*7D
$GPRMC,222343.000,A,3748.6768,N,12217.6504,W,1.54,190.96,261211,,,D*78
$GPRMC,222344.000,A,3748.6763,N,12217.6513,W,1.60,202.22,261211,,,D*72
$GPRMC,222345.000,A,3748.6754,N,12217.6516,W,1.94,204.52,261211,,,D*78
$GPRMC,222346.000,A,3748.6748,N,12217.6523,W,1.82,218.99,261211,,,D*7D
$GPRMC,222347.000,A,3748.6741,N,12217.6528,W,1.71,215.04,261211,,,D*7B
$GPRMC,222348.000,A,3748.6731,N,12217.6523,W,1.99,208.51,261211,,,D*72
$GPRMC,222349.000,A,3748.6723,N,12217.6528,W,2.12,203.28,261211,,,D*7E
$GPRMC,222350.000,A,3748.6716,N,12217.6531,W,2.07,190.30,261211,,,D*7C
$GPRMC,222351.000,A,3748.6707,N,12217.6539,W,1.67,231.52,261211,,,D*7C
$GPRMC,222352.000,A,3748.6697,N,12217.6546,W,1.72,227.25,261211,,,D*7C
$GPRMC,222353.000,A,3748.6687,N,12217.6552,W,1.45,221.27,261211,,,D*79
$GPRMC,222354.000,A,3748.6675,N,12217.6563,W,1.59,206.67,261211,,,D*7D
$GPRMC,222355.000,A,3748.6669,N,12217.6575,W,1.96,229.95,261211,,,D*75
$GPRMC,222356.000,A,3748.6665,N,12217.6585,W,1.90,226.01,261211,,,D*71
$GPRMC,222357.000,A,3748.6662,N,12217.6591,W,1.79,222.44,261211,,,D*70
$GPRMC,222358.000,A,3748.6660,N,12217.6598,W,2.08,221.53,261211,,,D*74
$GPRMC,222359.000,A,3748.6650,N,12217.6599,W,2.35,199.88,261211,,,D*7F
$GPRMC,222400.000,A,3748.6646,N,12217.6607,W,2.11,197.51,261211,,,D*7B
$GPRMC,222401.000,A,3748.6640,N,12217.6615,W,2.39,186.66,261211,,,D*71
$GPRMC,222402.000,A,3748.6633,N,12217.6617,W,2.42,195.51,261211,,,D*7E
$GPRMC,222403.000,A,3748.6627,N,12217.6621,W,1.94,201.56,261211,,,D*7E
$GPRMC,222404.000,A,3748.6621,N,12217.6625,W,2.82,212.14,261211,,,D*7B
$GPRMC,222405.000,A,3748.6615,N,12217.6631,W,2.51,209.19,261211,,,D*71
$GPRMC,222406.000,A,3748.6608,N,12217.6637,W,2.96,211.69,261211,,,D*7D
$GPRMC,222407.000,A,3748.6600,N,12217.6642,W,2.76,206.75,261211,,,D*73
$GPRMC,222408.000,A,3748.6593,N,12217.6647,W,1.58,193.41,261211,,,D*77
$GPRMC,222409.000,A,3748.6585,N,12217.6657,W,2.47,207.19,261211,,,D*7E
$GPRMC,222410.000,A,3748.6577,N,12217.6666,W,2.48,205.96,261211,,,D*73
$GPRMC,222411.000,A,3748.6570,N,12217.6673,W,2.24,209.55,261211,,,D*78
$GPRMC,222412.000,A,3748.6562,N,12217.6680,W,2.08,208.71,261211,,,D*7D
$GPRMC,222413.000,A,3748.6557,N,12217.6688,W,1.63,221.78,261211,,,D*7E
$GPRMC,222414.000,A,3748.6552,N,12217.6697,W,2.41,206.15,261211,,,D*7F
$GPRMC,222415.000,A,3748.6543,N,12217.6701,W,2.49,201.00,261211,,,D*7B
$GPRMC,222416.000,A,3748.6535,N,12217.6708,W,2.42,206.48,261211,,,D*70
$GPRMC,222417.000,A,3748.6528,N,12217.6716,W,2.48,198.63,261211,,,D*75
$GPRMC,222418.000,A,3748.6520,N,12217.6723,W,2.43,200.51,261211,,,D*7C
$GPRMC,222419.000,A,3748.6513,N,12217.6731,W,2.29,205.42,261211,,,D*75
$GPRMC,222420.000,A,3748.6508,N,12217.6736,W,2.52,212.95,261211,,,D*72
$GPRMC,222421.000,A,3748.6504,N,12217.6742,W,2.00,210.57,261211,,,D*77
$GPRMC,222422.000,A,3748.6500,N,12217.6746,W,2.19,215.35,261211,,,D*7D
$GPRMC,222423.000,A,3748.6495,N,12217.6751,W,2.08,198.65,261211,,,D*74
$GPRMC,222424.000,A,3748.6490,N,12217.6754,W,2.00,186.45,261211,,,D*76
$GPRMC,222425.000,A,3748.6485,N,12217.6755,W,2.09,182.36,261211,,,D*7B
$GPRMC,222426.000,A,3748.6479,N,12217.6757,W,2.06,171.90,261211,,,D*76
$GPRMC,222427.000,A,3748.6473,N,12217.6757,W,2.12,173.84,261211,,,D*7F
$GPRMC,222428.000,A,3748.6467,N,12217.6758,W,2.05,170.49,261211,,,D*7E
$GPRMC,222429.000,A,3748.6461,N,12217.6761,W,2.43,196.40,261211,,,D*70
$GPRMC,222430.000,A,3748.6454,N,12217.6764,W,2.14,182.27,261211,,,D*7D
$GPRMC,222431.000,A,3748.6447,N,12217.6767,W,2.43,183.64,261211,,,D*79
$GPRMC,222432.000,A,3748.6441,N,12217.6768,W,2.06,162.67,261211,,,D*7E
$GPRMC,222433.000,A,3748.6436,N,12217.6767,W,2.15,149.86,261211,,,D*74
$GPRMC,222434.000,A,3748.6431,N,12217.6767,W,1.39,155.56,261211,,,D*79
$GPRMC,222435.000,A,3748.6426,N,12217.6770,W,1.08,177.17,261211,,,D*7F
$GPRMC,222436.000,A,3748.6423,N,12217.6776,W,0.52,266.78,261211,,,D*7B
$GPRMC,222437.000,A,3748.6420,N,12217.6784,W,1.36,229.85,261211,,,D*7E
$GPRMC,222438.000,A,3748.6416,N,12217.6787,W,2.19,219.83,261211,,,D*7C
$GPRMC,222439.000,A,3748.6412,N,12217.6789,W,1.54,190.80,261211,,,D*7C
$GPRMC,222440.000,A,3748.6408,N,12217.6793,W,1.89,195.11,261211,,,D*7F
$GPRMC,222441.000,A,3748.6399,N,12217.6795,W,1.72,209.92,261211,,,D*7E
$GPRMC,222442.000,A,3748.6396,N,12217.6797,W,0.91,226.26,261211,,,D*7E
$GPRMC,222443.000,A,3748.6388,N,12217.6801,W,2.00,208.99,261211,,,D*72
$GPRMC,222444.000,A,3748.6381,N,12217.6804,W,1.53,186.07,261211,,,D*7E
$GPRMC,222445.000,A,3748.6375,N,12217.6806,W,1.53,193.84,261211,,,D*79
$GPRMC,222446.000,A,3748.6366,N,12217.6813,W,2.28,211.01,261211,,,D*77
$GPRMC,222447.000,A,3748.6357,N,12217.6823,W,2.78,211.33,261211,,,D*73
$GPRMC,222448.000,A,3748.6352,N,12217.6830,W,2.05,209.46,261211,,,D*7A
$GPRMC,222449.000,A,3748.6349,N,12217.6837,W,1.47,219.86,261211,,,D*7E
$GPRMC,222450.000,A,3748.6347,N,12217.6843,W,1.43,209.58,261211,,,D*7D
$GPRMC,222451.000,A,3748.6343,N,12217.6847,W,1.39,197.65,261211,,,D*7B
$GPRMC,222452.000,A,3748.6340,N,12217.6851,W,1.68,203.53,261211,,,D*73
$GPRMC,222453.000,A,3748.6334,N,12217.6856,W,2.32,216.29,261211,,,D*73
$GPRMC,222454.000,A,3748.6327,N,12217.6860,W,2.39,190.04,261211,,,D*7A
$GPRMC,222455.000,A,3748.6319,N,12217.6863,W,1.92,203.28,261211,,,D*70
$GPRMC,222456.000,A,3748.6312,N,12217.6867,W,1.51,213.59,261211,,,D*74
$GPRMC,222457.000,A,3748.6306,N,12217.6875,W,1.66,209.43,261211,,,D*77
$GPRMC,222458.000,A,3748.6298,N,12217.6885,W,1.66,199.46,261211,,,D*7E
$GPRMC,222459.000,A,3748.6292,N,12217.6889,W,1.83,190.82,261211,,,D*73
$GPRMC,222500.000,A,3748.6288,N,12217.6896,W,1.76,186.79,261211,,,D*72
$GPRMC,222501.000,A,3748.6285,N,12217.6902,W,1.37,184.42,261211,,,D*7D
$GPRMC,222502.000,A,3748.6281,N,12217.6904,W,1.60,189.04,261211,,,D*71
$GPRMC,222503.000,A,3748.6275,N,12217.6902,W,1.61,198.35,261211,,,D*7E
$GPRMC,222504.000,A,3748.6268,N,12217.6909,W,2.22,203.80,261211,,,D*75
$GPRMC,222505.000,A,3748.6264,N,12217.6914,W,2.24,197.92,261211,,,D*7F
$GPRMC,222506.000,A,3748.6256,N,12217.6920,W,2.33,206.92,261211,,,D*77
$GPRMC,222507.000,A,3748.6247,N,12217.6928,W,2.68,210.82,261211,,,D*76
$GPRMC,222508.000,A,3748.6237,N,12217.6937,W,2.13,197.44,261211,,,D*7A
$GPRMC,222509.000,A,3748.6233,N,12217.6945,W,1.41,214.14,261211,,,D*73
$GPRMC,222510.000,A,3748.6228,N,12217.6950,W,1.48,203.50,261211,,,D*7A
