$ADVER,3080,2.3
$GPRMC,221658.484,A,3748.7928,N,12217.8579,W,0.53,348.19,240810,,,A*78
$GPRMC,221659.484,A,3748.7929,N,12217.8581,W,0.48,347.51,240810,,,A*76
$GPRMC,221700.484,A,3748.7931,N,12217.8582,W,0.42,349.75,240810,,,A*73
$GPRMC,221701.000,A,3748.7932,N,12217.8583,W,0.50,347.21,240810,,,A*74
$GPRMC,221702.000,A,3748.7933,N,12217.8584,W,0.47,354.01,240810,,,A*77
$GPRMC,221703.000,A,3748.7935,N,12217.8585,W,0.41,345.65,240810,,,A*75
$GPRMC,221704.000,A,3748.7992,N,12217.8601,W,0.33,19.09,240810,,,A*45
$GPRMC,221705.000,A,3748.7996,N,12217.8602,W,0.14,20.16,240810,,,A*42
$GPRMC,221706.000,A,3748.7997,N,12217.8603,W,0.10,59.07,240810,,,A*4B
$GPRMC,221707.000,A,3748.7998,N,12217.8603,W,0.21,122.78,240810,,,A*72
$GPRMC,221708.000,A,3748.7998,N,12217.8604,W,0.22,343.52,240810,,,A*74
$GPRMC,221709.000,A,3748.7998,N,12217.8604,W,0.15,4.73,240810,,,A*72
$GPRMC,221710.000,A,3748.7998,N,12217.8604,W,0.21,19.83,240810,,,A*4E
$GPRMC,221711.000,A,3748.7999,N,12217.8604,W,0.18,16.16,240810,,,A*47
$GPRMC,221712.000,A,3748.7996,N,12217.8598,W,0.19,25.69,240810,,,A*44
$GPRMC,221713.000,A,3748.7999,N,12217.8589,W,0.20,15.18,240810,,,A*45
$GPRMC,221714.000,A,3748.8002,N,12217.8581,W,0.23,345.14,240810,,,A*77
$GPRMC,221715.000,A,3748.8000,N,12217.8573,W,0.12,187.30,240810,,,A*71
$GPRMC,221716.000,A,3748.7999,N,12217.8569,W,0.43,116.36,240810,,,A*75
$GPRMC,221717.000,A,3748.8000,N,12217.8569,W,0.08,16.08,240810,,,A*41
$GPRMC,221718.000,A,3748.7999,N,12217.8568,W,0.33,150.56,240810,,,A*79
$GPWPL,3748.7997,N,12217.8570,W,00001*6D
$ADPMB,5,0
$GPRMC,221719.000,A,3748.7997,N,12217.8570,W,0.19,131.03,240810,,,A*70
$GPRMC,221720.000,A,3748.7994,N,12217.8575,W,0.13,167.28,240810,,,A*7C
$GPRMC,221721.000,A,3748.7995,N,12217.8580,W,0.55,244.78,240810,,,A*73
$GPRMC,221722.000,A,3748.7997,N,12217.8581,W,0.41,227.46,240810,,,A*7E
$GPRMC,221723.000,A,3748.7996,N,12217.8584,W,0.50,233.83,240810,,,A*77
$GPRMC,221724.000,A,3748.7996,N,12217.8583,W,0.19,136.92,240810,,,A*7C
$GPRMC,221725.000,A,3748.7998,N,12217.8585,W,0.09,21.21,240810,,,A*4B
$GPRMC,221726.000,A,3748.7998,N,12217.8588,W,0.23,303.25,240810,,,A*7A
$GPRMC,221727.000,A,3748.7999,N,12217.8589,W,0.77,40.60,240810,,,A*4F
$GPRMC,221728.000,A,3748.8001,N,12217.8588,W,0.40,32.33,240810,,,A*41
$GPRMC,221729.000,A,3748.8003,N,12217.8588,W,0.04,327.39,240810,,,A*7F
$GPRMC,221730.000,A,3748.8005,N,12217.8586,W,0.18,87.52,240810,,,A*46
$GPRMC,221731.000,A,3748.8006,N,12217.8586,W,0.13,277.74,240810,,,A*76
$GPRMC,221732.000,A,3748.8005,N,12217.8587,W,0.53,285.99,240810,,,A*7D
$GPRMC,221733.000,A,3748.8005,N,12217.8590,W,0.33,262.15,240810,,,A*71
$GPRMC,221734.000,A,3748.8006,N,12217.8592,W,0.12,329.44,240810,,,A*7E
$GPRMC,221735.000,A,3748.8007,N,12217.8593,W,0.23,345.51,240810,,,A*73
$GPRMC,221736.000,A,3748.8008,N,12217.8594,W,0.19,7.18,240810,,,A*79
$GPRMC,221737.000,A,3748.8009,N,12217.8596,W,0.44,309.97,240810,,,A*79
$GPRMC,221738.000,A,3748.8011,N,12217.8601,W,0.79,328.71,240810,,,A*77
$GPRMC,221739.000,A,3748.8006,N,12217.8612,W,0.58,302.26,240810,,,A*7B
$GPRMC,221740.000,A,3748.8002,N,12217.8621,W,0.42,282.60,240810,,,A*71
$GPRMC,221741.000,A,3748.8001,N,12217.8625,W,0.07,278.21,240810,,,A*76
$GPRMC,221742.000,A,3748.7998,N,12217.8629,W,0.16,98.84,240810,,,A*4C
$GPRMC,221743.000,A,3748.7999,N,12217.8628,W,0.24,83.98,240810,,,A*4B
$GPRMC,221744.000,A,3748.8001,N,12217.8623,W,0.51,86.10,240810,,,A*47
$GPRMC,221745.000,A,3748.8003,N,12217.8618,W,0.12,71.63,240810,,,A*47
$GPRMC,221746.000,A,3748.8005,N,12217.8615,W,0.31,39.69,240810,,,A*48
$GPRMC,221747.000,A,3748.8005,N,12217.8614,W,0.67,45.90,240810,,,A*46
$GPRMC,221748.000,A,3748.8005,N,12217.8608,W,0.66,57.47,240810,,,A*4C
$GPRMC,221749.000,A,3748.8009,N,12217.8608,W,0.48,28.75,240810,,,A*44
$GPRMC,221750.000,A,3748.8009,N,12217.8609,W,0.62,23.65,240810,,,A*4F
$GPRMC,221751.000,A,3748.8011,N,12217.8608,W,0.30,123.45,240810,,,A*72
$GPRMC,221752.000,A,3748.8012,N,12217.8606,W,0.16,270.61,240810,,,A*7B
$GPRMC,221753.000,A,3748.8011,N,12217.8607,W,1.48,261.37,240810,,,A*71
$GPRMC,221754.000,A,3748.8012,N,12217.8609,W,0.17,129.65,240810,,,A*78
$GPRMC,221755.000,A,3748.8013,N,12217.8608,W,0.15,97.77,240810,,,A*4C
$GPRMC,221756.000,A,3748.8013,N,12217.8609,W,0.21,359.95,240810,,,A*74
$GPRMC,221757.000,A,3748.8012,N,12217.8607,W,0.27,56.54,240810,,,A*4D
$GPRMC,221758.000,A,3748.8009,N,12217.8605,W,0.27,83.28,240810,,,A*49
$GPRMC,221759.000,A,3748.8007,N,12217.8604,W,0.02,205.57,240810,,,A*74
$GPRMC,221800.000,A,3748.8005,N,12217.8602,W,0.04,299.16,240810,,,A*75
$GPRMC,221801.000,A,3748.8002,N,12217.8600,W,0.14,188.46,240810,,,A*76
$GPRMC,221802.000,A,3748.8003,N,12217.8597,W,0.31,88.25,240810,,,A*4A
$GPRMC,221803.000,A,3748.8004,N,12217.8595,W,0.15,23.19,240810,,,A*46
$GPRMC,221804.000,A,3748.8005,N,12217.8593,W,0.19,346.69,240810,,,A*7D
$GPRMC,221805.000,A,3748.8006,N,12217.8594,W,0.17,333.37,240810,,,A*7F
$GPRMC,221806.000,A,3748.8008,N,12217.8596,W,0.34,55.04,240810,,,A*42
$GPRMC,221807.000,A,3748.8007,N,12217.8590,W,1.07,73.80,240810,,,A*43
$GPRMC,221808.000,A,3748.8006,N,12217.8587,W,0.48,147.34,240810,,,A*78
$GPRMC,221809.000,A,3748.8004,N,12217.8585,W,0.28,157.02,240810,,,A*7B
$GPRMC,221810.000,A,3748.8004,N,12217.8585,W,0.18,72.61,240810,,,A*43
$GPRMC,221811.000,A,3748.8005,N,12217.8585,W,0.18,333.22,240810,,,A*72
$GPRMC,221812.000,A,3748.8007,N,12217.8585,W,0.27,45.78,240810,,,A*42
$GPRMC,221813.000,A,3748.8008,N,12217.8585,W,0.12,38.52,240810,,,A*48
$GPRMC,221814.000,A,3748.8008,N,12217.8585,W,0.04,345.40,240810,,,A*72
$GPRMC,221815.000,A,3748.8011,N,12217.8586,W,0.41,280.26,240810,,,A*71
$GPRMC,221816.000,A,3748.8012,N,12217.8589,W,0.90,317.82,240810,,,A*73
$GPRMC,221817.000,A,3748.8013,N,12217.8589,W,0.43,0.00,240810,,,A*72
$GPRMC,221818.000,A,3748.8015,N,12217.8590,W,0.37,358.21,240810,,,A*7D
$GPRMC,221819.000,A,3748.8017,N,12217.8592,W,0.83,306.53,240810,,,A*7D
$GPRMC,221820.000,A,3748.8016,N,12217.8593,W,0.26,315.83,240810,,,A*77
$GPRMC,221821.000,A,3748.8016,N,12217.8595,W,0.53,237.90,240810,,,A*71
$GPRMC,221822.000,A,3748.8013,N,12217.8599,W,0.15,183.20,240810,,,A*7E
$GPRMC,221823.000,A,3748.8015,N,12217.8603,W,0.46,199.44,240810,,,A*76
$GPRMC,221824.000,A,3748.8015,N,12217.8604,W,0.27,201.72,240810,,,A*76
$GPRMC,221825.000,A,3748.8013,N,12217.8602,W,0.34,78.91,240810,,,A*44
$GPRMC,221826.000,A,3748.8009,N,12217.8600,W,0.15,165.36,240810,,,A*7D
$GPRMC,221827.000,A,3748.8005,N,12217.8598,W,0.22,186.89,240810,,,A*7F
$GPRMC,221828.000,A,3748.8005,N,12217.8597,W,0.18,38.39,240810,,,A*49
$GPRMC,221829.000,A,3748.8004,N,12217.8599,W,0.29,126.94,240810,,,A*7C
$GPRMC,221830.000,A,3748.8001,N,12217.8597,W,0.24,122.61,240810,,,A*7C
$GPRMC,221831.000,A,3748.7999,N,12217.8596,W,0.40,189.02,240810,,,A*7D
$GPRMC,221832.000,A,3748.7996,N,12217.8597,W,0.28,219.85,240810,,,A*7B
$GPRMC,221833.000,A,3748.7993,N,12217.8598,W,0.54,231.16,240810,,,D*7E
$GPRMC,221834.000,A,3748.7992,N,12217.8600,W,0.21,216.99,240810,,,D*7A
$GPRMC,221835.000,A,3748.7995,N,12217.8601,W,0.26,111.50,240810,,,D*7B
$GPRMC,221836.000,A,3748.7998,N,12217.8599,W,0.41,89.98,240810,,,D*42
$GPRMC,221837.000,A,3748.7997,N,12217.8599,W,1.15,123.54,240810,,,D*7D
$GPRMC,221838.000,A,3748.7996,N,12217.8600,W,0.11,121.89,240810,,,D*77
$GPRMC,221839.000,A,3748.7994,N,12217.8602,W,1.39,203.27,240810,,,D*7A
$GPRMC,221840.000,A,3748.7995,N,12217.8604,W,1.63,202.78,240810,,,D*77
$GPRMC,221841.000,A,3748.7996,N,12217.8609,W,1.51,209.59,240810,,,D*71
$GPRMC,221842.000,A,3748.7992,N,12217.8615,W,2.12,216.11,240810,,,D*7D
$GPRMC,221843.000,A,3748.7987,N,12217.8622,W,2.21,220.39,240810,,,D*73
$GPRMC,221844.000,A,3748.7984,N,12217.8626,W,1.85,209.90,240810,,,D*76
$GPRMC,221845.000,A,3748.7983,N,12217.8628,W,1.80,205.53,240810,,,D*78
$GPRMC,221846.000,A,3748.7977,N,12217.8631,W,1.91,200.64,240810,,,D*79
$GPRMC,221847.000,A,3748.7971,N,12217.8633,W,2.00,203.26,240810,,,D*72
$GPRMC,221848.000,A,3748.7966,N,12217.8637,W,2.06,207.17,240810,,,D*7F
$GPRMC,221849.000,A,3748.7959,N,12217.8643,W,1.97,203.52,240810,,,D*7F
$GPRMC,221850.000,A,3748.7954,N,12217.8649,W,1.62,192.11,240810,,,D*76
$GPRMC,221851.000,A,3748.7943,N,12217.8657,W,1.35,166.66,240810,,,D*77
$GPRMC,221852.000,A,3748.7939,N,12217.8659,W,1.58,98.02,240810,,,D*4E
$GPRMC,221853.000,A,3748.7940,N,12217.8656,W,2.04,75.67,240810,,,D*44
$GPRMC,221854.000,A,3748.7945,N,12217.8654,W,1.11,65.24,240810,,,D*45
$GPRMC,221855.000,A,3748.7952,N,12217.8652,W,1.21,20.75,240810,,,D*42
$GPRMC,221856.000,A,3748.7953,N,12217.8652,W,1.12,0.92,240810,,,D*7B
$GPRMC,221857.000,A,3748.7956,N,12217.8652,W,1.35,359.53,240810,,,D*78
$GPRMC,221858.000,A,3748.7958,N,12217.8654,W,1.45,356.11,240810,,,D*71
$GPRMC,221859.000,A,3748.7964,N,12217.8654,W,1.83,8.91,240810,,,D*75
$GPRMC,221900.000,A,3748.7970,N,12217.8654,W,2.53,8.95,240810,,,D*77
$GPRMC,221901.000,A,3748.7974,N,12217.8651,W,2.99,7.18,240810,,,D*7B
$GPRMC,221902.000,A,3748.7970,N,12217.8654,W,1.61,4.36,240810,,,D*72
$GPRMC,221903.000,A,3748.7964,N,12217.8657,W,0.32,149.26,240810,,,D*7B
$GPRMC,221904.000,A,3748.7955,N,12217.8656,W,0.91,198.42,240810,,,D*78
$GPRMC,221905.000,A,3748.7948,N,12217.8658,W,0.58,229.29,240810,,,D*7A
$GPRMC,221906.000,A,3748.7944,N,12217.8660,W,0.26,327.24,240810,,,D*75
$GPRMC,221907.000,A,3748.7945,N,12217.8660,W,0.51,354.44,240810,,,A*72
$GPRMC,221908.000,A,3748.7948,N,12217.8662,W,0.72,339.70,240810,,,A*7F
$GPRMC,221909.000,A,3748.7949,N,12217.8664,W,0.92,345.40,240810,,,A*7F
$GPRMC,221910.000,A,3748.7956,N,12217.8668,W,0.95,353.00,240810,,,A*71
$GPRMC,221911.000,A,3748.7962,N,12217.8668,W,0.57,23.61,240810,,,A*4A
$GPRMC,221912.000,A,3748.7970,N,12217.8662,W,0.47,23.21,240810,,,A*45
$GPRMC,221913.000,A,3748.7973,N,12217.8656,W,0.77,65.71,240810,,,A*44
$GPRMC,221914.000,A,3748.7979,N,12217.8654,W,0.73,37.35,240810,,,A*48
$GPRMC,221915.000,A,3748.7983,N,12217.8654,W,0.77,14.93,240810,,,A*45
$GPRMC,221916.000,A,3748.7987,N,12217.8654,W,0.37,1.35,240810,,,A*7E
$GPRMC,221917.000,A,3748.7990,N,12217.8654,W,0.53,38.83,240810,,,A*4C
$GPRMC,221918.000,A,3748.7992,N,12217.8655,W,0.13,31.81,240810,,,A*4F
$GPRMC,221919.000,A,3748.7993,N,12217.8657,W,0.39,14.34,240810,,,A*4C
$GPRMC,221920.000,A,3748.7994,N,12217.8658,W,0.87,22.16,240810,,,A*4E
$GPRMC,221921.000,A,3748.7990,N,12217.8660,W,0.18,134.45,240810,,,A*76
$GPRMC,221922.000,A,3748.7984,N,12217.8660,W,0.32,52.65,240810,,,A*4B
$GPRMC,221923.000,A,3748.7983,N,12217.8663,W,0.53,214.83,240810,,,A*71
$GPRMC,221924.000,A,3748.7980,N,12217.8665,W,0.24,49.20,240810,,,A*40
$GPRMC,221925.000,A,3748.7976,N,12217.8667,W,0.35,33.92,240810,,,A*4E
$GPRMC,221926.000,A,3748.7971,N,12217.8667,W,0.65,37.14,240810,,,A*45
$GPRMC,221927.000,A,3748.7965,N,12217.8668,W,0.34,342.90,240810,,,A*77
$GPRMC,221928.000,A,3748.7958,N,12217.8670,W,0.44,204.89,240810,,,A*73
$GPRMC,221929.000,A,3748.7958,N,12217.8669,W,0.97,175.91,240810,,,A*78
$GPRMC,221930.000,A,3748.7957,N,12217.8667,W,1.24,175.91,240810,,,A*78
$GPRMC,221931.000,A,3748.7953,N,12217.8669,W,0.51,183.12,240810,,,A*72
$GPRMC,221932.000,A,3748.7953,N,12217.8670,W,0.32,195.19,240810,,,A*70
$GPRMC,221933.000,A,3748.7956,N,12217.8671,W,0.11,282.53,240810,,,A*7F
$GPRMC,221934.000,A,3748.7964,N,12217.8671,W,0.47,356.66,240810,,,A*74
$GPRMC,221935.000,A,3748.7967,N,12217.8670,W,0.42,3.36,240810,,,A*74
$GPRMC,221936.000,A,3748.7973,N,12217.8668,W,0.48,0.20,240810,,,A*75
$GPRMC,221937.000,A,3748.7977,N,12217.8667,W,0.45,352.43,240810,,,A*73
$GPRMC,221938.000,A,3748.7980,N,12217.8671,W,0.76,348.31,240810,,,A*7D
$GPRMC,221939.000,A,3748.7984,N,12217.8671,W,0.46,349.43,240810,,,A*7F
$GPRMC,221940.000,A,3748.7984,N,12217.8674,W,0.41,208.24,240810,,,A*76
$GPRMC,221941.000,A,3748.7984,N,12217.8675,W,0.19,319.99,240810,,,A*7C
$GPRMC,221942.000,A,3748.7980,N,12217.8674,W,0.42,354.33,240810,,,A*7D
$GPRMC,221943.000,A,3748.7980,N,12217.8675,W,0.70,355.32,240810,,,A*7C
$GPRMC,221944.000,A,3748.7981,N,12217.8675,W,0.10,345.66,240810,,,A*7C
$GPRMC,221945.000,A,3748.7980,N,12217.8675,W,0.55,195.44,240810,,,A*72
$GPRMC,221946.000,A,3748.7978,N,12217.8677,W,0.15,205.90,240810,,,A*73
$GPRMC,221947.000,A,3748.7980,N,12217.8676,W,0.59,1.67,240810,,,A*72
$GPRMC,221948.000,A,3748.7983,N,12217.8674,W,0.68,351.01,240810,,,A*78
$GPRMC,221949.000,A,3748.7990,N,12217.8673,W,0.48,4.92,240810,,,A*77
$GPRMC,221950.000,A,3748.7993,N,12217.8671,W,0.44,5.18,240810,,,A*71
$GPRMC,221951.000,A,3748.7995,N,12217.8669,W,0.06,160.60,240810,,,A*74
$GPRMC,221952.000,A,3748.8004,N,12217.8670,W,0.49,2.36,240810,,,A*7C
$GPRMC,221953.000,A,3748.8017,N,12217.8670,W,0.84,0.94,240810,,,A*74
$GPRMC,221954.000,A,3748.8021,N,12217.8669,W,0.28,1.47,240810,,,A*77
$GPRMC,221955.000,A,3748.8030,N,12217.8669,W,0.73,359.88,240810,,,A*75
$GPRMC,221956.000,A,3748.8025,N,12217.8669,W,0.40,0.16,240810,,,A*7A
$GPRMC,221957.000,A,3748.8031,N,12217.8670,W,1.00,4.19,240810,,,A*78
$GPRMC,221958.000,A,3748.8040,N,12217.8670,W,1.21,7.87,240810,,,A*76
$GPRMC,221959.000,A,3748.8044,N,12217.8669,W,1.05,11.31,240810,,,A*47
$GPRMC,222000.000,A,3748.8042,N,12217.8668,W,1.12,358.10,240810,,,A*7D
$GPRMC,222001.000,A,3748.8043,N,12217.8669,W,0.90,343.58,240810,,,A*71
$GPRMC,222002.000,A,3748.8043,N,12217.8669,W,0.92,358.64,240810,,,A*75
$GPRMC,222003.000,A,3748.8043,N,12217.8670,W,0.48,16.79,240810,,,A*4E
$GPRMC,222004.000,A,3748.8041,N,12217.8669,W,0.38,181.50,240810,,,A*70
$GPRMC,222005.000,A,3748.8039,N,12217.8669,W,0.37,219.11,240810,,,A*76
$GPRMC,222006.000,A,3748.8038,N,12217.8669,W,0.21,167.33,240810,,,A*79
$GPRMC,222007.000,A,3748.8036,N,12217.8670,W,0.47,211.38,240810,,,A*77
$GPRMC,222008.000,A,3748.8033,N,12217.8670,W,0.73,182.24,240810,,,A*7E
$GPRMC,222009.000,A,3748.8030,N,12217.8669,W,0.89,161.97,240810,,,A*74
$GPRMC,222010.000,A,3748.8027,N,12217.8668,W,0.51,168.94,240810,,,A*74
$GPRMC,222011.000,A,3748.8024,N,12217.8668,W,0.08,241.05,240810,,,A*7A
$GPRMC,222012.000,A,3748.8022,N,12217.8667,W,0.15,88.64,240810,,,A*4C
$GPRMC,222013.000,A,3748.8021,N,12217.8666,W,0.44,20.60,240810,,,A*4D
$GPRMC,222014.000,A,3748.8020,N,12217.8668,W,0.79,12.68,240810,,,A*42
$GPRMC,222015.000,A,3748.7993,N,12217.8671,W,0.56,226.91,240810,,,A*7B
$GPRMC,222016.000,A,3748.7993,N,12217.8674,W,0.97,236.21,240810,,,A*7A
$GPRMC,222017.000,A,3748.8000,N,12217.8680,W,1.67,274.66,240810,,,A*77
$GPRMC,222018.000,A,3748.8007,N,12217.8687,W,2.19,263.54,240810,,,A*75
$GPRMC,222019.000,A,3748.8006,N,12217.8692,W,2.11,220.53,240810,,,A*79
$GPRMC,222020.000,A,3748.8002,N,12217.8702,W,2.02,205.13,240810,,,A*7E
$GPRMC,222021.000,A,3748.7996,N,12217.8707,W,2.06,194.11,240810,,,A*7C
$GPRMC,222022.000,A,3748.7994,N,12217.8712,W,1.91,185.95,240810,,,A*78
$GPRMC,222023.000,A,3748.7988,N,12217.8715,W,0.94,186.09,240810,,,A*71
$GPRMC,222024.000,A,3748.7985,N,12217.8720,W,0.65,233.82,240810,,,A*7D
$GPRMC,222025.000,A,3748.7983,N,12217.8723,W,0.36,263.72,240810,,,A*75
$GPRMC,222026.000,A,3748.7988,N,12217.8723,W,0.48,223.69,240810,,,A*7A
$GPRMC,222027.000,A,3748.7981,N,12217.8726,W,1.42,199.04,240810,,,A*75
$GPRMC,222028.000,A,3748.7973,N,12217.8732,W,1.50,193.03,240810,,,A*7C
$GPRMC,222029.000,A,3748.7966,N,12217.8736,W,1.53,195.37,240810,,,A*7F
$GPRMC,222030.000,A,3748.7957,N,12217.8744,W,1.31,204.95,240810,,,A*77
$GPRMC,222031.000,A,3748.7952,N,12217.8747,W,1.17,190.98,240810,,,A*77
$GPRMC,222032.000,A,3748.7950,N,12217.8753,W,1.30,192.94,240810,,,A*78
$GPRMC,222033.000,A,3748.7948,N,12217.8752,W,1.00,177.10,240810,,,A*75
$GPRMC,222034.000,A,3748.7950,N,12217.8756,W,1.01,145.73,240810,,,A*7A
$GPRMC,222035.000,A,3748.7949,N,12217.8761,W,1.28,177.05,240810,,,A*7C
$GPRMC,222036.000,A,3748.7941,N,12217.8765,W,1.51,197.21,240810,,,A*75
$GPRMC,222037.000,A,3748.7938,N,12217.8772,W,1.43,208.43,240810,,,A*7E
$GPRMC,222038.000,A,3748.7931,N,12217.8780,W,1.55,207.54,240810,,,A*7B
$GPRMC,222039.000,A,3748.7926,N,12217.8784,W,1.64,206.19,240810,,,A*72
$GPRMC,222040.000,A,3748.7923,N,12217.8787,W,1.59,215.83,240810,,,A*75
$GPRMC,222041.000,A,3748.7918,N,12217.8791,W,1.91,213.30,240810,,,A*71
$GPRMC,222042.000,A,3748.7916,N,12217.8796,W,1.66,219.58,240810,,,A*77
$GPRMC,222043.000,A,3748.7912,N,12217.8800,W,1.68,214.71,240810,,,A*7A
$GPRMC,222044.000,A,3748.7903,N,12217.8802,W,1.63,207.90,240810,,,A*79
$GPRMC,222045.000,A,3748.7895,N,12217.8803,W,1.95,196.57,240810,,,A*7E
$GPRMC,222046.000,A,3748.7889,N,12217.8804,W,1.77,198.64,240810,,,A*75
$GPRMC,222047.000,A,3748.7877,N,12217.8807,W,1.69,202.90,240810,,,A*72
$GPRMC,222048.000,A,3748.7867,N,12217.8810,W,2.04,195.12,240810,,,A*75
$GPRMC,222049.000,A,3748.7864,N,12217.8815,W,1.71,200.71,240810,,,A*79
$GPRMC,222050.000,A,3748.7856,N,12217.8816,W,1.18,204.23,240810,,,A*7F
$GPRMC,222051.000,A,3748.7851,N,12217.8819,W,0.64,232.18,240810,,,A*71
$GPRMC,222052.000,A,3748.7846,N,12217.8819,W,0.12,262.38,240810,,,A*72
$GPRMC,222053.000,A,3748.7843,N,12217.8820,W,0.15,223.10,240810,,,A*74
$GPRMC,222054.000,A,3748.7840,N,12217.8820,W,0.16,263.60,240810,,,A*70
$GPRMC,222055.000,A,3748.7839,N,12217.8821,W,0.15,175.25,240810,,,A*78
$GPRMC,222056.000,A,3748.7836,N,12217.8823,W,0.42,200.00,240810,,,A*72
$GPRMC,222057.000,A,3748.7834,N,12217.8825,W,0.69,216.16,240810,,,A*7E
$GPRMC,222058.000,A,3748.7827,N,12217.8825,W,0.72,195.10,240810,,,A*77
$GPRMC,222059.000,A,3748.7827,N,12217.8830,W,0.54,221.75,240810,,,A*79
$GPRMC,222100.000,A,3748.7825,N,12217.8834,W,0.68,244.97,240810,,,A*72
$GPRMC,222101.000,A,3748.7822,N,12217.8839,W,0.52,240.84,240810,,,A*76
$GPRMC,222102.000,A,3748.7822,N,12217.8842,W,0.12,216.00,240810,,,A*72
$GPRMC,222103.000,A,3748.7819,N,12217.8848,W,0.30,315.93,240810,,,A*79
$GPRMC,222104.000,A,3748.7821,N,12217.8854,W,0.51,271.48,240810,,,A*7A
$GPRMC,222105.000,A,3748.7818,N,12217.8860,W,0.34,240.19,240810,,,A*73
$GPRMC,222106.000,A,3748.7819,N,12217.8865,W,0.18,235.64,240810,,,A*72
$GPRMC,222107.000,A,3748.7819,N,12217.8873,W,0.68,243.61,240810,,,A*77
$GPRMC,222108.000,A,3748.7821,N,12217.8880,W,0.38,298.08,240810,,,A*73
$GPRMC,222109.000,A,3748.7827,N,12217.8896,W,1.06,283.87,240810,,,A*72
$GPRMC,222109.000,A,3748.7825,N,12217.8896,W,0.61,181.03,240810,,,A*7D
$GPRMC,222110.000,A,3748.7819,N,12217.8891,W,1.65,181.58,240810,,,A*76
$GPRMC,222111.000,A,3748.7810,N,12217.8893,W,2.29,203.30,240810,,,A*70
$GPRMC,222112.000,A,3748.7811,N,12217.8892,W,1.78,209.87,240810,,,A*72
$GPRMC,222113.000,A,3748.7813,N,12217.8892,W,1.55,210.97,240810,,,A*77
$GPRMC,222114.000,A,3748.7816,N,12217.8893,W,1.61,214.69,240810,,,A*76
$GPRMC,222115.000,A,3748.7810,N,12217.8892,W,1.50,217.03,240810,,,A*7D
$GPRMC,222116.000,A,3748.7808,N,12217.8893,W,1.80,208.97,240810,,,A*78
$GPRMC,222117.000,A,3748.7799,N,12217.8894,W,1.69,201.88,240810,,,A*79
$GPRMC,222118.000,A,3748.7793,N,12217.8894,W,1.87,205.84,240810,,,A*74
$GPRMC,222119.000,A,3748.7786,N,12217.8895,W,2.06,200.35,240810,,,A*75
$GPRMC,222120.000,A,3748.7783,N,12217.8896,W,1.81,212.56,240810,,,A*73
$GPRMC,222121.000,A,3748.7782,N,12217.8900,W,1.52,231.10,240810,,,A*70
$GPRMC,222122.000,A,3748.7784,N,12217.8904,W,1.34,246.86,240810,,,A*7E
$GPRMC,222123.000,A,3748.7791,N,12217.8910,W,1.21,263.56,240810,,,A*70
$GPRMC,222124.000,A,3748.7798,N,12217.8916,W,1.30,269.26,240810,,,A*75
$GPRMC,222125.000,A,3748.7799,N,12217.8918,W,1.05,214.68,240810,,,A*7D
$GPRMC,222126.000,A,3748.7798,N,12217.8921,W,1.13,213.95,240810,,,A*77
$GPRMC,222127.000,A,3748.7793,N,12217.8923,W,1.25,229.50,240810,,,A*7A
$GPRMC,222128.000,A,3748.7785,N,12217.8924,W,1.23,231.56,240810,,,A*7C
$GPRMC,222129.000,A,3748.7774,N,12217.8923,W,1.16,196.72,240810,,,A*7A
$GPRMC,222130.000,A,3748.7764,N,12217.8926,W,1.69,211.00,240810,,,A*77
$GPRMC,222131.000,A,3748.7759,N,12217.8929,W,1.77,213.43,240810,,,A*7D
$GPRMC,222132.000,A,3748.7754,N,12217.8932,W,1.90,214.32,240810,,,A*71
$GPRMC,222133.000,A,3748.7747,N,12217.8935,W,2.03,204.48,240810,,,A*70
$GPRMC,222134.000,A,3748.7738,N,12217.8937,W,1.70,206.89,240810,,,A*75
$GPRMC,222135.000,A,3748.7728,N,12217.8937,W,1.69,202.71,240810,,,A*7E
$GPRMC,222136.000,A,3748.7713,N,12217.8938,W,1.53,196.00,240810,,,A*7B
$GPRMC,222137.000,A,3748.7704,N,12217.8939,W,1.97,202.16,240810,,,A*7C
$GPRMC,222138.000,A,3748.7695,N,12217.8942,W,2.47,200.55,240810,,,A*7D
$GPRMC,222139.000,A,3748.7680,N,12217.8946,W,2.82,210.23,240810,,,A*75
$GPRMC,222140.000,A,3748.7670,N,12217.8946,W,2.13,201.65,240810,,,A*7E
$GPRMC,222141.000,A,3748.7655,N,12217.8951,W,2.03,201.79,240810,,,A*72
$GPRMC,222142.000,A,3748.7646,N,12217.8948,W,2.02,179.15,240810,,,A*7C
$GPRMC,222143.000,A,3748.7637,N,12217.8945,W,1.69,175.57,240810,,,A*72
$GPRMC,222144.000,A,3748.7631,N,12217.8946,W,0.78,218.02,240810,,,A*79
$GPRMC,222145.000,A,3748.7626,N,12217.8946,W,0.61,239.87,240810,,,A*78
$GPRMC,222146.000,A,3748.7623,N,12217.8948,W,0.99,247.62,240810,,,A*75
$GPRMC,222147.000,A,3748.7620,N,12217.8951,W,1.45,237.88,240810,,,A*7C
$GPRMC,222148.000,A,3748.7614,N,12217.8954,W,2.43,208.34,240810,,,A*7F
$GPRMC,222149.000,A,3748.7609,N,12217.8958,W,3.04,210.09,240810,,,A*7B
$GPRMC,222150.000,A,3748.7604,N,12217.8962,W,2.78,205.80,240810,,,A*78
$GPRMC,222151.000,A,3748.7596,N,12217.8968,W,2.79,205.98,240810,,,A*73
$GPRMC,222152.000,A,3748.7588,N,12217.8974,W,2.50,214.75,240810,,,A*7A
$GPRMC,222153.000,A,3748.7584,N,12217.8981,W,2.42,213.60,240810,,,A*7D
$GPRMC,222154.000,A,3748.7581,N,12217.8985,W,2.37,215.85,240810,,,A*74
$GPRMC,222155.000,A,3748.7575,N,12217.8990,W,2.60,213.67,240810,,,A*72
$GPRMC,222156.000,A,3748.7570,N,12217.8997,W,2.32,208.39,240810,,,A*75
$GPRMC,222157.000,A,3748.7563,N,12217.9002,W,1.68,198.06,240810,,,A*78
$GPRMC,222158.000,A,3748.7555,N,12217.9008,W,1.75,197.75,240810,,,A*7F
$GPRMC,222159.000,A,3748.7547,N,12217.9014,W,1.63,197.50,240810,,,A*70
$GPRMC,222200.000,A,3748.7543,N,12217.9016,W,1.68,214.29,240810,,,A*74
$GPRMC,222201.000,A,3748.7533,N,12217.9017,W,1.77,204.50,240810,,,A*72
$GPRMC,222202.000,A,3748.7523,N,12217.9023,W,2.15,211.43,240810,,,A*76
$GPRMC,222203.000,A,3748.7513,N,12217.9031,W,2.01,210.47,240810,,,A*77
$GPRMC,222204.000,A,3748.7502,N,12217.9042,W,2.19,207.27,240810,,,A*7D
$GPRMC,222205.000,A,3748.7495,N,12217.9048,W,2.23,205.66,240810,,,A*77
$GPRMC,222206.000,A,3748.7490,N,12217.9056,W,2.61,214.57,240810,,,A*7A
$GPRMC,222207.000,A,3748.7482,N,12217.9063,W,2.17,209.12,240810,,,A*72
$GPRMC,222208.000,A,3748.7477,N,12217.9066,W,2.15,207.21,240810,,,A*7E
$GPRMC,222209.000,A,3748.7473,N,12217.9072,W,2.09,205.54,240810,,,A*73
$GPRMC,222210.000,A,3748.7467,N,12217.9073,W,2.05,205.65,240810,,,A*71
$GPRMC,222211.000,A,3748.7461,N,12217.9077,W,2.03,209.50,240810,,,A*7E
$GPRMC,222212.000,A,3748.7459,N,12217.9079,W,1.81,208.60,240810,,,A*73
$GPRMC,222213.000,A,3748.7455,N,12217.9081,W,1.95,210.02,240810,,,A*71
$GPRMC,222214.000,A,3748.7449,N,12217.9087,W,1.92,208.35,240810,,,A*77
$GPRMC,222215.000,A,3748.7442,N,12217.9093,W,1.85,204.66,240810,,,A*74
$GPRMC,222216.000,A,3748.7436,N,12217.9098,W,1.86,209.85,240810,,,A*7C
$GPRMC,222217.000,A,3748.7428,N,12217.9105,W,2.10,216.30,240810,,,A*7B
$GPRMC,222218.000,A,3748.7422,N,12217.9110,W,2.22,223.41,240810,,,A*7B
$GPRMC,222219.000,A,3748.7415,N,12217.9118,W,2.03,220.61,240810,,,A*74
$GPRMC,222220.000,A,3748.7410,N,12217.9125,W,1.88,212.95,240810,,,A*7F
$GPRMC,222221.000,A,3748.7404,N,12217.9132,W,1.87,219.49,240810,,,A*78
$GPRMC,222222.000,A,3748.7399,N,12217.9134,W,1.85,214.70,240810,,,A*7B
$GPRMC,222223.000,A,3748.7393,N,12217.9139,W,1.91,209.03,240810,,,A*70
$GPRMC,222224.000,A,3748.7389,N,12217.9146,W,2.33,211.98,240810,,,A*74
$GPRMC,222225.000,A,3748.7385,N,12217.9152,W,1.74,201.13,240810,,,A*7E
$GPRMC,222226.000,A,3748.7381,N,12217.9155,W,1.75,201.42,240810,,,A*7B
$GPRMC,222227.000,A,3748.7376,N,12217.9157,W,1.74,204.34,240810,,,A*75
$GPRMC,222228.000,A,3748.7372,N,12217.9161,W,1.70,206.91,240810,,,A*72
$GPRMC,222229.000,A,3748.7367,N,12217.9166,W,1.95,204.39,240810,,,A*7B
$GPRMC,222230.000,A,3748.7358,N,12217.9175,W,1.98,214.74,240810,,,A*78
$GPRMC,222231.000,A,3748.7353,N,12217.9182,W,1.83,208.87,240810,,,A*71
$GPRMC,222232.000,A,3748.7347,N,12217.9188,W,1.72,213.69,240810,,,A*79
$GPRMC,222233.000,A,3748.7346,N,12217.9199,W,1.99,213.21,240810,,,A*70
$GPRMC,222234.000,A,3748.7344,N,12217.9208,W,1.94,214.01,240810,,,A*76
$GPRMC,222235.000,A,3748.7345,N,12217.9215,W,1.49,210.43,240810,,,A*78
$GPRMC,222236.000,A,3748.7342,N,12217.9218,W,1.74,219.32,240810,,,A*70
$GPRMC,222237.000,A,3748.7342,N,12217.9225,W,1.33,222.34,240810,,,A*72
$GPRMC,222238.000,A,3748.7342,N,12217.9232,W,1.34,228.83,240810,,,A*7A
$GPRMC,222239.000,A,3748.7339,N,12217.9238,W,1.15,226.76,240810,,,A*7A
$GPRMC,222240.000,A,3748.7339,N,12217.9238,W,1.05,217.04,240810,,,A*72
$GPRMC,222241.000,A,3748.7331,N,12217.9238,W,1.26,210.42,240810,,,A*7F
$GPRMC,222242.000,A,3748.7323,N,12217.9239,W,1.30,210.90,240810,,,A*76
$GPRMC,222243.000,A,3748.7325,N,12217.9245,W,1.27,216.10,240810,,,A*72
$GPRMC,222244.000,A,3748.7326,N,12217.9247,W,0.92,215.36,240810,,,A*7C
$GPRMC,222245.000,A,3748.7321,N,12217.9249,W,1.48,217.70,240810,,,A*72
$GPRMC,222246.000,A,3748.7316,N,12217.9251,W,1.28,221.48,240810,,,A*74
$GPRMC,222247.000,A,3748.7312,N,12217.9253,W,1.25,217.89,240810,,,A*76
$GPRMC,222248.000,A,3748.7308,N,12217.9252,W,0.85,202.37,240810,,,A*79
$GPRMC,222249.000,A,3748.7299,N,12217.9250,W,1.33,220.23,240810,,,A*7A
$GPRMC,222250.000,A,3748.7295,N,12217.9250,W,1.29,217.28,240810,,,A*7A
$GPRMC,222251.000,A,3748.7295,N,12217.9250,W,1.46,233.69,240810,,,A*71
$GPRMC,222252.000,A,3748.7292,N,12217.9253,W,0.94,214.40,240810,,,A*76
$GPRMC,222253.000,A,3748.7292,N,12217.9255,W,0.76,196.28,240810,,,A*7A
$GPRMC,222254.000,A,3748.7285,N,12217.9256,W,1.00,225.31,240810,,,A*7B
$GPRMC,222255.000,A,3748.7279,N,12217.9258,W,1.59,231.11,240810,,,A*7C
$GPRMC,222256.000,A,3748.7274,N,12217.9262,W,1.92,230.06,240810,,,A*7B
$GPRMC,222257.000,A,3748.7268,N,12217.9267,W,2.04,234.68,240810,,,A*72
$GPRMC,222258.000,A,3748.7261,N,12217.9270,W,1.95,222.59,240810,,,A*7C
$GPRMC,222259.000,A,3748.7255,N,12217.9273,W,1.47,207.50,240810,,,A*78
$GPRMC,222300.000,A,3748.7249,N,12217.9272,W,1.37,199.70,240810,,,A*78
$GPRMC,222301.000,A,3748.7244,N,12217.9271,W,1.20,193.16,240810,,,A*7B
$GPRMC,222302.000,A,3748.7238,N,12217.9273,W,1.43,183.55,240810,,,A*72
$GPRMC,222303.000,A,3748.7235,N,12217.9278,W,1.40,193.70,240810,,,A*70
$GPRMC,222304.000,A,3748.7233,N,12217.9281,W,1.54,213.68,240810,,,A*70
$GPRMC,222305.000,A,3748.7233,N,12217.9287,W,1.51,223.31,240810,,,A*7D
$GPRMC,222306.000,A,3748.7229,N,12217.9290,W,1.35,211.59,240810,,,A*7E
$GPRMC,222307.000,A,3748.7231,N,12217.9294,W,1.09,201.73,240810,,,A*74
$GPRMC,222308.000,A,3748.7228,N,12217.9299,W,1.53,209.84,240810,,,A*71
$GPRMC,222309.000,A,3748.7219,N,12217.9302,W,1.29,212.63,240810,,,A*7F
$GPRMC,222310.000,A,3748.7211,N,12217.9303,W,1.56,216.31,240810,,,A*75
$GPRMC,222311.000,A,3748.7203,N,12217.9304,W,1.86,190.93,240810,,,A*78
$GPRMC,222312.000,A,3748.7197,N,12217.9307,W,1.80,183.14,240810,,,A*7D
$GPRMC,222313.000,A,3748.7190,N,12217.9307,W,1.92,174.01,240810,,,A*74
$GPRMC,222314.000,A,3748.7184,N,12217.9314,W,2.30,197.05,240810,,,A*76
$GPRMC,222315.000,A,3748.7175,N,12217.9316,W,1.83,191.46,240810,,,A*71
$GPRMC,222316.000,A,3748.7165,N,12217.9316,W,1.78,210.54,240810,,,A*7E
$GPRMC,222317.000,A,3748.7155,N,12217.9318,W,2.13,206.93,240810,,,A*70
$GPRMC,222318.000,A,3748.7146,N,12217.9321,W,2.06,211.35,240810,,,A*79
$GPRMC,222319.000,A,3748.7135,N,12217.9326,W,2.18,209.46,240810,,,A*79
$GPRMC,222320.000,A,3748.7126,N,12217.9330,W,2.35,206.12,240810,,,A*77
$GPRMC,222321.000,A,3748.7121,N,12217.9329,W,2.05,207.43,240810,,,A*7F
$GPRMC,222322.000,A,3748.7113,N,12217.9333,W,1.88,214.20,240810,,,A*77
$GPRMC,222323.000,A,3748.7102,N,12217.9339,W,2.04,211.56,240810,,,A*7F
$GPRMC,222324.000,A,3748.7096,N,12217.9338,W,1.68,201.53,240810,,,A*78
$GPRMC,222325.000,A,3748.7091,N,12217.9338,W,1.64,196.42,240810,,,A*7F
$GPRMC,222326.000,A,3748.7085,N,12217.9339,W,1.53,205.33,240810,,,A*73
$GPRMC,222327.000,A,3748.7085,N,12217.9350,W,1.97,239.67,240810,,,A*7B
$GPRMC,222328.000,A,3748.7082,N,12217.9361,W,2.16,232.41,240810,,,A*74
$GPRMC,222329.000,A,3748.7075,N,12217.9365,W,1.95,202.07,240810,,,A*70
$GPRMC,222330.000,A,3748.7066,N,12217.9370,W,1.88,202.36,240810,,,A*70
$GPRMC,222331.000,A,3748.7061,N,12217.9373,W,1.42,210.87,240810,,,A*7A
$GPRMC,222332.000,A,3748.7055,N,12217.9375,W,1.25,211.93,240810,,,A*7D
$GPRMC,222333.000,A,3748.7049,N,12217.9378,W,1.70,208.04,240810,,,A*7A
$GPRMC,222334.000,A,3748.7045,N,12217.9382,W,1.63,203.00,240810,,,A*79
$GPRMC,222335.000,A,3748.7038,N,12217.9387,W,2.04,202.50,240810,,,A*71
$GPRMC,222336.000,A,3748.7030,N,12217.9390,W,1.73,199.79,240810,,,A*75
$GPRMC,222337.000,A,3748.7018,N,12217.9394,W,1.72,195.01,240810,,,A*78
$GPRMC,222338.000,A,3748.7010,N,12217.9398,W,2.23,205.47,240810,,,A*7C
$GPRMC,222339.000,A,3748.6999,N,12217.9401,W,2.04,207.34,240810,,,A*70
$GPRMC,222340.000,A,3748.6991,N,12217.9406,W,2.10,209.92,240810,,,A*76
$GPRMC,222341.000,A,3748.6984,N,12217.9410,W,2.25,209.93,240810,,,A*73
$GPRMC,222342.000,A,3748.6981,N,12217.9411,W,1.99,215.26,240810,,,A*73
$GPRMC,222343.000,A,3748.6978,N,12217.9410,W,1.93,193.95,240810,,,A*7A
$GPRMC,222344.000,A,3748.6972,N,12217.9414,W,1.62,206.72,240810,,,A*7B
$GPRMC,222345.000,A,3748.6967,N,12217.9417,W,2.12,220.03,240810,,,A*7B
$GPRMC,222346.000,A,3748.6959,N,12217.9423,W,1.58,213.00,240810,,,A*7C
$GPRMC,222347.000,A,3748.6952,N,12217.9423,W,1.41,204.87,240810,,,A*77
$GPRMC,222348.000,A,3748.6946,N,12217.9425,W,1.42,199.90,240810,,,A*79
$GPRMC,222349.000,A,3748.6942,N,12217.9425,W,1.59,201.19,240810,,,A*75
$GPRMC,222350.000,A,3748.6941,N,12217.9423,W,1.44,213.62,240810,,,A*7B
$GPRMC,222351.000,A,3748.6940,N,12217.9424,W,1.44,213.93,240810,,,A*72
$GPRMC,222352.000,A,3748.6933,N,12217.9433,W,1.41,209.26,240810,,,A*73
$GPRMC,222353.000,A,3748.6926,N,12217.9441,W,1.24,204.80,240810,,,A*71
$GPRMC,222354.000,A,3748.6920,N,12217.9444,W,1.50,224.89,240810,,,A*7D
$GPRMC,222355.000,A,3748.6916,N,12217.9451,W,1.71,217.16,240810,,,A*78
$GPRMC,222356.000,A,3748.6913,N,12217.9455,W,1.32,219.59,240810,,,A*78
$GPRMC,222357.000,A,3748.6907,N,12217.9461,W,1.34,209.26,240810,,,A*74
$GPRMC,222358.000,A,3748.6901,N,12217.9469,W,1.47,212.02,240810,,,A*7D
$GPRMC,222359.000,A,3748.6896,N,12217.9475,W,1.40,198.38,240810,,,A*71
$GPRMC,222400.000,A,3748.6888,N,12217.9483,W,1.39,211.85,240810,,,A*76
$GPRMC,222401.000,A,3748.6883,N,12217.9488,W,1.17,212.18,240810,,,A*7C
$GPRMC,222402.000,A,3748.6877,N,12217.9493,W,1.37,207.40,240810,,,A*75
$GPRMC,222403.000,A,3748.6871,N,12217.9499,W,1.30,213.71,240810,,,A*78
$GPRMC,222404.000,A,3748.6868,N,12217.9503,W,1.23,233.35,240810,,,A*75
$GPRMC,222405.000,A,3748.6864,N,12217.9509,W,1.56,219.31,240810,,,A*7C
$GPRMC,222406.000,A,3748.6859,N,12217.9513,W,1.55,197.64,240810,,,A*7C
$GPRMC,222407.000,A,3748.6856,N,12217.9516,W,0.97,211.59,240810,,,A*7B
$GPRMC,222408.000,A,3748.6852,N,12217.9517,W,1.38,227.00,240810,,,A*7C
$GPRMC,222409.000,A,3748.6855,N,12217.9519,W,1.09,237.78,240810,,,A*78
$GPRMC,222410.000,A,3748.6851,N,12217.9527,W,1.42,226.01,240810,,,A*78
$GPRMC,222411.000,A,3748.6847,N,12217.9532,W,1.05,221.60,240810,,,A*79
$GPRMC,222412.000,A,3748.6848,N,12217.9527,W,0.44,87.66,240810,,,A*4D
$GPRMC,222413.000,A,3748.6847,N,12217.9525,W,0.31,199.23,240810,,,A*7C
$GPRMC,222414.000,A,3748.6845,N,12217.9523,W,0.25,44.60,240810,,,A*4C
$GPRMC,222415.000,A,3748.6844,N,12217.9520,W,0.16,120.92,240810,,,A*71
$GPRMC,222416.000,A,3748.6842,N,12217.9519,W,0.30,200.69,240810,,,A*7F
$GPRMC,222417.000,A,3748.6841,N,12217.9518,W,0.30,176.25,240810,,,A*76
$GPRMC,222418.000,A,3748.6841,N,12217.9515,W,0.17,207.63,240810,,,A*76
$GPRMC,222419.000,A,3748.6842,N,12217.9513,W,0.24,143.77,240810,,,A*74
$GPRMC,222420.000,A,3748.6842,N,12217.9508,W,0.34,99.81,240810,,,A*4A
$GPRMC,222421.000,A,3748.6843,N,12217.9505,W,0.62,52.44,240810,,,A*4A
$GPRMC,222422.000,A,3748.6845,N,12217.9501,W,1.00,39.15,240810,,,A*47
$GPRMC,222423.000,A,3748.6849,N,12217.9500,W,0.41,42.91,240810,,,A*4F
$GPRMC,222424.000,A,3748.6851,N,12217.9499,W,0.10,313.35,240810,,,D*78
$GPRMC,222425.000,A,3748.6853,N,12217.9495,W,0.10,302.76,240810,,,D*70
$GPRMC,222426.000,A,3748.6854,N,12217.9499,W,0.63,252.24,240810,,,D*7F
$GPRMC,222427.000,A,3748.6856,N,12217.9502,W,0.18,267.22,240810,,,D*73
$GPRMC,222428.000,A,3748.6857,N,12217.9506,W,0.50,306.17,240810,,,D*75
$GPRMC,222429.000,A,3748.6856,N,12217.9502,W,0.55,20.29,240810,,,D*4E
$GPRMC,222430.000,A,3748.6852,N,12217.9498,W,0.91,19.82,240810,,,D*43
$GPRMC,222431.000,A,3748.6853,N,12217.9495,W,0.05,52.96,240810,,,D*49
$GPRMC,222432.000,A,3748.6855,N,12217.9494,W,0.48,27.13,240810,,,D*4B
$GPRMC,222433.000,A,3748.6858,N,12217.9493,W,0.62,40.98,240810,,,D*4A
$GPRMC,222434.000,A,3748.6864,N,12217.9494,W,0.13,104.61,240810,,,D*74
$GPRMC,222435.000,A,3748.6869,N,12217.9496,W,0.39,198.42,240810,,,D*76
$GPRMC,222436.000,A,3748.6873,N,12217.9498,W,0.14,231.85,240810,,,D*74
$GPRMC,222437.000,A,3748.6875,N,12217.9499,W,0.33,213.45,240810,,,D*7B
$GPRMC,222438.000,A,3748.6873,N,12217.9500,W,0.34,216.17,240810,,,D*76
$GPRMC,222439.000,A,3748.6875,N,12217.9496,W,0.62,348.18,240810,,,D*79
$GPRMC,222440.000,A,3748.6875,N,12217.9497,W,0.89,321.04,240810,,,D*71
$GPRMC,222441.000,A,3748.6869,N,12217.9493,W,0.44,161.95,240810,,,D*76
$GPRMC,222442.000,A,3748.6867,N,12217.9490,W,0.39,195.57,240810,,,D*77
$GPRMC,222443.000,A,3748.6865,N,12217.9485,W,0.24,164.25,240810,,,D*77
$GPRMC,222444.000,A,3748.6864,N,12217.9482,W,0.14,76.69,240810,,,D*4F
$GPRMC,222445.000,A,3748.6867,N,12217.9480,W,0.20,355.35,240810,,,D*73
$GPRMC,222446.000,A,3748.6869,N,12217.9481,W,0.15,347.41,240810,,,A*7C
$GPRMC,222447.000,A,3748.6870,N,12217.9480,W,0.13,4.92,240810,,,A*78
$GPRMC,222448.000,A,3748.6870,N,12217.9479,W,0.33,326.38,240810,,,A*70
$GPRMC,222449.000,A,3748.6870,N,12217.9479,W,0.40,332.52,240810,,,A*7C
$GPRMC,222450.000,A,3748.6870,N,12217.9478,W,0.41,346.48,240810,,,A*7C
$GPRMC,222451.000,A,3748.6870,N,12217.9479,W,0.32,263.22,240810,,,A*72
$GPRMC,222452.000,A,3748.6870,N,12217.9479,W,0.06,162.22,240810,,,A*74
$GPRMC,222453.000,A,3748.6870,N,12217.9479,W,0.31,124.93,240810,,,A*79
$GPRMC,222454.000,A,3748.6872,N,12217.9482,W,0.37,209.73,240810,,,A*7C
$GPRMC,222455.000,A,3748.6873,N,12217.9485,W,0.25,62.92,240810,,,A*48
$GPRMC,222456.000,A,3748.6875,N,12217.9485,W,0.47,49.18,240810,,,D*47
$GPRMC,222457.000,A,3748.6876,N,12217.9486,W,0.33,46.92,240810,,,D*48
$GPRMC,222458.000,A,3748.6877,N,12217.9487,W,0.11,32.26,240810,,,D*4B
$GPRMC,222459.000,A,3748.6877,N,12217.9488,W,0.36,355.44,240810,,,D*76
$GPRMC,222500.000,A,3748.6878,N,12217.9490,W,0.41,345.34,240810,,,D*7B
$GPRMC,222501.000,A,3748.6878,N,12217.9491,W,0.18,96.52,240810,,,D*4A
$GPRMC,222502.000,A,3748.6878,N,12217.9491,W,0.28,151.41,240810,,,D*72
$GPRMC,222503.000,A,3748.6877,N,12217.9491,W,0.33,143.92,240810,,,D*7B
$GPRMC,222504.000,A,3748.6877,N,12217.9491,W,0.35,52.13,240810,,,D*42
$GPRMC,222505.000,A,3748.6877,N,12217.9492,W,0.20,32.15,240810,,,D*44
$GPRMC,222506.000,A,3748.6876,N,12217.9491,W,0.20,211.75,240810,,,D*70
$GPRMC,222507.000,A,3748.6875,N,12217.9491,W,0.07,4.52,240810,,,D*74
$GPRMC,222508.000,A,3748.6875,N,12217.9491,W,0.14,91.14,240810,,,D*47
$GPRMC,222509.000,A,3748.6875,N,12217.9490,W,0.32,49.98,240810,,,D*42
$GPRMC,222510.000,A,3748.6875,N,12217.9489,W,0.36,25.75,240810,,,D*4F
$GPRMC,222511.000,A,3748.6876,N,12217.9489,W,0.57,352.35,240810,,,D*7D
$GPRMC,222512.000,A,3748.6876,N,12217.9489,W,0.19,46.45,240810,,,D*45
$GPRMC,222513.000,A,3748.6876,N,12217.9489,W,0.30,14.91,240810,,,D*41
$GPRMC,222514.000,A,3748.6876,N,12217.9488,W,0.54,15.30,240810,,,D*4F
$GPRMC,222515.000,A,3748.6876,N,12217.9488,W,0.16,58.20,240810,,,D*40
$GPRMC,222516.000,A,3748.6875,N,12217.9487,W,0.21,118.61,240810,,,D*7B
$GPRMC,222517.000,A,3748.6874,N,12217.9487,W,0.20,54.57,240810,,,D*46
$GPRMC,222518.000,A,3748.6874,N,12217.9486,W,0.35,46.15,240810,,,D*49
$GPRMC,222519.000,A,3748.6874,N,12217.9485,W,0.75,32.16,240810,,,D*4F
$GPRMC,222520.000,A,3748.6874,N,12217.9484,W,0.29,65.15,240810,,,D*4C
$GPRMC,222521.000,A,3748.6873,N,12217.9485,W,0.06,202.99,240810,,,D*71
$GPRMC,222522.000,A,3748.6872,N,12217.9485,W,0.29,185.45,240810,,,D*73
$GPRMC,222523.000,A,3748.6871,N,12217.9486,W,0.26,184.98,240810,,,D*7C
$GPRMC,222524.000,A,3748.6870,N,12217.9487,W,0.11,330.70,240810,,,D*74
$GPRMC,222525.000,A,3748.6869,N,12217.9487,W,0.16,27.01,240810,,,D*49
$GPRMC,222526.000,A,3748.6869,N,12217.9488,W,0.22,163.35,240810,,,D*74
$GPRMC,222527.000,A,3748.6868,N,12217.9489,W,0.29,78.18,240810,,,D*4A
$GPRMC,222528.000,A,3748.6865,N,12217.9488,W,0.23,171.44,240810,,,D*72
$GPRMC,222529.000,A,3748.6862,N,12217.9487,W,0.32,357.44,240810,,,D*7D
$GPRMC,222530.000,A,3748.6860,N,12217.9486,W,0.48,7.96,240810,,,D*72
$GPRMC,222531.000,A,3748.6860,N,12217.9485,W,0.61,16.27,240810,,,D*41
$GPRMC,222532.000,A,3748.6859,N,12217.9484,W,0.56,6.02,240810,,,D*7B
$GPRMC,222533.000,A,3748.6858,N,12217.9483,W,0.33,125.23,240810,,,D*7C
$GPRMC,222534.000,A,3748.6856,N,12217.9483,W,0.16,140.07,240810,,,D*77
$GPRMC,222535.000,A,3748.6856,N,12217.9483,W,0.07,50.93,240810,,,D*4B
$GPRMC,222536.000,A,3748.6858,N,12217.9485,W,0.11,26.34,240810,,,D*4B
$GPRMC,222537.000,A,3748.6860,N,12217.9485,W,0.29,323.25,240810,,,D*7C
$GPRMC,222538.000,A,3748.6862,N,12217.9486,W,0.63,13.52,240810,,,D*4C
$GPRMC,222539.000,A,3748.6863,N,12217.9485,W,0.51,55.73,240810,,,D*4F
$GPRMC,222540.000,A,3748.6864,N,12217.9484,W,0.28,41.21,240810,,,D*4B
$GPRMC,222541.000,A,3748.6864,N,12217.9484,W,0.38,62.83,240810,,,D*42
$GPRMC,222542.000,A,3748.6865,N,12217.9484,W,0.27,90.88,240810,,,D*48
$GPRMC,222543.000,A,3748.6865,N,12217.9485,W,0.34,239.63,240810,,,D*7E
$GPRMC,222544.000,A,3748.6865,N,12217.9487,W,0.30,265.71,240810,,,A*70
$GPRMC,222545.000,A,3748.6866,N,12217.9490,W,0.41,221.59,240810,,,A*78
$GPRMC,222546.000,A,3748.6866,N,12217.9491,W,0.18,256.93,240810,,,A*70
$GPRMC,222547.000,A,3748.6867,N,12217.9492,W,0.07,312.22,240810,,,A*76
$GPRMC,222548.000,A,3748.6869,N,12217.9494,W,0.33,323.79,240810,,,A*7A
$GPRMC,222549.000,A,3748.6870,N,12217.9495,W,0.44,346.94,240810,,,A*72
$GPRMC,222550.000,A,3748.6871,N,12217.9496,W,0.26,333.86,240810,,,A*7D
$GPRMC,222551.000,A,3748.6872,N,12217.9496,W,0.39,0.07,240810,,,A*7B
$GPRMC,222552.000,A,3748.6873,N,12217.9497,W,0.32,331.67,240810,,,A*74
$GPRMC,222553.000,A,3748.6874,N,12217.9498,W,0.45,356.92,240810,,,A*76
$GPRMC,222554.000,A,3748.6875,N,12217.9499,W,0.27,300.62,240810,,,A*79
$GPRMC,222555.000,A,3748.6876,N,12217.9499,W,0.36,22.03,240810,,,A*4F
$GPRMC,222556.000,A,3748.6876,N,12217.9497,W,0.32,43.29,240810,,,A*49
$GPRMC,222557.000,A,3748.6876,N,12217.9496,W,0.28,18.77,240810,,,A*47
$GPRMC,222558.000,A,3748.6876,N,12217.9495,W,0.42,45.92,240810,,,A*44
$GPRMC,222559.000,A,3748.6876,N,12217.9493,W,0.24,29.83,240810,,,A*49
$GPRMC,222600.000,A,3748.6876,N,12217.9492,W,0.28,35.46,240810,,,A*4F
$GPRMC,222601.000,A,3748.6876,N,12217.9491,W,0.06,298.15,240810,,,A*72
$GPRMC,222602.000,A,3748.6875,N,12217.9490,W,0.04,79.66,240810,,,A*48
$GPRMC,222603.000,A,3748.6874,N,12217.9490,W,0.12,236.63,240810,,,A*73
$GPRMC,222604.000,A,3748.6874,N,12217.9489,W,0.15,52.92,240810,,,A*45
$GPRMC,222605.000,A,3748.6874,N,12217.9488,W,0.20,25.50,240810,,,A*4D
$GPRMC,222606.000,A,3748.6873,N,12217.9488,W,0.30,244.84,240810,,,A*74
$GPRMC,222607.000,A,3748.6873,N,12217.9488,W,0.11,330.41,240810,,,A*7D
$GPRMC,222608.000,A,3748.6873,N,12217.9488,W,0.12,322.94,240810,,,A*7A
$GPRMC,222609.000,A,3748.6871,N,12217.9487,W,0.14,348.10,240810,,,A*70
$GPRMC,222610.000,A,3748.6871,N,12217.9487,W,0.08,331.93,240810,,,A*70
$GPRMC,222611.000,A,3748.6870,N,12217.9487,W,0.56,191.71,240810,,,A*7F
$GPRMC,222612.000,A,3748.6864,N,12217.9496,W,0.60,237.00,240810,,,A*75
$GPRMC,222613.000,A,3748.6859,N,12217.9505,W,1.24,210.46,240810,,,A*77
$GPRMC,222614.000,A,3748.6853,N,12217.9513,W,1.42,207.79,240810,,,A*77
$GPRMC,222615.000,A,3748.6845,N,12217.9523,W,2.12,221.13,240810,,,A*7C
$GPRMC,222616.000,A,3748.6838,N,12217.9535,W,1.36,218.78,240810,,,A*70
$GPRMC,222617.000,A,3748.6833,N,12217.9543,W,1.40,220.63,240810,,,A*7B
$GPRMC,222618.000,A,3748.6826,N,12217.9552,W,1.86,202.25,240810,,,A*78
$GPRMC,222619.000,A,3748.6818,N,12217.9561,W,1.99,206.78,240810,,,A*76
$GPRMC,222620.000,A,3748.6813,N,12217.9565,W,1.65,197.63,240810,,,A*71
$GPRMC,222621.000,A,3748.6806,N,12217.9572,W,1.68,207.00,240810,,,A*70
$GPRMC,222622.000,A,3748.6802,N,12217.9576,W,1.28,204.61,240810,,,A*73
$GPRMC,222623.000,A,3748.6797,N,12217.9581,W,1.37,192.08,240810,,,A*74
$GPRMC,222624.000,A,3748.6792,N,12217.9585,W,1.46,196.31,240810,,,A*7A
$GPRMC,222625.000,A,3748.6787,N,12217.9590,W,1.47,206.61,240810,,,A*75
$GPRMC,222626.000,A,3748.6781,N,12217.9597,W,1.69,202.87,240810,,,A*77
$GPRMC,222627.000,A,3748.6778,N,12217.9603,W,1.64,195.51,240810,,,A*75
$GPRMC,222628.000,A,3748.6776,N,12217.9607,W,2.32,196.68,240810,,,A*79
$GPRMC,222629.000,A,3748.6770,N,12217.9613,W,1.72,203.48,240810,,,A*71
$GPRMC,222630.000,A,3748.6767,N,12217.9619,W,1.23,230.67,240810,,,A*7C
$GPRMC,222631.000,A,3748.6766,N,12217.9624,W,0.89,230.48,240810,,,A*7E
$GPRMC,222632.000,A,3748.6766,N,12217.9628,W,0.55,223.40,240810,,,A*7A
$GPRMC,222633.000,A,3748.6769,N,12217.9630,W,0.79,149.84,240810,,,A*74
$GPRMC,222634.000,A,3748.6771,N,12217.9631,W,0.49,44.75,240810,,,A*4A
$GPRMC,222635.000,A,3748.6770,N,12217.9636,W,0.11,196.29,240810,,,A*77
$GPRMC,222636.000,A,3748.6770,N,12217.9642,W,0.52,254.16,240810,,,A*71
$GPRMC,222637.000,A,3748.6768,N,12217.9649,W,1.23,233.95,240810,,,A*7F
$GPRMC,222638.000,A,3748.6766,N,12217.9652,W,1.25,196.77,240810,,,A*72
$GPRMC,222639.000,A,3748.6763,N,12217.9653,W,1.56,177.29,240810,,,A*77
$GPRMC,222640.000,A,3748.6761,N,12217.9653,W,1.65,173.27,240810,,,A*71
$GPRMC,222641.000,A,3748.6758,N,12217.9657,W,1.75,209.62,240810,,,A*70
$GPRMC,222642.000,A,3748.6753,N,12217.9665,W,1.71,223.52,240810,,,A*76
$GPRMC,222643.000,A,3748.6746,N,12217.9674,W,1.62,204.62,240810,,,A*77
$GPRMC,222644.000,A,3748.6737,N,12217.9681,W,1.91,206.76,240810,,,A*77
$GPRMC,222645.000,A,3748.6729,N,12217.9684,W,2.07,206.88,240810,,,A*71
$GPRMC,222646.000,A,3748.6724,N,12217.9689,W,1.76,205.54,240810,,,A*75
$GPRMC,222647.000,A,3748.6718,N,12217.9689,W,1.63,182.16,240810,,,A*75
$GPRMC,222648.000,A,3748.6712,N,12217.9689,W,1.46,185.20,240810,,,A*75
$GPRMC,222649.000,A,3748.6708,N,12217.9689,W,1.23,193.50,240810,,,A*7C
$GPRMC,222650.000,A,3748.6699,N,12217.9694,W,1.11,190.28,240810,,,A*7C
$GPRMC,222651.000,A,3748.6693,N,12217.9697,W,1.23,187.60,240810,,,A*7F
$GPRMC,222652.000,A,3748.6689,N,12217.9698,W,1.10,203.71,240810,,,A*77
$GPRMC,222653.000,A,3748.6686,N,12217.9699,W,0.96,226.05,240810,,,A*73
$GPRMC,222654.000,A,3748.6683,N,12217.9703,W,0.43,264.74,240810,,,A*7B
$GPRMC,222655.000,A,3748.6682,N,12217.9705,W,0.48,45.86,240810,,,A*4A
$GPRMC,222656.000,A,3748.6683,N,12217.9705,W,0.42,355.38,240810,,,A*75
$GPRMC,222657.000,A,3748.6682,N,12217.9707,W,0.16,43.47,240810,,,A*4A
$GPRMC,222658.000,A,3748.6680,N,12217.9709,W,0.14,115.48,240810,,,A*76
$GPRMC,222659.000,A,3748.6675,N,12217.9714,W,0.93,189.37,240810,,,A*73
$GPRMC,222700.000,A,3748.6672,N,12217.9715,W,1.28,210.26,240810,,,A*7A
$GPRMC,222701.000,A,3748.6668,N,12217.9718,W,1.64,211.54,240810,,,A*71
$GPRMC,222702.000,A,3748.6663,N,12217.9721,W,1.82,211.33,240810,,,A*7A
$GPRMC,222703.000,A,3748.6659,N,12217.9723,W,2.00,212.09,240810,,,A*73
$GPRMC,222704.000,A,3748.6656,N,12217.9723,W,1.75,204.27,240810,,,A*71
$GPRMC,222705.000,A,3748.6654,N,12217.9723,W,1.66,203.99,240810,,,A*72
$GPRMC,222706.000,A,3748.6650,N,12217.9726,W,1.94,197.24,240810,,,A*75
$GPRMC,222707.000,A,3748.6644,N,12217.9728,W,1.89,195.71,240810,,,A*71
$GPRMC,222708.000,A,3748.6637,N,12217.9731,W,1.57,204.91,240810,,,A*74
$GPRMC,222709.000,A,3748.6633,N,12217.9735,W,1.51,209.59,240810,,,A*7A
$GPRMC,222710.000,A,3748.6632,N,12217.9737,W,1.72,209.02,240810,,,A*7E
$GPRMC,222711.000,A,3748.6630,N,12217.9740,W,1.38,199.30,240810,,,A*78
$GPRMC,222712.000,A,3748.6627,N,12217.9742,W,1.58,198.87,240810,,,A*74
$GPRMC,222713.000,A,3748.6624,N,12217.9745,W,1.68,201.97,240810,,,A*70
$GPRMC,222714.000,A,3748.6614,N,12217.9756,W,1.80,187.57,240810,,,A*71
$GPRMC,222715.000,A,3748.6611,N,12217.9756,W,1.62,183.58,240810,,,A*72
$GPRMC,222716.000,A,3748.6608,N,12217.9756,W,1.38,188.08,240810,,,A*78
$GPRMC,222717.000,A,3748.6600,N,12217.9768,W,1.50,183.29,240810,,,A*7A
$GPRMC,222718.000,A,3748.6593,N,12217.9781,W,0.78,218.20,240810,,,A*78
$GPRMC,222719.000,A,3748.6594,N,12217.9785,W,1.12,215.62,240810,,,A*7C
$GPRMC,222720.000,A,3748.6591,N,12217.9789,W,1.62,212.67,240810,,,A*7A
$GPRMC,222721.000,A,3748.6588,N,12217.9791,W,1.85,178.81,240810,,,A*74
$GPRMC,222722.000,A,3748.6583,N,12217.9790,W,1.64,178.14,240810,,,A*7E
$GPRMC,222723.000,A,3748.6578,N,12217.9793,W,1.50,203.98,240810,,,A*74
$GPRMC,222724.000,A,3748.6574,N,12217.9801,W,1.55,202.47,240810,,,A*7D
$GPRMC,222725.000,A,3748.6570,N,12217.9808,W,0.94,221.08,240810,,,A*77
$GPRMC,222726.000,A,3748.6563,N,12217.9813,W,1.27,213.85,240810,,,A*71
$GPRMC,222727.000,A,3748.6555,N,12217.9819,W,1.89,201.07,240810,,,A*72
$GPRMC,222728.000,A,3748.6541,N,12217.9833,W,2.08,198.16,240810,,,A*79
$GPRMC,222729.000,A,3748.6531,N,12217.9844,W,2.04,197.83,240810,,,A*70
$GPRMC,222730.000,A,3748.6520,N,12217.9853,W,2.05,203.70,240810,,,A*7D
$GPRMC,222731.000,A,3748.6513,N,12217.9860,W,2.13,208.23,240810,,,A*76
$GPRMC,222732.000,A,3748.6508,N,12217.9862,W,2.08,205.66,240810,,,A*7B
$GPRMC,222733.000,A,3748.6506,N,12217.9866,W,1.88,206.70,240810,,,A*7F
$GPRMC,222734.000,A,3748.6503,N,12217.9869,W,1.74,197.02,240810,,,A*7F
$GPRMC,222735.000,A,3748.6500,N,12217.9873,W,1.91,207.95,240810,,,A*79
$GPRMC,222736.000,A,3748.6496,N,12217.9874,W,2.03,203.15,240810,,,A*77
$GPRMC,222737.000,A,3748.6489,N,12217.9874,W,1.95,195.46,240810,,,A*7E
$GPRMC,222738.000,A,3748.6485,N,12217.9874,W,1.61,179.49,240810,,,A*7B
$GPRMC,222739.000,A,3748.6478,N,12217.9877,W,1.88,197.77,240810,,,A*71
$GPRMC,222740.000,A,3748.6472,N,12217.9878,W,1.65,190.32,240810,,,A*7F
$GPRMC,222741.000,A,3748.6466,N,12217.9880,W,1.70,199.44,240810,,,A*70
$GPRMC,222742.000,A,3748.6458,N,12217.9886,W,2.07,212.12,240810,,,A*78
$GPRMC,222743.000,A,3748.6451,N,12217.9892,W,1.80,206.22,240810,,,A*7F
$GPRMC,222744.000,A,3748.6444,N,12217.9897,W,2.04,210.75,240810,,,A*73
$GPRMC,222745.000,A,3748.6438,N,12217.9901,W,1.95,204.95,240810,,,A*77
$GPRMC,222746.000,A,3748.6434,N,12217.9902,W,1.81,205.26,240810,,,A*77
$GPRMC,222747.000,A,3748.6429,N,12217.9905,W,1.40,198.91,240810,,,A*7B
$GPRMC,222748.000,A,3748.6427,N,12217.9904,W,1.02,180.00,240810,,,A*7C
$GPRMC,222749.000,A,3748.6426,N,12217.9904,W,0.64,166.31,240810,,,A*77
$GPRMC,222750.000,A,3748.6424,N,12217.9905,W,0.77,178.95,240810,,,A*7F
$GPRMC,222751.000,A,3748.6418,N,12217.9906,W,1.38,195.23,240810,,,A*76
$GPRMC,222752.000,A,3748.6414,N,12217.9908,W,2.02,205.67,240810,,,A*77
$GPRMC,222753.000,A,3748.6409,N,12217.9907,W,2.35,208.55,240810,,,A*7D
$GPRMC,222754.000,A,3748.6402,N,12217.9913,W,2.63,220.46,240810,,,A*7F
$GPRMC,222755.000,A,3748.6394,N,12217.9916,W,3.77,198.62,240810,,,A*71
$GPRMC,222756.000,A,3748.6382,N,12217.9920,W,2.69,198.33,240810,,,A*7A
$GPRMC,222757.000,A,3748.6374,N,12217.9929,W,2.33,199.14,240810,,,A*70
$GPRMC,222758.000,A,3748.6364,N,12217.9937,W,2.49,189.29,240810,,,A*73
$GPRMC,222759.000,A,3748.6357,N,12217.9944,W,1.55,202.22,240810,,,A*73
$GPRMC,222800.000,A,3748.6353,N,12217.9951,W,1.27,208.80,240810,,,A*77
$GPRMC,222801.000,A,3748.6350,N,12217.9955,W,1.27,206.07,240810,,,A*70
$GPRMC,222802.000,A,3748.6350,N,12217.9960,W,1.06,195.76,240810,,,A*79
$GPRMC,222803.000,A,3748.6348,N,12217.9966,W,1.48,183.06,240810,,,A*7D
$GPRMC,222804.000,A,3748.6342,N,12217.9971,W,1.45,207.94,240810,,,A*7F
$GPRMC,222805.000,A,3748.6338,N,12217.9977,W,1.35,222.72,240810,,,A*7D
$GPRMC,222806.000,A,3748.6333,N,12217.9980,W,0.92,180.07,240810,,,A*78
$GPRMC,222807.000,A,3748.6330,N,12217.9980,W,0.74,189.85,240810,,,A*71
$GPRMC,222808.000,A,3748.6329,N,12217.9979,W,0.62,211.70,240810,,,A*7F
$GPRMC,222809.000,A,3748.6330,N,12217.9979,W,0.25,254.67,240810,,,A*72
$GPRMC,222810.000,A,3748.6329,N,12217.9981,W,1.60,260.17,240810,,,A*75
$GPRMC,222811.000,A,3748.6327,N,12217.9988,W,1.85,236.12,240810,,,A*7E
$GPRMC,222812.000,A,3748.6327,N,12217.9996,W,1.72,231.10,240810,,,A*7F
$GPRMC,222813.000,A,3748.6327,N,12218.0002,W,1.81,225.42,240810,,,A*72
$GPRMC,222814.000,A,3748.6322,N,12218.0013,W,1.58,210.53,240810,,,A*72
$GPRMC,222815.000,A,3748.6319,N,12218.0019,W,1.52,201.10,240810,,,A*7C
$GPRMC,222816.000,A,3748.6312,N,12218.0023,W,1.53,187.69,240810,,,A*7F
$GPRMC,222817.000,A,3748.6304,N,12218.0026,W,1.72,185.11,240810,,,A*72
$GPRMC,222818.000,A,3748.6296,N,12218.0029,W,2.01,191.42,240810,,,A*7C
$GPRMC,222819.000,A,3748.6288,N,12218.0030,W,2.12,172.28,240810,,,A*79
$GPRMC,222820.000,A,3748.6280,N,12218.0029,W,2.37,163.16,240810,,,A*79
$GPRMC,222821.000,A,3748.6273,N,12218.0028,W,1.85,151.30,240810,,,A*7A
$GPRMC,222822.000,A,3748.6267,N,12218.0025,W,1.99,148.45,240810,,,A*76
$GPRMC,222823.000,A,3748.6262,N,12218.0021,W,1.53,134.71,240810,,,A*7C
$GPRMC,222824.000,A,3748.6259,N,12218.0016,W,2.15,120.25,240810,,,A*72
$GPRMC,222825.000,A,3748.6255,N,12218.0010,W,2.10,127.26,240810,,,A*78
$GPRMC,222826.000,A,3748.6250,N,12218.0003,W,2.16,120.67,240810,,,A*78
$GPRMC,222827.000,A,3748.6246,N,12217.9994,W,2.47,116.84,240810,,,A*73
$GPRMC,222828.000,A,3748.6240,N,12217.9987,W,2.19,102.98,240810,,,A*7B
$GPRMC,222829.000,A,3748.6237,N,12217.9981,W,1.39,115.24,240810,,,A*7C
$GPRMC,222830.000,A,3748.6232,N,12217.9977,W,1.39,112.69,240810,,,A*76
$GPRMC,222831.000,A,3748.6229,N,12217.9974,W,1.53,101.76,240810,,,A*7E
$GPRMC,222832.000,A,3748.6226,N,12217.9969,W,1.38,90.33,240810,,,A*4B
$GPRMC,222833.000,A,3748.6222,N,12217.9967,W,1.03,121.93,240810,,,A*79
$GPRMC,222834.000,A,3748.6214,N,12217.9969,W,1.65,148.72,240810,,,A*75
$GPRMC,222835.000,A,3748.6208,N,12217.9966,W,1.75,149.00,240810,,,A*73
$GPRMC,222836.000,A,3748.6203,N,12217.9960,W,2.21,134.21,240810,,,A*76
$GPRMC,222837.000,A,3748.6198,N,12217.9953,W,2.34,122.67,240810,,,A*77
$GPRMC,222838.000,A,3748.6194,N,12217.9947,W,1.93,121.54,240810,,,A*7C
$GPRMC,222839.000,A,3748.6183,N,12217.9951,W,1.78,140.93,240810,,,A*75
$GPRMC,222840.000,A,3748.6179,N,12217.9946,W,1.83,131.56,240810,,,A*73
$GPRMC,222841.000,A,3748.6175,N,12217.9940,W,1.88,125.38,240810,,,A*7E
$GPRMC,222842.000,A,3748.6173,N,12217.9933,W,1.74,121.27,240810,,,A*76
$GPRMC,222843.000,A,3748.6169,N,12217.9927,W,2.14,122.50,240810,,,A*7F
$GPRMC,222844.000,A,3748.6165,N,12217.9919,W,2.41,128.93,240810,,,D*79
$GPRMC,222845.000,A,3748.6160,N,12217.9912,W,2.36,125.98,240810,,,D*70
$GPRMC,222846.000,A,3748.6156,N,12217.9905,W,2.30,121.23,240810,,,D*72
$GPRMC,222847.000,A,3748.6154,N,12217.9897,W,1.70,126.17,240810,,,D*7C
$GPRMC,222848.000,A,3748.6147,N,12217.9896,W,1.73,138.23,240810,,,D*7B
$GPRMC,222849.000,A,3748.6145,N,12217.9889,W,1.99,125.76,240810,,,D*7E
$GPRMC,222850.000,A,3748.6142,N,12217.9882,W,1.88,126.57,240810,,,D*7A
$GPRMC,222851.000,A,3748.6140,N,12217.9876,W,1.91,120.10,240810,,,D*7F
$GPRMC,222852.000,A,3748.6137,N,12217.9868,W,2.19,121.52,240810,,,D*77
$GPRMC,222853.000,A,3748.6135,N,12217.9860,W,1.83,103.43,240810,,,D*7C
$GPRMC,222854.000,A,3748.6134,N,12217.9852,W,1.99,110.26,240810,,,D*71
$GPRMC,222855.000,A,3748.6132,N,12217.9845,W,1.86,113.91,240810,,,D*71
$GPRMC,222856.000,A,3748.6129,N,12217.9838,W,1.55,120.92,240810,,,D*7F
$GPRMC,222857.000,A,3748.6127,N,12217.9831,W,2.01,114.11,240810,,,D*77
$GPRMC,222858.000,A,3748.6124,N,12217.9824,W,1.97,117.63,240810,,,D*75
$GPRMC,222859.000,A,3748.6121,N,12217.9817,W,2.26,120.92,240810,,,D*72
$GPRMC,222900.000,A,3748.6118,N,12217.9810,W,1.89,115.31,240810,,,D*7B
$GPRMC,222901.000,A,3748.6116,N,12217.9803,W,1.82,113.65,240810,,,D*7A
$GPRMC,222902.000,A,3748.6114,N,12217.9796,W,1.81,114.46,240810,,,D*7D
$GPRMC,222903.000,A,3748.6112,N,12217.9789,W,2.02,112.76,240810,,,D*79
$GPRMC,222904.000,A,3748.6109,N,12217.9783,W,1.96,117.47,240810,,,D*77
$GPRMC,222905.000,A,3748.6107,N,12217.9775,W,1.86,114.95,240810,,,D*7C
$GPRMC,222906.000,A,3748.6105,N,12217.9766,W,2.29,109.97,240810,,,D*77
$GPRMC,222907.000,A,3748.6103,N,12217.9759,W,2.10,109.39,240810,,,D*72
$GPRMC,222908.000,A,3748.6100,N,12217.9750,W,2.00,108.78,240810,,,D*72
$GPRMC,222909.000,A,3748.6096,N,12217.9740,W,1.85,110.62,240810,,,D*70
$GPRMC,222910.000,A,3748.6093,N,12217.9731,W,1.76,116.81,240810,,,D*7C
$GPRMC,222911.000,A,3748.6091,N,12217.9725,W,2.11,124.14,240810,,,D*75
$GPRMC,222912.000,A,3748.6088,N,12217.9718,W,1.97,129.26,240810,,,D*71
$GPRMC,222913.000,A,3748.6085,N,12217.9712,W,2.15,116.57,240810,,,D*74
$GPRMC,222914.000,A,3748.6082,N,12217.9705,W,1.96,111.10,240810,,,D*7E
$GPRMC,222915.000,A,3748.6079,N,12217.9700,W,1.79,116.41,240810,,,D*7C
$GPRMC,222916.000,A,3748.6074,N,12217.9696,W,1.75,118.71,240810,,,D*7D
$GPRMC,222917.000,A,3748.6071,N,12217.9691,W,1.87,108.60,240810,,,D*72
$GPRMC,222918.000,A,3748.6068,N,12217.9686,W,1.83,109.70,240810,,,D*77
$GPRMC,222919.000,A,3748.6062,N,12217.9684,W,1.50,115.65,240810,,,D*79
$GPRMC,222920.000,A,3748.6058,N,12217.9680,W,1.64,109.33,240810,,,D*77
$GPRMC,222921.000,A,3748.6054,N,12217.9676,W,1.51,110.63,240810,,,D*78
$GPRMC,222922.000,A,3748.6048,N,12217.9672,W,2.03,121.35,240810,,,D*77
$GPRMC,222923.000,A,3748.6046,N,12217.9665,W,2.09,117.07,240810,,,D*70
$GPRMC,222924.000,A,3748.6044,N,12217.9658,W,1.98,125.45,240810,,,D*77
$GPRMC,222925.000,A,3748.6041,N,12217.9652,W,1.86,127.01,240810,,,D*74
$GPRMC,222926.000,A,3748.6037,N,12217.9645,W,2.25,119.74,240810,,,D*75
$GPRMC,222927.000,A,3748.6034,N,12217.9637,W,2.16,119.97,240810,,,D*7F
$GPRMC,222928.000,A,3748.6029,N,12217.9629,W,2.01,127.82,240810,,,D*7C
$GPRMC,222929.000,A,3748.6025,N,12217.9623,W,2.16,126.27,240810,,,D*73
$GPRMC,222930.000,A,3748.6021,N,12217.9615,W,2.50,128.87,240810,,,D*7C
$GPRMC,222931.000,A,3748.6016,N,12217.9609,W,2.17,142.63,240810,,,D*71
$GPRMC,222932.000,A,3748.6011,N,12217.9604,W,2.13,139.88,240810,,,D*75
$GPRMC,222933.000,A,3748.6004,N,12217.9602,W,2.06,145.08,240810,,,D*71
$GPRMC,222934.000,A,3748.5999,N,12217.9599,W,1.86,152.10,240810,,,D*7D
$GPRMC,222935.000,A,3748.5993,N,12217.9597,W,1.78,149.53,240810,,,D*74
$GPRMC,222936.000,A,3748.5988,N,12217.9593,W,2.00,137.59,240810,,,D*76
$GPRMC,222937.000,A,3748.5984,N,12217.9589,W,1.88,145.70,240810,,,D*7D
$GPRMC,222938.000,A,3748.5979,N,12217.9584,W,2.09,137.61,240810,,,D*72
$GPRMC,222939.000,A,3748.5974,N,12217.9580,W,2.19,150.47,240810,,,D*7E
$GPRMC,222940.000,A,3748.5967,N,12217.9579,W,1.89,153.66,240810,,,D*7E
$GPRMC,222941.000,A,3748.5961,N,12217.9576,W,1.91,139.45,240810,,,D*72
$GPRMC,222942.000,A,3748.5953,N,12217.9573,W,1.46,130.49,240810,,,D*7A
$GPRMC,222943.000,A,3748.5947,N,12217.9571,W,1.46,144.52,240810,,,D*75
$GPRMC,222944.000,A,3748.5941,N,12217.9569,W,1.99,166.30,240810,,,D*7B
$GPRMC,222945.000,A,3748.5938,N,12217.9567,W,1.37,179.85,240810,,,D*7E
$GPRMC,222946.000,A,3748.5931,N,12217.9566,W,2.03,143.24,240810,,,D*73
$GPRMC,222947.000,A,3748.5925,N,12217.9562,W,1.97,138.79,240810,,,D*79
$GPRMC,222948.000,A,3748.5922,N,12217.9560,W,1.93,122.94,240810,,,D*7F
$GPRMC,222949.000,A,3748.5918,N,12217.9556,W,1.63,122.23,240810,,,D*71
$GPRMC,222950.000,A,3748.5915,N,12217.9551,W,1.65,120.19,240810,,,D*7E
$GPRMC,222951.000,A,3748.5910,N,12217.9547,W,1.50,128.22,240810,,,D*7B
$GPRMC,222952.000,A,3748.5907,N,12217.9540,W,1.04,110.93,240810,,,D*79
$GPRMC,222953.000,A,3748.5903,N,12217.9538,W,0.93,110.38,240810,,,D*7D
$GPRMC,222954.000,A,3748.5898,N,12217.9532,W,1.43,127.13,240810,,,D*72
$GPRMC,222955.000,A,3748.5893,N,12217.9527,W,1.28,139.38,240810,,,D*77
$GPRMC,222956.000,A,3748.5888,N,12217.9524,W,1.07,144.68,240810,,,D*7F
$GPRMC,222957.000,A,3748.5883,N,12217.9517,W,0.78,141.76,240810,,,A*73
$GPRMC,222958.000,A,3748.5882,N,12217.9513,W,0.37,125.39,240810,,,A*7B
$GPRMC,222959.000,A,3748.5882,N,12217.9512,W,0.20,215.84,240810,,,A*7B
$GPRMC,223000.000,A,3748.5883,N,12217.9514,W,0.57,303.69,240810,,,A*7D
$GPRMC,223001.000,A,3748.5883,N,12217.9510,W,0.25,75.24,240810,,,A*46
$GPRMC,223002.000,A,3748.5883,N,12217.9504,W,0.29,82.64,240810,,,A*40
$GPRMC,223003.000,A,3748.5883,N,12217.9499,W,0.37,62.16,240810,,,A*40
$GPRMC,223004.000,A,3748.5880,N,12217.9498,W,0.31,5.69,240810,,,A*7A
$GPRMC,223005.000,A,3748.5885,N,12217.9496,W,0.80,0.87,240810,,,A*7F
$GPRMC,223006.000,A,3748.5887,N,12217.9498,W,0.23,3.41,240810,,,A*70
$GPRMC,223007.000,A,3748.5889,N,12217.9493,W,0.43,70.07,240810,,,A*44
$GPRMC,223008.000,A,3748.5889,N,12217.9490,W,0.20,355.44,240810,,,A*7E
$GPRMC,223009.000,A,3748.5889,N,12217.9487,W,0.29,173.27,240810,,,A*73
$GPRMC,223010.000,A,3748.5887,N,12217.9484,W,0.64,135.35,240810,,,A*7E
$GPRMC,223011.000,A,3748.5882,N,12217.9483,W,0.70,180.52,240810,,,A*77
$GPRMC,223012.000,A,3748.5877,N,12217.9482,W,0.82,120.73,240810,,,A*7B
$GPRMC,223013.000,A,3748.5873,N,12217.9477,W,0.80,114.43,240810,,,A*72
$GPRMC,223014.000,A,3748.5868,N,12217.9472,W,0.56,162.93,240810,,,A*7D
$GPRMC,223015.000,A,3748.5861,N,12217.9469,W,0.63,145.41,240810,,,A*73
$GPRMC,223016.000,A,3748.5856,N,12217.9463,W,0.36,96.16,240810,,,A*43
$GPRMC,223017.000,A,3748.5855,N,12217.9461,W,0.44,86.83,240810,,,A*4B
$GPRMC,223018.000,A,3748.5851,N,12217.9456,W,0.08,349.78,240810,,,A*78
$GPRMC,223019.000,A,3748.5846,N,12217.9451,W,0.27,54.39,240810,,,A*4F
$GPRMC,223020.000,A,3748.5844,N,12217.9450,W,0.38,327.28,240810,,,A*7F
$GPRMC,223021.000,A,3748.5843,N,12217.9444,W,0.50,355.12,240810,,,A*7E
$GPRMC,223022.000,A,3748.5843,N,12217.9441,W,0.28,359.70,240810,,,A*7F
$GPRMC,223023.000,A,3748.5842,N,12217.9445,W,0.62,303.95,240810,,,A*71
$GPRMC,223024.000,A,3748.5847,N,12217.9439,W,0.58,352.55,240810,,,A*79
$GPRMC,223025.000,A,3748.5847,N,12217.9429,W,0.76,105.54,240810,,,A*74
$GPRMC,223026.000,A,3748.5851,N,12217.9433,W,0.59,327.91,240810,,,A*7D
$GPRMC,223027.000,A,3748.5852,N,12217.9432,W,0.91,322.79,240810,,,A*79
$GPRMC,223028.000,A,3748.5855,N,12217.9434,W,0.63,277.58,240810,,,A*78
$GPRMC,223029.000,A,3748.5858,N,12217.9434,W,0.49,338.19,240810,,,A*73
$GPRMC,223030.000,A,3748.5861,N,12217.9433,W,0.05,336.21,240810,,,A*7B
$GPRMC,223031.000,A,3748.5864,N,12217.9428,W,0.31,274.30,240810,,,A*75
$GPRMC,223032.000,A,3748.5864,N,12217.9430,W,0.58,283.97,240810,,,A*75
$GPRMC,223033.000,A,3748.5864,N,12217.9436,W,0.71,307.71,240810,,,A*7C
$GPRMC,223034.000,A,3748.5862,N,12217.9441,W,0.93,303.60,240810,,,A*75
$GPRMC,223035.000,A,3748.5862,N,12217.9443,W,0.98,303.08,240810,,,A*73
$GPRMC,223036.000,A,3748.5863,N,12217.9441,W,0.53,12.78,240810,,,A*40
$GPRMC,223037.000,A,3748.5868,N,12217.9452,W,0.93,321.80,240810,,,A*70
$GPRMC,223038.000,A,3748.5870,N,12217.9453,W,0.47,13.93,240810,,,A*4E
$GPRMC,223039.000,A,3748.5871,N,12217.9452,W,0.36,38.15,240810,,,A*4E
$GPRMC,223040.000,A,3748.5873,N,12217.9455,W,0.36,65.02,240810,,,A*4B
$GPRMC,223041.000,A,3748.5874,N,12217.9452,W,0.39,135.57,240810,,,A*71
$GPRMC,223042.000,A,3748.5875,N,12217.9452,W,0.12,209.52,240810,,,A*73
$GPRMC,223043.000,A,3748.5879,N,12217.9449,W,0.20,33.52,240810,,,A*4E
$GPRMC,223044.000,A,3748.5886,N,12217.9449,W,0.58,348.59,240810,,,A*72
$GPRMC,223045.000,A,3748.5888,N,12217.9452,W,0.29,311.46,240810,,,A*73
$GPRMC,223046.000,A,3748.5886,N,12217.9444,W,0.82,54.16,240810,,,A*4F
$GPRMC,223047.000,A,3748.5884,N,12217.9441,W,0.77,62.23,240810,,,A*40
$GPRMC,223048.000,A,3748.5883,N,12217.9436,W,1.06,59.69,240810,,,A*49
$GPRMC,223049.000,A,3748.5883,N,12217.9433,W,1.06,108.45,240810,,,A*76
$GPRMC,223050.000,A,3748.5879,N,12217.9430,W,2.02,114.02,240810,,,A*71
$GPRMC,223051.000,A,3748.5875,N,12217.9422,W,2.36,118.03,240810,,,A*75
$GPRMC,223052.000,A,3748.5873,N,12217.9419,W,2.05,119.04,240810,,,A*7E
$GPRMC,223053.000,A,3748.5868,N,12217.9416,W,0.87,114.47,240810,,,A*78
$GPRMC,223054.000,A,3748.5862,N,12217.9416,W,0.79,110.16,240810,,,A*74
$GPRMC,223055.000,A,3748.5858,N,12217.9414,W,0.98,140.33,240810,,,A*73
$GPRMC,223056.000,A,3748.5851,N,12217.9409,W,1.28,141.40,240810,,,A*7A
$GPRMC,223057.000,A,3748.5846,N,12217.9405,W,1.57,130.53,240810,,,A*7D
$GPRMC,223058.000,A,3748.5845,N,12217.9404,W,1.11,119.26,240810,,,A*7B
$GPRMC,223059.000,A,3748.5848,N,12217.9403,W,1.24,98.13,240810,,,A*48
$GPRMC,223100.000,A,3748.5845,N,12217.9396,W,1.35,107.20,240810,,,A*74
$GPRMC,223101.000,A,3748.5841,N,12217.9392,W,1.31,116.33,240810,,,A*73
$GPRMC,223102.000,A,3748.5835,N,12217.9386,W,1.16,122.43,240810,,,A*73
