$ADVER,3080,2.3
$GPRMC,172434.224,A,3748.7974,N,12217.8630,W,0.18,176.40,260912,,,A*73
$GPGGA,172435.224,3748.7974,N,12217.8630,W,1,03,2.8,25.1,M,-25.1,M,,0000*57
$GPGSA,A,2,27,28,15,,,,,,,,,,3.0,2.8,1.0*30
$GPRMC,172435.224,A,3748.7974,N,12217.8630,W,0.24,177.89,260912,,,A*79
$GPVTG,177.89,T,,M,0.24,N,0.4,K,N*00
$GPGGA,172436.224,3748.7975,N,12217.8630,W,1,03,2.8,25.1,M,-25.1,M,,0000*55
$GPGSA,A,2,27,28,15,,,,,,,,,,3.0,2.8,1.0*30
$GPRMC,172436.224,A,3748.7975,N,12217.8630,W,0.23,171.41,260912,,,A*7E
$GPVTG,171.41,T,,M,0.23,N,0.4,K,N*05
$GPGGA,172437.224,3748.7975,N,12217.8630,W,1,03,2.8,25.1,M,-25.1,M,,0000*54
$GPGSA,A,2,27,28,15,,,,,,,,,,3.0,2.8,1.0*30
$GPGSV,3,1,11,27,46,312,40,28,43,065,34,15,29,261,39,17,73,044,38*78
$GPGSV,3,2,11,09,34,315,41,04,28,156,,26,27,215,33,08,22,136,34*74
$GPGSV,3,3,11,01,11,040,27,02,03,185,,12,02,279,*49
$GPRMC,172437.224,A,3748.7975,N,12217.8630,W,0.23,173.91,260912,,,A*70
$GPVTG,173.91,T,,M,0.23,N,0.4,K,N*0A
$GPGGA,172438.224,3748.7976,N,12217.8631,W,1,03,2.8,25.1,M,-25.1,M,,0000*59
$GPGSA,A,2,27,28,15,,,,,,,,,,3.0,2.8,1.0*30
$GPRMC,172438.224,A,3748.7976,N,12217.8631,W,0.21,175.63,260912,,,A*74
$GPVTG,175.63,T,,M,0.21,N,0.4,K,N*03
$GPGGA,172439.224,3748.7976,N,12217.8631,W,1,03,2.8,25.1,M,-25.1,M,,0000*58
$GPGSA,A,2,27,28,15,,,,,,,,,,3.0,2.8,1.0*30
$GPRMC,172439.224,A,3748.7976,N,12217.8631,W,0.16,176.19,260912,,,A*7F
$GPVTG,176.19,T,,M,0.16,N,0.3,K,N*0E
$GPGGA,172440.224,3748.7976,N,12217.8631,W,1,03,2.8,25.1,M,-25.1,M,,0000*56
$GPGSA,A,2,27,28,15,,,,,,,,,,3.0,2.8,1.0*30
$GPRMC,172440.224,A,3748.7976,N,12217.8631,W,0.16,179.52,260912,,,A*71
$GPVTG,179.52,T,,M,0.16,N,0.3,K,N*0E
$GPGGA,172441.224,3748.7976,N,12217.8631,W,1,03,2.8,25.1,M,-25.1,M,,0000*57
$GPGSA,A,2,27,28,15,,,,,,,,,,3.0,2.8,1.0*30
$GPRMC,172441.224,A,3748.7976,N,12217.8631,W,0.23,168.52,260912,,,A*76
$GPVTG,168.52,T,,M,0.23,N,0.4,K,N*0F
$GPGGA,172442.224,3748.7976,N,12217.8631,W,1,03,2.8,25.1,M,-25.1,M,,0000*54
$GPGSA,A,2,27,28,15,,,,,,,,,,3.0,2.8,1.0*30
$GPGSV,3,1,12,27,46,312,40,28,43,065,34,15,29,261,39,17,73,044,38*7B
$GPGSV,3,2,12,09,34,315,41,04,28,156,,26,27,215,34,08,22,136,34*70
$GPGSV,3,3,12,01,11,040,27,02,03,185,,12,02,279,,48,44,197,29*72
$GPRMC,172442.224,A,3748.7976,N,12217.8631,W,0.19,179.83,260912,,,A*70
$GPVTG,179.83,T,,M,0.19,N,0.3,K,N*0D
$GPGGA,172443.224,3748.7977,N,12217.8631,W,1,03,2.8,25.1,M,-25.1,M,,0000*54
$GPGSA,A,2,27,28,15,,,,,,,,,,3.0,2.8,1.0*30
$GPRMC,172443.224,A,3748.7977,N,12217.8631,W,0.26,174.40,260912,,,A*7E
$GPVTG,174.40,T,,M,0.26,N,0.5,K,N*05
$GPGGA,172444.224,3748.7977,N,12217.8631,W,1,03,2.8,25.1,M,-25.1,M,,0000*53
$GPGSA,A,2,27,28,15,,,,,,,,,,3.0,2.8,1.0*30
$GPRMC,172444.224,A,3748.7977,N,12217.8631,W,0.21,176.53,260912,,,A*7E
$GPVTG,176.53,T,,M,0.21,N,0.4,K,N*03
$GPGGA,172445.224,3748.7978,N,12217.8631,W,1,03,2.8,25.1,M,-25.1,M,,0000*5D
$GPGSA,A,2,27,28,15,,,,,,,,,,3.0,2.8,1.0*30
$GPRMC,172445.224,A,3748.7978,N,12217.8631,W,0.23,172.74,260912,,,A*73
$GPVTG,172.74,T,,M,0.23,N,0.4,K,N*00
$GPGGA,172446.224,3748.7978,N,12217.8631,W,1,03,2.8,25.1,M,-25.1,M,,0000*5E
$GPGSA,A,2,27,28,15,,,,,,,,,,3.0,2.8,1.0*30
$GPRMC,172446.224,A,3748.7978,N,12217.8631,W,0.17,172.57,260912,,,A*76
$GPVTG,172.57,T,,M,0.17,N,0.3,K,N*01
$GPGGA,172447.224,3748.7978,N,12217.8630,W,1,03,2.8,25.1,M,-25.1,M,,0000*5E
$GPGSA,A,2,27,28,15,,,,,,,,,,3.0,2.8,1.0*30
$GPGSV,3,1,12,27,46,312,40,28,43,065,34,15,29,261,39,17,73,044,38*7B
$GPGSV,3,2,12,09,34,315,41,04,28,156,23,26,27,215,33,08,22,136,34*76
$GPGSV,3,3,12,01,11,040,26,02,03,185,,12,02,279,,48,44,197,29*73
$GPRMC,172447.224,A,3748.7978,N,12217.8630,W,0.25,173.05,260912,,,A*71
$GPVTG,173.05,T,,M,0.25,N,0.5,K,N*00
$GPGGA,172448.224,3748.7978,N,12217.8631,W,1,03,2.8,25.1,M,-25.1,M,,0000*50
$GPGSA,A,2,27,28,15,,,,,,,,,,3.0,2.8,1.0*30
$GPRMC,172448.224,A,3748.7978,N,12217.8631,W,0.17,179.29,260912,,,A*7A
$GPVTG,179.29,T,,M,0.17,N,0.3,K,N*03
$GPGGA,172449.224,3748.7979,N,12217.8630,W,1,03,2.8,25.1,M,-25.1,M,,0000*51
$GPGSA,A,2,27,28,15,,,,,,,,,,3.0,2.8,1.0*30
$GPRMC,172449.224,A,3748.7979,N,12217.8630,W,0.19,173.44,260912,,,A*74
$GPVTG,173.44,T,,M,0.19,N,0.3,K,N*0C
$GPGGA,172450.224,3748.7979,N,12217.8630,W,1,03,2.8,25.1,M,-25.1,M,,0000*59
$GPGSA,A,2,27,28,15,,,,,,,,,,3.0,2.8,1.0*30
$GPRMC,172450.224,A,3748.7979,N,12217.8630,W,0.19,180.06,260912,,,A*76
$GPVTG,180.06,T,,M,0.19,N,0.4,K,N*01
$GPGGA,172451.224,3748.7979,N,12217.8630,W,1,03,2.8,25.1,M,-25.1,M,,0000*58
$GPGSA,A,2,27,28,15,,,,,,,,,,3.0,2.8,1.0*30
$GPRMC,172451.224,A,3748.7979,N,12217.8630,W,0.22,176.72,260912,,,A*75
$GPVTG,176.72,T,,M,0.22,N,0.4,K,N*03
$GPGGA,172452.224,3748.7981,N,12217.8630,W,1,04,2.4,23.8,M,-25.1,M,,0000*58
$GPGSA,A,3,27,09,28,15,,,,,,,,,8.1,2.4,7.7*3F
$GPGSV,3,1,12,27,46,312,39,28,43,065,35,15,29,261,39,17,73,044,38*74
$GPGSV,3,2,12,09,34,315,41,04,28,156,26,26,27,215,33,08,22,136,34*73
$GPGSV,3,3,12,01,11,040,26,02,03,185,,12,02,279,,48,44,197,28*72
$GPRMC,172452.224,A,3748.7981,N,12217.8630,W,0.27,214.60,260912,,,A*70
$GPVTG,214.60,T,,M,0.27,N,0.5,K,A*0C
$GPGGA,172453.224,3748.7981,N,12217.8630,W,1,04,2.4,23.7,M,-25.1,M,,0000*56
$GPGSA,A,3,27,09,28,15,,,,,,,,,8.1,2.4,7.7*3F
$GPRMC,172453.224,A,3748.7981,N,12217.8630,W,0.16,190.59,260912,,,A*76
$GPVTG,190.59,T,,M,0.16,N,0.3,K,A*0D
$GPGGA,172454.224,3748.7981,N,12217.8630,W,1,04,2.4,23.8,M,-25.1,M,,0000*5E
$GPGSA,A,3,27,09,28,15,,,,,,,,,8.1,2.4,7.7*3F
$GPRMC,172454.224,A,3748.7981,N,12217.8630,W,0.20,181.54,260912,,,A*79
$GPVTG,181.54,T,,M,0.20,N,0.4,K,A*02
$GPGGA,172455.000,3748.7981,N,12217.8630,W,1,04,2.4,23.8,M,-25.1,M,,0000*5B
$GPGSA,A,3,27,09,28,15,,,,,,,,,8.1,2.4,7.7*3F
$GPRMC,172455.000,A,3748.7981,N,12217.8630,W,0.23,177.82,260912,,,A*7D
$GPVTG,177.82,T,,M,0.23,N,0.4,K,A*03
$GPGGA,172456.000,3748.7981,N,12217.8629,W,1,04,2.4,23.9,M,-25.1,M,,0000*51
$GPGSA,A,3,27,09,28,15,,,,,,,,,8.1,2.4,7.7*3F
$GPRMC,172456.000,A,3748.7981,N,12217.8629,W,0.18,179.75,260912,,,A*78
$GPVTG,179.75,T,,M,0.18,N,0.3,K,A*0A
$GPGGA,172457.000,3748.7980,N,12217.8629,W,1,04,2.4,24.0,M,-25.1,M,,0000*5F
$GPGSA,A,3,27,09,28,15,,,,,,,,,8.1,2.4,7.7*3F
$GPGSV,3,1,12,27,47,312,39,28,43,065,34,09,34,315,40,15,29,261,39*70
$GPGSV,3,2,12,17,73,044,38,04,28,156,27,26,27,215,34,08,22,136,34*70
$GPGSV,3,3,12,01,11,040,26,02,03,185,,12,02,279,,48,44,197,28*72
$GPRMC,172457.000,A,3748.7980,N,12217.8629,W,0.18,175.47,260912,,,A*75
$GPGGA,172458.000,3748.7988,N,12217.8626,W,1,06,1.6,15.5,M,-25.1,M,,0000*53
$GPGSA,A,3,27,09,17,28,08,15,,,,,,,3.3,1.6,2.9*32
$GPRMC,172458.000,A,3748.7988,N,12217.8626,W,0.15,184.24,260912,,,A*7B
$GPVTG,184.24,T,,M,0.15,N,0.3,K,A*01
$GPGGA,172459.000,3748.7990,N,12217.8625,W,1,06,1.6,13.5,M,-25.1,M,,0000*5E
$GPGSA,A,3,27,09,17,28,08,15,,,,,,,3.3,1.6,2.9*32
$GPRMC,172459.000,A,3748.7990,N,12217.8625,W,0.16,178.59,260912,,,A*7A
$GPVTG,178.59,T,,M,0.16,N,0.3,K,A*0B
$GPGGA,172500.000,3748.7991,N,12217.8625,W,1,06,1.6,12.5,M,-25.1,M,,0000*53
$GPGSA,A,3,27,09,17,28,08,15,,,,,,,3.3,1.6,2.9*32
$GPRMC,172500.000,A,3748.7991,N,12217.8625,W,0.14,177.94,260912,,,A*7A
$GPVTG,177.94,T,,M,0.14,N,0.3,K,A*07
$GPGGA,172501.000,3748.7991,N,12217.8625,W,1,06,1.6,12.0,M,-25.1,M,,0000*57
$GPGSA,A,3,27,09,17,28,08,15,,,,,,,3.3,1.6,2.9*32
$GPRMC,172501.000,A,3748.7991,N,12217.8625,W,0.16,181.82,260912,,,A*77
$GPVTG,181.82,T,,M,0.16,N,0.3,K,A*0B
$GPGGA,172502.000,3748.7992,N,12217.8625,W,1,06,1.6,11.7,M,-25.1,M,,0000*53
$GPGSA,A,3,27,09,17,28,08,15,,,,,,,3.3,1.6,2.9*32
$GPGSV,3,1,12,17,73,044,39,27,47,312,39,28,43,065,34,09,34,315,40*78
$GPGSV,3,2,12,15,29,261,39,04,28,156,28,26,27,215,34,08,22,136,34*76
$GPGSV,3,3,12,01,11,040,27,02,03,185,,12,02,279,,48,44,197,26*7D
$GPRMC,172502.000,A,3748.7992,N,12217.8625,W,0.14,184.50,260912,,,A*7F
$GPVTG,184.50,T,,M,0.14,N,0.3,K,A*03
$GPGGA,172503.000,3748.7992,N,12217.8625,W,1,06,1.6,11.5,M,-25.1,M,,0000*50
$GPGSA,A,3,27,09,17,28,08,15,,,,,,,3.3,1.6,2.9*32
$GPRMC,172503.000,A,3748.7992,N,12217.8625,W,0.20,185.50,260912,,,A*78
$GPVTG,185.50,T,,M,0.20,N,0.4,K,A*02
$GPGGA,172504.000,3748.7992,N,12217.8625,W,1,06,1.6,11.3,M,-25.1,M,,0000*51
$GPGSA,A,3,27,09,17,28,08,15,,,,,,,3.3,1.6,2.9*32
$GPRMC,172504.000,A,3748.7992,N,12217.8625,W,0.15,179.63,260912,,,A*7A
$GPVTG,179.63,T,,M,0.15,N,0.3,K,A*00
$GPGGA,172505.000,3748.7992,N,12217.8625,W,1,06,1.6,11.1,M,-25.1,M,,0000*52
$GPGSA,A,3,27,09,17,28,08,15,,,,,,,3.3,1.6,2.9*32
$GPRMC,172505.000,A,3748.7992,N,12217.8625,W,0.15,173.34,260912,,,A*73
$GPVTG,173.34,T,,M,0.15,N,0.3,K,A*08
$GPGGA,172506.000,3748.7992,N,12217.8625,W,1,06,1.6,11.0,M,-25.1,M,,0000*50
$GPGSA,A,3,27,09,17,28,08,15,,,,,,,3.3,1.6,2.9*32
$GPRMC,172506.000,A,3748.7992,N,12217.8625,W,0.17,181.27,260912,,,A*7D
$GPVTG,181.27,T,,M,0.17,N,0.3,K,A*05
$GPGGA,172507.000,3748.7991,N,12217.8627,W,1,06,1.6,11.7,M,-25.1,M,,0000*57
$GPGSA,A,3,27,09,17,28,08,15,,,,,,,3.3,1.6,2.9*32
$GPGSV,3,1,11,17,73,044,34,27,47,312,39,28,43,065,29,09,34,315,40*7A
$GPGSV,3,2,11,15,29,261,38,04,28,156,31,26,27,215,29,08,22,136,26*73
$GPGSV,3,3,11,01,11,040,23,02,03,185,,12,02,279,*4D
$GPRMC,172507.000,A,3748.7991,N,12217.8627,W,0.06,68.22,260912,,,A*4E
$GPVTG,68.22,T,,M,0.06,N,0.1,K,A*34
$GPGGA,172508.000,3748.7991,N,12217.8629,W,1,06,1.6,12.2,M,-25.1,M,,0000*50
$GPGSA,A,3,27,09,17,28,08,15,,,,,,,3.3,1.6,2.9*32
$GPRMC,172508.000,A,3748.7991,N,12217.8629,W,0.20,164.90,260912,,,A*7F
$GPVTG,164.90,T,,M,0.20,N,0.4,K,A*01
$GPGGA,172509.000,3748.7991,N,12217.8630,W,1,06,1.6,12.4,M,-25.1,M,,0000*5F
$GPGSA,A,3,27,09,17,28,08,15,,,,,,,3.3,1.6,2.9*32
$GPRMC,172509.000,A,3748.7991,N,12217.8630,W,0.23,176.61,260912,,,A*78
$GPVTG,176.61,T,,M,0.23,N,0.4,K,A*0F
$GPGGA,172510.000,3748.7990,N,12217.8629,W,1,06,1.6,12.3,M,-25.1,M,,0000*59
$GPGSA,A,3,27,09,17,28,08,15,,,,,,,3.3,1.6,2.9*32
$GPRMC,172510.000,A,3748.7990,N,12217.8629,W,0.22,157.25,260912,,,A*7B
$GPVTG,157.25,T,,M,0.22,N,0.4,K,A*0D
$GPGGA,172511.000,3748.7990,N,12217.8629,W,1,06,1.6,11.9,M,-25.1,M,,0000*51
$GPGSA,A,3,27,09,17,28,08,15,,,,,,,3.3,1.6,2.9*32
$GPRMC,172511.000,A,3748.7990,N,12217.8629,W,0.44,173.26,260912,,,A*7F
$GPVTG,173.26,T,,M,0.44,N,0.8,K,A*04
$GPGGA,172512.000,3748.7989,N,12217.8628,W,1,06,1.6,11.9,M,-25.1,M,,0000*5B
$GPGSA,A,3,27,09,17,28,08,15,,,,,,,3.3,1.6,2.9*32
$GPGSV,3,1,12,17,73,044,33,27,47,312,34,28,43,065,33,09,34,315,32*7D
$GPGSV,3,2,12,15,29,261,33,04,28,156,29,26,27,215,21,08,22,136,27*7B
$GPGSV,3,3,12,01,11,040,22,02,03,185,,12,02,279,,48,44,197,29*77
$GPRMC,172512.000,A,3748.7989,N,12217.8628,W,0.26,177.53,260912,,,A*77
$GPGGA,172513.000,3748.7990,N,12217.8628,W,1,06,1.6,12.0,M,-25.1,M,,0000*58
$GPGSA,A,3,27,09,17,28,08,15,,,,,,,3.3,1.6,2.9*32
$GPRMC,172513.000,A,3748.7990,N,12217.8628,W,0.01,254.56,260912,,,A*7C
$GPVTG,254.56,T,,M,0.01,N,0.0,K,A*0C
$GPGGA,172514.000,3748.7992,N,12217.8629,W,1,06,1.6,12.4,M,-25.1,M,,0000*58
$GPGSA,A,3,27,09,17,28,08,15,,,,,,,3.3,1.6,2.9*32
$GPRMC,172514.000,A,3748.7992,N,12217.8629,W,0.06,269.86,260912,,,A*7C
$GPVTG,269.86,T,,M,0.06,N,0.1,K,A*09
$GPGGA,172515.000,3748.7992,N,12217.8630,W,1,06,1.6,12.7,M,-25.1,M,,0000*52
$GPGSA,A,3,27,09,17,28,08,15,,,,,,,3.3,1.6,2.9*32
$GPRMC,172515.000,A,3748.7992,N,12217.8630,W,0.35,292.21,260912,,,A*7C
$GPVTG,292.21,T,,M,0.35,N,0.7,K,A*06
$GPGGA,172516.000,3748.7993,N,12217.8630,W,1,06,1.6,12.5,M,-25.1,M,,0000*52
$GPGSA,A,3,27,09,17,28,08,15,,,,,,,3.3,1.6,2.9*32
$GPRMC,172516.000,A,3748.7993,N,12217.8630,W,0.15,177.62,260912,,,A*73
$GPVTG,177.62,T,,M,0.15,N,0.3,K,A*0F
$GPGGA,172517.000,3748.7993,N,12217.8630,W,1,06,1.6,12.5,M,-25.1,M,,0000*53
$GPGSA,A,3,27,09,17,28,08,15,,,,,,,3.3,1.6,2.9*32
$GPGSV,3,1,12,17,73,044,34,27,47,312,36,28,43,065,33,09,34,315,40*7D
$GPGSV,3,2,12,15,29,261,34,04,28,156,29,26,27,215,30,08,22,136,28*73
$GPGSV,3,3,12,01,11,040,29,02,03,185,,12,03,279,,48,44,197,26*72
$GPRMC,172517.000,A,3748.7993,N,12217.8630,W,0.13,178.62,260912,,,A*7B
$GPVTG,178.62,T,,M,0.13,N,0.2,K,A*07
$GPGGA,172518.000,3748.7993,N,12217.8629,W,1,06,1.6,12.5,M,-25.1,M,,0000*54
$GPGSA,A,3,27,09,17,28,08,15,,,,,,,3.3,1.6,2.9*32
$GPRMC,172518.000,A,3748.7993,N,12217.8629,W,0.15,178.72,260912,,,A*7B
$GPVTG,178.72,T,,M,0.15,N,0.3,K,A*01
$GPGGA,172519.000,3748.7993,N,12217.8629,W,1,06,1.6,12.4,M,-25.1,M,,0000*54
$GPGSA,A,3,27,09,17,28,08,15,,,,,,,3.3,1.6,2.9*32
$GPRMC,172519.000,A,3748.7993,N,12217.8629,W,0.13,173.78,260912,,,A*7D
$GPVTG,173.78,T,,M,0.13,N,0.2,K,A*07
$GPGGA,172520.000,3748.7993,N,12217.8629,W,1,06,1.6,12.3,M,-25.1,M,,0000*59
$GPGSA,A,3,27,09,17,28,08,15,,,,,,,3.3,1.6,2.9*32
$GPRMC,172520.000,A,3748.7993,N,12217.8629,W,0.23,211.36,260912,,,A*79
$GPVTG,211.36,T,,M,0.23,N,0.4,K,A*0F
$GPGGA,172521.000,3748.7994,N,12217.8628,W,1,06,1.6,11.5,M,-25.1,M,,0000*5B
$GPGSA,A,3,27,09,17,28,08,15,,,,,,,3.3,1.6,2.9*32
$GPRMC,172521.000,A,3748.7994,N,12217.8628,W,0.13,148.88,260912,,,A*77
$GPVTG,148.88,T,,M,0.13,N,0.2,K,A*00
$GPGGA,172522.000,3748.7994,N,12217.8627,W,1,06,1.6,11.0,M,-25.1,M,,0000*52
$GPGSA,A,3,27,09,17,28,08,15,,,,,,,3.3,1.6,2.9*32
$GPGSV,3,1,11,17,73,044,36,27,47,312,37,28,43,065,39,09,34,315,34*74
$GPGSV,3,2,11,15,29,261,34,04,28,156,29,26,27,215,30,08,22,136,27*7F
$GPGSV,3,3,11,01,11,040,29,02,03,185,,12,03,279,*46
$GPRMC,172522.000,A,3748.7994,N,12217.8627,W,0.43,163.13,260912,,,A*75
$GPVTG,163.13,T,,M,0.43,N,0.8,K,A*04
$GPGGA,172523.000,3748.7993,N,12217.8627,W,1,06,1.6,10.7,M,-25.1,M,,0000*52
$GPGSA,A,3,27,09,17,28,08,15,,,,,,,3.3,1.6,2.9*32
$GPRMC,172523.000,A,3748.7993,N,12217.8627,W,0.20,170.97,260912,,,A*78
$GPVTG,170.97,T,,M,0.20,N,0.4,K,A*03
$GPGGA,172524.000,3748.7993,N,12217.8626,W,1,06,1.6,10.8,M,-25.1,M,,0000*5B
$GPGSA,A,3,27,09,17,28,08,15,,,,,,,3.3,1.6,2.9*32
$GPRMC,172524.000,A,3748.7993,N,12217.8626,W,0.12,147.93,260912,,,A*7F
$GPVTG,147.93,T,,M,0.12,N,0.2,K,A*04
$GPGGA,172525.000,3748.7993,N,12217.8626,W,1,06,1.6,11.0,M,-25.1,M,,0000*53
$GPGSA,A,3,27,09,17,28,08,15,,,,,,,3.3,1.6,2.9*32
$GPRMC,172525.000,A,3748.7993,N,12217.8626,W,0.12,188.13,260912,,,A*75
$GPVTG,188.13,T,,M,0.12,N,0.2,K,A*0F
$GPGGA,172526.000,3748.7996,N,12217.8628,W,1,06,1.6,12.2,M,-25.1,M,,0000*5A
$GPGSA,A,3,27,09,17,28,08,15,,,,,,,3.3,1.6,2.9*32
$GPRMC,172526.000,A,3748.7996,N,12217.8628,W,0.10,125.00,260912,,,A*7A
$GPVTG,125.00,T,,M,0.10,N,0.2,K,A*08
$GPGGA,172527.000,3748.7999,N,12217.8628,W,1,06,1.6,12.9,M,-25.1,M,,0000*5F
$GPGSA,A,3,27,09,17,28,08,15,,,,,,,3.3,1.6,2.9*32
$GPGSV,3,1,11,17,73,044,26,27,47,312,29,28,43,065,31,09,34,315,31*77
$GPGSV,3,2,11,15,29,261,29,04,28,156,27,26,27,215,26,08,22,136,30*7C
$GPGSV,3,3,11,01,11,040,,02,03,185,,12,03,279,*4D
$GPVTG,56.27,T,,M,0.34,N,0.6,K,A*3A
$GPGGA,172528.000,3748.8001,N,12217.8627,W,1,06,1.6,12.6,M,-25.1,M,,0000*57
$GPGSA,A,3,27,09,17,28,08,15,,,,,,,3.3,1.6,2.9*32
$GPRMC,172528.000,A,3748.8001,N,12217.8627,W,0.40,327.50,260912,,,A*73
$GPVTG,327.50,T,,M,0.40,N,0.7,K,A*0D
$GPGGA,172529.000,3748.8004,N,12217.8625,W,1,06,1.6,12.6,M,-25.1,M,,0000*51
$GPGSA,A,3,27,09,17,28,08,15,,,,,,,3.3,1.6,2.9*32
$GPRMC,172529.000,A,3748.8004,N,12217.8625,W,0.38,14.99,260912,,,A*4C
$GPVTG,14.99,T,,M,0.38,N,0.7,K,A*34
$GPGGA,172530.000,3748.8004,N,12217.8624,W,1,06,1.6,12.7,M,-25.1,M,,0000*59
$GPGSA,A,3,27,09,17,28,08,15,,,,,,,3.3,1.6,2.9*32
$GPRMC,172530.000,A,3748.8004,N,12217.8624,W,0.21,325.63,260912,,,A*79
$GPVTG,325.63,T,,M,0.21,N,0.4,K,A*0B
$GPGGA,172531.000,3748.8005,N,12217.8624,W,1,06,1.6,12.7,M,-25.1,M,,0000*59
$GPGSA,A,3,27,09,17,28,08,15,,,,,,,3.3,1.6,2.9*32
$GPRMC,172531.000,A,3748.8005,N,12217.8624,W,0.35,308.39,260912,,,A*7C
$GPVTG,308.39,T,,M,0.35,N,0.6,K,A*0C
$GPGGA,172532.000,3748.8005,N,12217.8624,W,1,06,1.6,12.8,M,-25.1,M,,0000*55
$GPGSA,A,3,27,09,17,28,08,15,,,,,,,3.3,1.6,2.9*32
$GPGSV,3,1,11,17,73,044,27,27,47,312,32,28,43,065,28,09,34,315,35*70
$GPGSV,3,2,11,15,29,261,35,04,28,156,20,26,27,215,27,08,22,136,21*77
$GPGSV,3,3,11,01,11,040,29,02,03,185,,12,03,279,*46
$GPRMC,172532.000,A,3748.8005,N,12217.8624,W,0.17,324.36,260912,,,A*7E
$GPVTG,324.36,T,,M,0.17,N,0.3,K,A*08
$GPGGA,172533.000,3748.8006,N,12217.8623,W,1,06,1.6,12.3,M,-25.1,M,,0000*5B
$GPGSA,A,3,27,09,17,28,08,15,,,,,,,3.3,1.6,2.9*32
$GPRMC,172533.000,A,3748.8006,N,12217.8623,W,0.55,267.82,260912,,,A*74
$GPVTG,267.82,T,,M,0.55,N,1.0,K,A*05
$GPGGA,172534.000,3748.8003,N,12217.8624,W,1,05,2.2,12.6,M,-25.1,M,,0000*5F
$GPGSA,A,3,27,09,28,08,15,,,,,,,,7.1,2.2,6.7*3F
$GPRMC,172534.000,A,3748.8003,N,12217.8624,W,1.35,152.91,260912,,,A*71
$GPVTG,152.91,T,,M,1.35,N,2.5,K,A*03
$GPGGA,172535.000,3748.7996,N,12217.8624,W,1,05,2.2,12.2,M,-25.1,M,,0000*50
$GPGSA,A,3,27,09,28,08,15,,,,,,,,7.1,2.2,6.7*3F
$GPRMC,172535.000,A,3748.7996,N,12217.8624,W,0.59,152.49,260912,,,A*74
$GPVTG,152.49,T,,M,0.59,N,1.1,K,A*0A
$GPGGA,172536.000,3748.7988,N,12217.8624,W,1,06,1.6,11.8,M,-25.1,M,,0000*51
$GPGSA,A,3,27,09,28,08,15,17,,,,,,,3.3,1.6,2.9*32
$GPRMC,172536.000,A,3748.7988,N,12217.8624,W,0.48,161.77,260912,,,A*75
$GPVTG,161.77,T,,M,0.48,N,0.9,K,A*0E
$GPGGA,172537.000,3748.7986,N,12217.8625,W,1,06,1.6,9.9,M,-25.1,M,,0000*67
$GPGSA,A,3,27,09,28,08,15,17,,,,,,,3.3,1.6,2.9*32
$GPGSV,3,1,12,17,73,044,27,27,47,312,24,28,43,065,22,09,34,315,24*7E
$GPGSV,3,2,12,15,29,261,27,04,28,156,32,26,27,215,33,08,22,136,29*79
$GPGSV,3,3,12,01,11,040,23,02,03,185,,12,03,279,,48,44,197,30*7F
$GPRMC,172537.000,A,3748.7986,N,12217.8625,W,0.25,116.01,260912,,,A*71
$GPVTG,116.01,T,,M,0.25,N,0.5,K,A*08
$GPGGA,172538.000,3748.7992,N,12217.8617,W,1,06,1.6,7.8,M,-25.1,M,,0000*63
$GPGSA,A,3,27,09,28,08,15,17,,,,,,,3.3,1.6,2.9*32
$GPRMC,172538.000,A,3748.7992,N,12217.8617,W,2.52,90.37,260912,,,A*42
$GPVTG,90.37,T,,M,2.52,N,4.7,K,A*36
$GPGGA,172539.000,3748.7986,N,12217.8608,W,1,06,1.6,7.3,M,-25.1,M,,0000*62
$GPGSA,A,3,27,09,28,08,15,17,,,,,,,3.3,1.6,2.9*32
$GPRMC,172539.000,A,3748.7986,N,12217.8608,W,1.87,139.89,260912,,,A*74
$GPVTG,139.89,T,,M,1.87,N,3.5,K,A*0F
$GPGGA,172540.000,3748.7984,N,12217.8599,W,1,06,1.6,5.6,M,-25.1,M,,0000*62
$GPGSA,A,3,27,09,28,08,15,17,,,,,,,3.3,1.6,2.9*32
$GPRMC,172540.000,A,3748.7984,N,12217.8599,W,1.66,122.56,260912,,,A*74
$GPVTG,122.56,T,,M,1.66,N,3.1,K,A*0C
$GPGGA,172541.000,3748.7981,N,12217.8591,W,1,06,1.6,5.5,M,-25.1,M,,0000*6D
$GPGSA,A,3,27,09,28,08,15,17,,,,,,,3.3,1.6,2.9*32
$GPRMC,172541.000,A,3748.7981,N,12217.8591,W,1.97,118.42,260912,,,A*7A
$GPVTG,118.42,T,,M,1.97,N,3.7,K,A*08
$GPGGA,172542.000,3748.7978,N,12217.8581,W,1,06,1.6,4.7,M,-25.1,M,,0000*6A
$GPGSA,A,3,27,09,28,08,15,17,,,,,,,3.3,1.6,2.9*32
$GPGSV,3,1,12,17,73,044,25,27,47,312,20,28,43,065,28,09,34,315,22*74
$GPGSV,3,2,12,15,29,261,28,04,28,156,30,26,27,215,31,08,22,136,33*7D
$GPGSV,3,3,12,01,11,040,22,02,03,185,24,12,03,279,,48,44,197,29*70
$GPRMC,172542.000,A,3748.7978,N,12217.8581,W,2.19,115.88,260912,,,A*70
$GPGGA,172543.000,3748.7973,N,12217.8571,W,1,06,1.6,3.4,M,-25.1,M,,0000*6B
$GPGSA,A,3,27,09,28,08,15,17,,,,,,,3.3,1.6,2.9*32
$GPRMC,172543.000,A,3748.7973,N,12217.8571,W,1.81,135.41,260912,,,A*70
$GPVTG,135.41,T,,M,1.81,N,3.4,K,A*00
$GPGGA,172544.000,3748.7967,N,12217.8564,W,1,06,1.6,3.2,M,-25.1,M,,0000*6B
$GPGSA,A,3,27,09,28,08,15,17,,,,,,,3.3,1.6,2.9*32
$GPRMC,172544.000,A,3748.7967,N,12217.8564,W,0.66,155.03,260912,,,A*7E
$GPVTG,155.03,T,,M,0.66,N,1.2,K,A*0C
$GPGGA,172545.000,3748.7960,N,12217.8561,W,1,06,1.6,5.6,M,-25.1,M,,0000*6A
$GPGSA,A,3,27,09,28,08,15,17,,,,,,,3.3,1.6,2.9*32
$GPRMC,172545.000,A,3748.7960,N,12217.8561,W,1.21,123.17,260912,,,A*7B
$GPVTG,123.17,T,,M,1.21,N,2.2,K,A*09
$GPGGA,172546.000,3748.7953,N,12217.8556,W,1,06,1.6,8.1,M,-25.1,M,,0000*67
$GPGSA,A,3,27,09,28,08,15,17,,,,,,,3.3,1.6,2.9*32
$GPRMC,172546.000,A,3748.7953,N,12217.8556,W,1.68,118.17,260912,,,A*79
$GPVTG,118.17,T,,M,1.68,N,3.1,K,A*0E
$GPGGA,172547.000,3748.7943,N,12217.8552,W,1,06,1.6,8.2,M,-25.1,M,,0000*60
$GPGSA,A,3,27,09,28,08,15,17,,,,,,,3.3,1.6,2.9*32
$GPGSV,3,1,12,17,73,044,15,27,47,312,19,28,43,065,25,09,34,315,20*72
$GPGSV,3,2,12,15,29,261,24,04,28,156,33,26,27,215,28,08,22,136,32*7B
$GPGSV,3,3,12,01,11,040,14,02,03,185,13,12,03,279,,48,44,197,32*7B
$GPRMC,172547.000,A,3748.7943,N,12217.8552,W,2.19,140.68,260912,,,A*7D
$GPVTG,140.68,T,,M,2.19,N,4.1,K,A*09
$GPGGA,172548.000,3748.7940,N,12217.8545,W,1,06,1.6,8.2,M,-25.1,M,,0000*6A
$GPGSA,A,3,27,09,28,08,15,17,,,,,,,3.3,1.6,2.9*32
$GPRMC,172548.000,A,3748.7940,N,12217.8545,W,2.11,107.61,260912,,,A*75
$GPVTG,107.61,T,,M,2.11,N,3.9,K,A*04
$GPGGA,172549.000,3748.7937,N,12217.8534,W,1,06,1.6,8.2,M,-25.1,M,,0000*6D
$GPGSA,A,3,27,09,28,08,15,17,,,,,,,3.3,1.6,2.9*32
$GPRMC,172549.000,A,3748.7937,N,12217.8534,W,2.22,93.98,260912,,,A*48
$GPVTG,93.98,T,,M,2.22,N,4.1,K,A*31
$GPGGA,172550.000,3748.7935,N,12217.8522,W,1,06,1.6,8.5,M,-25.1,M,,0000*67
$GPGSA,A,3,27,09,28,08,15,17,,,,,,,3.3,1.6,2.9*32
$GPRMC,172550.000,A,3748.7935,N,12217.8522,W,1.98,126.73,260912,,,A*7D
$GPVTG,126.73,T,,M,1.98,N,3.7,K,A*08
$GPGGA,172551.000,3748.7929,N,12217.8515,W,1,06,1.6,9.2,M,-25.1,M,,0000*69
$GPGSA,A,3,27,09,28,08,15,17,,,,,,,3.3,1.6,2.9*32
$GPRMC,172551.000,A,3748.7929,N,12217.8515,W,1.76,139.33,260912,,,A*7F
$GPVTG,139.33,T,,M,1.76,N,3.3,K,A*06
$GPGGA,172552.000,3748.7928,N,12217.8509,W,1,06,1.6,7.8,M,-25.1,M,,0000*62
$GPGSA,A,3,27,09,28,08,15,17,,,,,,,3.3,1.6,2.9*32
$GPGSV,3,1,12,17,73,044,28,27,47,312,19,28,43,065,29,09,34,315,19*7A
$GPGSV,3,2,12,15,29,261,29,04,28,156,37,26,27,215,34,08,22,136,29*75
$GPGSV,3,3,12,01,11,040,17,02,03,185,20,12,03,279,,48,44,197,33*79
$GPRMC,172552.000,A,3748.7928,N,12217.8509,W,2.00,109.10,260912,,,A*70
$GPVTG,109.10,T,,M,2.00,N,3.7,K,A*02
$GPGGA,172553.000,3748.7918,N,12217.8506,W,1,06,1.6,10.2,M,-25.1,M,,0000*53
$GPGSA,A,3,27,09,28,08,15,17,,,,,,,3.4,1.6,2.9*35
$GPRMC,172553.000,A,3748.7918,N,12217.8506,W,1.79,116.92,260912,,,A*74
$GPVTG,116.92,T,,M,1.79,N,3.3,K,A*0F
$GPGGA,172554.000,3748.7915,N,12217.8499,W,1,06,1.6,11.6,M,-25.1,M,,0000*5B
$GPGSA,A,3,27,09,28,08,15,17,,,,,,,3.4,1.6,2.9*35
$GPRMC,172554.000,A,3748.7915,N,12217.8499,W,2.24,116.96,260912,,,A*76
$GPVTG,116.96,T,,M,2.24,N,4.1,K,A*05
$GPGGA,172555.000,3748.7909,N,12217.8501,W,1,06,1.6,13.0,M,-25.1,M,,0000*53
$GPGSA,A,3,27,09,28,08,15,17,,,,,,,3.4,1.6,2.9*35
$GPRMC,172555.000,A,3748.7909,N,12217.8501,W,1.56,118.05,260912,,,A*78
$GPVTG,118.05,T,,M,1.56,N,2.9,K,A*09
$GPGGA,172556.000,3748.7900,N,12217.8499,W,1,06,1.6,15.8,M,-25.1,M,,0000*57
$GPGSA,A,3,27,09,28,08,15,17,,,,,,,3.4,1.6,2.9*35
$GPRMC,172556.000,A,3748.7900,N,12217.8499,W,1.77,109.06,260912,,,A*72
$GPVTG,109.06,T,,M,1.77,N,3.3,K,A*02
$GPGGA,172557.000,3748.7897,N,12217.8494,W,1,06,1.6,17.9,M,-25.1,M,,0000*57
$GPGSA,A,3,27,09,28,08,15,17,,,,,,,3.4,1.6,2.9*35
$GPGSV,3,1,12,17,73,044,27,27,47,312,20,28,43,065,26,09,34,315,20*7A
$GPGSV,3,2,12,15,29,261,29,04,28,156,36,26,27,215,29,08,22,136,29*78
$GPGSV,3,3,12,01,11,040,13,02,03,185,16,12,03,279,,48,44,197,33*78
$GPVTG,128.32,T,,M,1.89,N,3.5,K,A*01
$GPGGA,172558.000,3748.7894,N,12217.8489,W,1,06,1.6,19.8,M,-25.1,M,,0000*58
$GPGSA,A,3,27,09,28,08,15,17,,,,,,,3.4,1.6,2.9*35
$GPRMC,172558.000,A,3748.7894,N,12217.8489,W,2.00,107.65,260912,,,A*79
$GPVTG,107.65,T,,M,2.00,N,3.7,K,A*0E
$GPGGA,172559.000,3748.7893,N,12217.8480,W,1,06,1.6,19.1,M,-25.1,M,,0000*5E
$GPGSA,A,3,27,09,28,08,15,17,,,,,,,3.4,1.6,2.9*35
$GPRMC,172559.000,A,3748.7893,N,12217.8480,W,1.97,132.05,260912,,,A*7B
$GPVTG,132.05,T,,M,1.97,N,3.7,K,A*03
$GPGGA,172600.000,3748.7897,N,12217.8474,W,1,06,1.6,16.3,M,-25.1,M,,0000*53
$GPGSA,A,3,27,09,28,08,15,17,,,,,,,3.4,1.6,2.9*35
$GPRMC,172600.000,A,3748.7897,N,12217.8474,W,1.53,100.85,260912,,,A*7A
$GPVTG,100.85,T,,M,1.53,N,2.8,K,A*0C
$GPGGA,172601.000,3748.7902,N,12217.8466,W,1,06,1.6,13.5,M,-25.1,M,,0000*5F
$GPGSA,A,3,27,09,28,08,15,17,,,,,,,3.4,1.6,2.9*35
$GPRMC,172601.000,A,3748.7902,N,12217.8466,W,1.67,102.93,260912,,,A*77
$GPVTG,102.93,T,,M,1.67,N,3.1,K,A*06
$GPGGA,172602.000,3748.7902,N,12217.8453,W,1,06,1.6,11.2,M,-25.1,M,,0000*5F
$GPGSA,A,3,27,09,28,08,15,17,,,,,,,3.4,1.6,2.9*35
$GPGSV,3,1,12,17,73,044,21,27,47,312,20,28,43,065,22,09,34,315,20*78
$GPGSV,3,2,12,15,29,261,25,04,28,156,33,26,27,215,29,08,22,136,29*71
$GPGSV,3,3,12,01,11,040,15,02,03,185,,12,03,279,,48,44,197,34*7E
$GPRMC,172602.000,A,3748.7902,N,12217.8453,W,1.64,131.56,260912,,,A*78
$GPVTG,131.56,T,,M,1.64,N,3.0,K,A*0D
$GPGGA,172603.000,3748.7896,N,12217.8439,W,1,06,1.6,10.9,M,-25.1,M,,0000*54
$GPGSA,A,3,27,09,28,08,15,17,,,,,,,3.4,1.6,2.9*35
$GPRMC,172603.000,A,3748.7896,N,12217.8439,W,2.46,114.04,260912,,,A*7A
$GPVTG,114.04,T,,M,2.46,N,4.5,K,A*0C
$GPGGA,172604.000,3748.7888,N,12217.8432,W,1,06,1.6,11.6,M,-25.1,M,,0000*59
$GPGSA,A,3,27,09,28,08,15,17,,,,,,,3.4,1.6,2.9*35
$GPRMC,172604.000,A,3748.7888,N,12217.8432,W,1.66,145.86,260912,,,A*76
$GPVTG,145.86,T,,M,1.66,N,3.1,K,A*00
$GPGGA,172605.000,3748.7885,N,12217.8425,W,1,06,1.6,12.1,M,-25.1,M,,0000*57
$GPGSA,A,3,27,09,28,08,15,17,,,,,,,3.4,1.6,2.9*35
$GPRMC,172605.000,A,3748.7885,N,12217.8425,W,1.12,151.68,260912,,,A*7A
$GPVTG,151.68,T,,M,1.12,N,2.1,K,A*07
$GPGGA,172606.000,3748.7882,N,12217.8422,W,1,06,1.6,11.3,M,-25.1,M,,0000*55
$GPGSA,A,3,27,09,28,08,15,17,,,,,,,3.4,1.6,2.9*35
$GPRMC,172606.000,A,3748.7882,N,12217.8422,W,0.74,134.50,260912,,,A*70
$GPVTG,134.50,T,,M,0.74,N,1.4,K,A*08
$GPGGA,172607.000,3748.7877,N,12217.8416,W,1,06,1.6,11.7,M,-25.1,M,,0000*5D
$GPGSA,A,3,27,09,28,08,15,17,,,,,,,3.4,1.6,2.9*35
$GPGSV,3,1,12,17,73,044,23,27,47,312,19,28,43,065,23,09,34,315,19*7B
$GPGSV,3,2,12,15,29,261,25,04,28,156,33,26,27,215,30,08,22,136,27*77
$GPGSV,3,3,12,01,11,040,17,02,03,185,,12,03,279,,48,44,197,36*7E
$GPRMC,172607.000,A,3748.7877,N,12217.8416,W,2.19,107.58,260912,,,A*7D
$GPVTG,107.58,T,,M,2.19,N,4.1,K,A*09
$GPGGA,172608.000,3748.7867,N,12217.8412,W,1,06,1.6,13.3,M,-25.1,M,,0000*51
$GPGSA,A,3,27,09,28,08,15,17,,,,,,,3.4,1.6,2.9*35
$GPRMC,172608.000,A,3748.7867,N,12217.8412,W,2.08,111.44,260912,,,A*7D
$GPVTG,111.44,T,,M,2.08,N,3.9,K,A*0C
$GPGGA,172609.000,3748.7867,N,12217.8400,W,1,06,1.6,13.5,M,-25.1,M,,0000*55
$GPGSA,A,3,27,09,28,08,15,17,,,,,,,3.4,1.6,2.9*35
$GPRMC,172609.000,A,3748.7867,N,12217.8400,W,1.89,107.88,260912,,,A*72
$GPVTG,107.88,T,,M,1.89,N,3.5,K,A*0D
$GPGGA,172610.000,3748.7867,N,12217.8388,W,1,06,1.6,13.2,M,-25.1,M,,0000*5D
$GPGSA,A,3,27,09,28,08,15,17,,,,,,,3.4,1.6,2.9*35
$GPRMC,172610.000,A,3748.7867,N,12217.8388,W,1.91,110.78,260912,,,A*7D
$GPVTG,110.78,T,,M,1.91,N,3.5,K,A*0D
$GPGGA,172611.000,3748.7878,N,12217.8378,W,1,06,1.6,8.8,M,-25.1,M,,0000*6D
$GPGSA,A,3,27,09,28,08,15,17,,,,,,,3.4,1.6,2.9*35
$GPRMC,172611.000,A,3748.7878,N,12217.8378,W,1.76,111.37,260912,,,A*7E
$GPVTG,111.37,T,,M,1.76,N,3.3,K,A*08
$GPGGA,172612.000,3748.7873,N,12217.8373,W,1,06,1.6,9.5,M,-25.1,M,,0000*62
$GPGSA,A,3,27,09,28,08,15,17,,,,,,,3.4,1.6,2.9*35
$GPGSV,3,1,12,17,73,044,24,27,47,312,22,28,43,065,26,09,34,315,20*7B
$GPGSV,3,2,12,15,29,261,26,04,28,156,33,26,27,215,32,08,22,136,32*72
$GPGSV,3,3,12,01,11,040,17,02,03,185,,12,03,279,,48,44,197,33*7B
$GPVTG,102.11,T,,M,1.30,N,2.4,K,A*0A
$GPGGA,172613.000,3748.7872,N,12217.8366,W,1,06,1.6,8.3,M,-25.1,M,,0000*61
$GPGSA,A,3,27,09,28,08,15,17,,,,,,,3.4,1.6,2.9*35
$GPRMC,172613.000,A,3748.7872,N,12217.8366,W,1.68,108.71,260912,,,A*7C
$GPVTG,108.71,T,,M,1.68,N,3.1,K,A*0F
$GPGGA,172614.000,3748.7866,N,12217.8360,W,1,06,1.6,8.0,M,-25.1,M,,0000*66
$GPGSA,A,3,27,09,28,08,15,17,,,,,,,3.4,1.6,2.9*35
$GPRMC,172614.000,A,3748.7866,N,12217.8360,W,1.64,108.51,260912,,,A*76
$GPVTG,108.51,T,,M,1.64,N,3.0,K,A*00
$GPGGA,172615.000,3748.7865,N,12217.8352,W,1,06,1.6,6.5,M,-25.1,M,,0000*6E
$GPGSA,A,3,27,09,28,08,15,17,,,,,,,3.4,1.6,2.9*35
$GPRMC,172615.000,A,3748.7865,N,12217.8352,W,1.84,87.23,260912,,,A*48
$GPVTG,87.23,T,,M,1.84,N,3.4,K,A*39
$GPGGA,172616.000,3748.7864,N,12217.8344,W,1,06,1.6,6.6,M,-25.1,M,,0000*68
$GPGSA,A,3,27,09,28,08,15,17,,,,,,,3.4,1.6,2.9*35
$GPRMC,172616.000,A,3748.7864,N,12217.8344,W,2.13,100.51,260912,,,A*7B
$GPVTG,100.51,T,,M,2.13,N,4.0,K,A*0C
$GPGGA,172617.000,3748.7856,N,12217.8340,W,1,06,1.6,7.3,M,-25.1,M,,0000*68
$GPGSA,A,3,27,09,28,08,15,17,,,,,,,3.4,1.6,3.0*3D
$GPGSV,3,1,12,17,73,044,28,27,47,312,21,28,43,065,25,09,34,315,21*76
$GPGSV,3,2,12,15,29,261,33,04,28,156,28,26,27,215,32,08,22,136,31*7F
$GPGSV,3,3,12,01,11,040,18,02,03,185,,12,03,279,,48,44,197,31*76
$GPRMC,172617.000,A,3748.7856,N,12217.8340,W,2.51,127.87,260912,,,A*77
$GPVTG,127.87,T,,M,2.51,N,4.6,K,A*02
$GPGGA,172618.000,3748.7842,N,12217.8335,W,1,06,1.6,10.5,M,-25.1,M,,0000*50
$GPGSA,A,3,27,09,28,08,15,17,,,,,,,3.4,1.6,3.0*3D
$GPRMC,172618.000,A,3748.7842,N,12217.8335,W,2.61,129.22,260912,,,A*7D
$GPVTG,129.22,T,,M,2.61,N,4.8,K,A*0E
$GPGGA,172619.000,3748.7830,N,12217.8329,W,1,06,1.6,12.5,M,-25.1,M,,0000*5B
$GPGSA,A,3,27,09,28,08,15,17,,,,,,,3.4,1.6,3.0*3D
$GPRMC,172619.000,A,3748.7830,N,12217.8329,W,2.72,135.34,260912,,,A*7C
$GPVTG,135.34,T,,M,2.72,N,5.0,K,A*0F
$GPGGA,172620.000,3748.7824,N,12217.8320,W,1,06,1.6,13.3,M,-25.1,M,,0000*5A
$GPGSA,A,3,27,09,28,08,15,17,,,,,,,3.4,1.6,3.0*3D
$GPRMC,172620.000,A,3748.7824,N,12217.8320,W,2.98,123.87,260912,,,A*71
$GPVTG,123.87,T,,M,2.98,N,5.5,K,A*01
$GPGGA,172621.000,3748.7818,N,12217.8309,W,1,06,1.6,13.1,M,-25.1,M,,0000*5D
$GPGSA,A,3,27,09,28,08,15,17,,,,,,,3.4,1.6,3.0*3D
$GPRMC,172621.000,A,3748.7818,N,12217.8309,W,2.58,108.91,260912,,,A*76
$GPVTG,108.91,T,,M,2.58,N,4.8,K,A*0F
$GPGGA,172622.000,3748.7815,N,12217.8297,W,1,06,1.6,13.0,M,-25.1,M,,0000*54
$GPGSA,A,3,27,09,28,08,15,17,,,,,,,3.4,1.6,3.0*3D
$GPGSV,3,1,12,17,73,044,26,27,47,312,22,28,43,065,25,09,34,315,22*78
$GPGSV,3,2,12,15,29,261,30,04,28,156,31,26,27,215,32,08,22,136,32*77
$GPGSV,3,3,12,01,11,040,24,02,03,185,,12,03,279,,48,44,197,28*71
$GPRMC,172622.000,A,3748.7815,N,12217.8297,W,2.43,109.84,260912,,,A*71
$GPVTG,109.84,T,,M,2.43,N,4.5,K,A*0D
$GPGGA,172623.000,3748.7813,N,12217.8285,W,1,06,1.6,13.0,M,-25.1,M,,0000*50
$GPGSA,A,3,27,09,28,08,15,17,,,,,,,3.4,1.6,3.0*3D
$GPRMC,172623.000,A,3748.7813,N,12217.8285,W,2.74,126.97,260912,,,A*7E
$GPVTG,126.97,T,,M,2.74,N,5.1,K,A*03
$GPGGA,172624.000,3748.7802,N,12217.8281,W,1,06,1.6,14.4,M,-25.1,M,,0000*50
$GPGSA,A,3,27,09,28,08,15,17,,,,,,,3.4,1.6,3.0*3D
$GPRMC,172624.000,A,3748.7802,N,12217.8281,W,2.88,130.21,260912,,,A*74
$GPVTG,130.21,T,,M,2.88,N,5.3,K,A*08
$GPGGA,172625.000,3748.7794,N,12217.8274,W,1,06,1.6,12.9,M,-25.1,M,,0000*50
$GPGSA,A,3,27,09,28,08,15,17,,,,,,,3.4,1.6,3.0*3D
$GPRMC,172625.000,A,3748.7794,N,12217.8274,W,2.77,127.74,260912,,,A*79
$GPVTG,127.74,T,,M,2.77,N,5.1,K,A*0C
$GPGGA,172626.000,3748.7782,N,12217.8270,W,1,06,1.6,14.3,M,-25.1,M,,0000*5C
$GPGSA,A,3,27,09,28,08,15,17,,,,,,,3.4,1.6,3.0*3D
$GPRMC,172626.000,A,3748.7782,N,12217.8270,W,2.38,125.13,260912,,,A*71
$GPVTG,125.13,T,,M,2.38,N,4.4,K,A*00
$GPGGA,172627.000,3748.7775,N,12217.8263,W,1,06,1.6,14.5,M,-25.1,M,,0000*51
$GPGSA,A,3,27,09,28,08,15,17,,,,,,,3.4,1.6,3.0*3D
$GPGSV,3,1,12,17,73,044,25,27,47,312,21,28,43,065,24,09,34,315,21*7A
$GPGSV,3,2,12,15,29,261,28,04,28,156,35,26,27,215,32,08,22,136,34*7C
$GPGSV,3,3,12,01,11,040,19,02,03,185,,12,03,279,,48,44,197,35*73
$GPRMC,172627.000,A,3748.7775,N,12217.8263,W,2.57,119.19,260912,,,A*76
$GPVTG,119.19,T,,M,2.57,N,4.8,K,A*00
$GPGGA,172628.000,3748.7771,N,12217.8257,W,1,06,1.6,14.2,M,-25.1,M,,0000*5A
$GPGSA,A,3,27,09,28,08,15,17,,,,,,,3.4,1.6,3.0*3D
$GPRMC,172628.000,A,3748.7771,N,12217.8257,W,2.71,128.08,260912,,,A*7C
$GPVTG,128.08,T,,M,2.71,N,5.0,K,A*0F
$GPGGA,172629.000,3748.7763,N,12217.8248,W,1,06,1.6,14.8,M,-25.1,M,,0000*5C
$GPGSA,A,3,27,09,28,08,15,17,,,,,,,3.4,1.6,3.0*3D
$GPRMC,172629.000,A,3748.7763,N,12217.8248,W,2.58,131.34,260912,,,A*7C
$GPVTG,131.34,T,,M,2.58,N,4.8,K,A*0A
$GPGGA,172630.000,3748.7749,N,12217.8244,W,1,06,1.6,17.9,M,-25.1,M,,0000*52
$GPGSA,A,3,27,09,28,08,15,17,,,,,,,3.4,1.6,3.0*3D
$GPRMC,172630.000,A,3748.7749,N,12217.8244,W,2.53,123.91,260912,,,A*77
$GPVTG,123.91,T,,M,2.53,N,4.7,K,A*02
$GPGGA,172631.000,3748.7744,N,12217.8235,W,1,06,1.6,17.5,M,-25.1,M,,0000*54
$GPGSA,A,3,27,09,28,08,15,17,,,,,,,3.4,1.6,3.0*3D
$GPRMC,172631.000,A,3748.7744,N,12217.8235,W,2.55,111.55,260912,,,A*72
$GPVTG,111.55,T,,M,2.55,N,4.7,K,A*0D
$GPGGA,172632.000,3748.7728,N,12217.8232,W,1,06,1.6,19.8,M,-25.1,M,,0000*59
$GPGSA,A,3,27,09,28,08,15,17,,,,,,,3.4,1.6,3.0*3D
$GPGSV,3,1,12,17,73,044,25,27,47,312,21,28,43,065,24,09,34,315,22*79
$GPGSV,3,2,12,15,29,261,29,04,28,156,36,26,27,215,34,08,22,136,34*78
$GPGSV,3,3,12,01,11,040,19,02,03,185,,12,03,279,,48,44,197,37*71
$GPRMC,172632.000,A,3748.7728,N,12217.8232,W,2.62,128.00,260912,,,A*72
$GPGGA,172633.000,3748.7717,N,12217.8227,W,1,06,1.6,21.6,M,-25.1,M,,0000*55
$GPGSA,A,3,27,09,28,08,15,17,,,,,,,3.4,1.6,3.0*3D
$GPRMC,172633.000,A,3748.7717,N,12217.8227,W,3.09,130.90,260912,,,A*77
$GPVTG,130.90,T,,M,3.09,N,5.7,K,A*0E
$GPGGA,172634.000,3748.7712,N,12217.8219,W,1,07,1.3,22.6,M,-25.1,M,,0000*5D
$GPGSA,A,3,27,09,28,08,15,26,17,,,,,,3.1,1.3,2.8*30
$GPRMC,172634.000,A,3748.7712,N,12217.8219,W,3.10,128.65,260912,,,A*73
$GPVTG,128.65,T,,M,3.10,N,5.8,K,A*0A
$GPGGA,172635.000,3748.7706,N,12217.8212,W,1,07,1.3,24.5,M,-25.1,M,,0000*57
$GPGSA,A,3,27,09,28,08,15,26,17,,,,,,3.1,1.3,2.8*30
$GPRMC,172635.000,A,3748.7706,N,12217.8212,W,2.57,121.20,260912,,,A*76
$GPVTG,121.20,T,,M,2.57,N,4.8,K,A*01
$GPGGA,172636.000,3748.7706,N,12217.8203,W,2,07,1.3,25.5,M,-25.1,M,,0000*56
$GPGSA,A,3,27,09,28,08,15,26,17,,,,,,3.1,1.3,2.8*30
$GPRMC,172636.000,A,3748.7706,N,12217.8203,W,1.89,120.93,260912,,,D*79
$GPVTG,120.93,T,,M,1.89,N,3.5,K,D*07
$GPGGA,172637.000,3748.7708,N,12217.8193,W,2,07,1.3,25.7,M,-25.1,M,,0000*51
$GPGSA,A,3,27,09,28,08,15,26,17,,,,,,3.1,1.3,2.8*30
$GPGSV,3,1,12,17,72,044,26,27,47,312,20,28,42,066,25,09,34,315,21*7A
$GPGSV,3,2,12,15,29,260,30,04,29,155,36,26,27,215,34,08,21,136,34*70
$GPGSV,3,3,12,01,11,039,18,02,04,185,,12,03,279,,48,44,197,36*78
$GPRMC,172637.000,A,3748.7708,N,12217.8193,W,2.39,117.22,260912,,,D*7A
$GPVTG,117.22,T,,M,2.39,N,4.4,K,D*07
$GPGGA,172638.000,3748.7707,N,12217.8182,W,2,07,1.3,24.4,M,-25.1,M,2.8,0000*77
$GPGSA,A,3,27,09,28,08,15,26,17,,,,,,3.1,1.3,2.9*31
$GPRMC,172638.000,A,3748.7707,N,12217.8182,W,2.59,113.93,260912,,,D*72
$GPVTG,113.93,T,,M,2.59,N,4.8,K,D*03
$GPGGA,172639.000,3748.7707,N,12217.8171,W,2,07,1.3,23.1,M,-25.1,M,3.8,0000*79
$GPGSA,A,3,27,09,28,08,15,26,17,,,,,,3.1,1.3,2.9*31
$GPRMC,172639.000,A,3748.7707,N,12217.8171,W,2.90,116.19,260912,,,D*7D
$GPVTG,116.19,T,,M,2.90,N,5.4,K,D*0C
$GPGGA,172640.000,3748.7706,N,12217.8160,W,2,07,1.3,21.3,M,-25.1,M,4.8,0000*71
$GPGSA,A,3,27,09,28,08,15,26,17,,,,,,3.1,1.3,2.9*31
$GPRMC,172640.000,A,3748.7706,N,12217.8160,W,2.65,112.25,260912,,,D*73
$GPVTG,112.25,T,,M,2.65,N,4.9,K,D*01
$GPGGA,172641.000,3748.7705,N,12217.8151,W,2,07,1.3,20.1,M,-25.1,M,5.8,0000*73
$GPGSA,A,3,27,09,28,08,15,26,17,,,,,,3.1,1.3,2.9*31
$GPRMC,172641.000,A,3748.7705,N,12217.8151,W,2.50,111.42,260912,,,D*77
$GPVTG,111.42,T,,M,2.50,N,4.6,K,D*0A
$GPGGA,172642.000,3748.7701,N,12217.8141,W,2,07,1.3,20.4,M,-25.1,M,6.8,0000*73
$GPGSA,A,3,27,09,28,08,15,26,17,,,,,,3.1,1.3,2.9*31
$GPGSV,3,1,12,17,72,044,26,27,47,312,20,28,42,066,26,09,35,315,21*78
$GPGSV,3,2,12,15,29,260,30,04,29,155,36,26,27,214,34,08,21,136,34*71
$GPGSV,3,3,12,01,11,039,18,02,04,185,,12,03,279,,48,44,197,35*7B
$GPRMC,172642.000,A,3748.7701,N,12217.8141,W,2.67,109.81,260912,,,D*73
$GPVTG,109.81,T,,M,2.67,N,4.9,K,D*07
$GPGGA,172643.000,3748.7703,N,12217.8129,W,2,07,1.3,20.3,M,-25.1,M,7.8,0000*78
$GPGSA,A,3,27,09,28,08,15,26,17,,,,,,3.1,1.3,2.9*31
$GPRMC,172643.000,A,3748.7703,N,12217.8129,W,2.64,101.95,260912,,,D*70
$GPVTG,101.95,T,,M,2.64,N,4.9,K,D*09
$GPGGA,172644.000,3748.7700,N,12217.8119,W,2,07,1.3,20.6,M,-25.1,M,,0000*5B
$GPGSA,A,3,27,09,28,08,15,26,17,,,,,,3.1,1.3,2.9*31
$GPRMC,172644.000,A,3748.7700,N,12217.8119,W,2.50,109.83,260912,,,D*7F
$GPVTG,109.83,T,,M,2.50,N,4.6,K,D*0E
$GPGGA,172645.000,3748.7701,N,12217.8110,W,2,07,1.3,17.8,M,-25.1,M,,0000*58
$GPGSA,A,3,27,09,28,08,15,26,17,,,,,,3.1,1.3,2.9*31
$GPRMC,172645.000,A,3748.7701,N,12217.8110,W,2.58,97.42,260912,,,D*45
$GPVTG,97.42,T,,M,2.58,N,4.8,K,D*33
$GPGGA,172646.000,3748.7701,N,12217.8102,W,2,07,1.3,16.0,M,-25.1,M,2.8,0000*75
$GPGSA,A,3,27,09,28,08,15,26,17,,,,,,3.1,1.3,2.9*31
$GPRMC,172646.000,A,3748.7701,N,12217.8102,W,2.36,99.94,260912,,,D*48
$GPVTG,99.94,T,,M,2.36,N,4.4,K,D*32
$GPGGA,172647.000,3748.7697,N,12217.8095,W,2,07,1.3,15.7,M,-25.1,M,3.8,0000*70
$GPGSA,A,3,27,09,28,08,15,26,17,,,,,,3.1,1.3,2.9*31
$GPGSV,3,1,12,17,72,043,26,27,47,312,20,28,42,066,25,09,35,315,21*7C
$GPGSV,3,2,12,15,29,260,30,04,29,155,36,26,27,214,34,08,21,136,33*76
$GPGSV,3,3,12,01,11,039,17,02,04,185,,12,03,279,,48,44,197,37*76
$GPVTG,109.75,T,,M,2.49,N,4.6,K,D*0F
$GPGGA,172648.000,3748.7693,N,12217.8085,W,2,07,1.3,15.7,M,-25.1,M,4.8,0000*7D
$GPGSA,A,3,27,09,28,08,15,26,17,,,,,,3.1,1.3,2.9*31
$GPRMC,172648.000,A,3748.7693,N,12217.8085,W,2.49,109.82,260912,,,D*75
$GPVTG,109.82,T,,M,2.49,N,4.6,K,D*07
$GPGGA,172649.000,3748.7694,N,12217.8073,W,2,07,1.3,14.6,M,-25.1,M,,0000*50
$GPGSA,A,3,27,09,28,08,15,26,17,,,,,,3.1,1.3,2.9*31
$GPRMC,172649.000,A,3748.7694,N,12217.8073,W,2.67,107.89,260912,,,D*73
$GPVTG,107.89,T,,M,2.67,N,5.0,K,D*09
$GPGGA,172650.000,3748.7697,N,12217.8061,W,2,07,1.3,12.8,M,-25.1,M,2.8,0000*74
$GPGSA,A,3,27,09,28,08,15,26,17,,,,,,3.1,1.3,2.9*31
$GPRMC,172650.000,A,3748.7697,N,12217.8061,W,2.44,97.54,260912,,,D*42
$GPVTG,97.54,T,,M,2.44,N,4.5,K,D*34
$GPGGA,172651.000,3748.7697,N,12217.8051,W,2,07,1.3,11.9,M,-25.1,M,,0000*50
$GPGSA,A,3,27,09,28,08,15,26,17,,,,,,3.1,1.3,2.9*31
$GPRMC,172651.000,A,3748.7697,N,12217.8051,W,2.33,106.37,260912,,,D*7C
$GPVTG,106.37,T,,M,2.33,N,4.3,K,D*0E
$GPGGA,172652.000,3748.7693,N,12217.8042,W,2,07,1.3,11.9,M,-25.1,M,,0000*55
$GPGSA,A,3,27,09,28,08,15,26,17,,,,,,3.1,1.3,2.9*31
$GPGSV,3,1,12,17,72,043,26,27,47,312,21,28,42,066,25,09,35,315,22*7E
$GPGSV,3,2,12,15,29,260,30,04,29,155,36,26,27,214,34,08,21,136,33*76
$GPGSV,3,3,12,01,11,039,21,02,04,185,,12,03,279,,48,44,197,37*73
$GPRMC,172652.000,A,3748.7693,N,12217.8042,W,2.81,119.74,260912,,,D*79
$GPVTG,119.74,T,,M,2.81,N,5.2,K,D*0E
$GPGGA,172653.000,3748.7690,N,12217.8031,W,2,07,1.3,11.0,M,-25.1,M,,0000*5A
$GPGSA,A,3,27,09,28,08,15,26,17,,,,,,3.1,1.3,2.9*31
$GPRMC,172653.000,A,3748.7690,N,12217.8031,W,2.83,117.26,260912,,,D*74
$GPVTG,117.26,T,,M,2.83,N,5.2,K,D*05
$GPGGA,172654.000,3748.7686,N,12217.8021,W,2,07,1.3,10.8,M,-25.1,M,,0000*52
$GPGSA,A,3,27,09,28,08,15,26,17,,,,,,3.1,1.3,2.9*31
$GPRMC,172654.000,A,3748.7686,N,12217.8021,W,2.80,120.07,260912,,,D*71
$GPVTG,120.07,T,,M,2.80,N,5.2,K,D*01
$GPGGA,172655.000,3748.7681,N,12217.8012,W,2,07,1.3,10.3,M,-25.1,M,2.8,0000*7B
$GPGSA,A,3,27,09,28,08,15,26,17,,,,,,3.1,1.3,2.9*31
$GPRMC,172655.000,A,3748.7681,N,12217.8012,W,2.58,107.20,260912,,,D*72
$GPVTG,107.20,T,,M,2.58,N,4.8,K,D*0F
$GPGGA,172656.000,3748.7678,N,12217.8003,W,2,07,1.3,9.0,M,-25.1,M,,0000*61
$GPGSA,A,3,27,09,28,08,15,26,17,,,,,,3.1,1.3,2.9*31
$GPRMC,172656.000,A,3748.7678,N,12217.8003,W,2.47,112.50,260912,,,D*7A
$GPVTG,112.50,T,,M,2.47,N,4.6,K,D*0C
$GPGGA,172657.000,3748.7675,N,12217.7993,W,2,07,1.3,8.6,M,-25.1,M,,0000*65
$GPGSA,A,3,27,09,28,08,15,26,17,,,,,,3.1,1.3,2.9*31
$GPGSV,3,1,12,17,72,043,26,27,47,312,20,28,42,066,26,09,35,315,22*7C
$GPGSV,3,2,12,15,29,260,31,04,29,155,35,26,27,214,34,08,21,136,34*73
$GPGSV,3,3,12,01,11,039,19,02,04,185,,12,03,279,,48,44,197,35*7A
$GPRMC,172657.000,A,3748.7675,N,12217.7993,W,2.41,103.66,260912,,,D*7A
$GPVTG,103.66,T,,M,2.41,N,4.5,K,D*0C
$GPGGA,172658.000,3748.7675,N,12217.7983,W,2,07,1.3,6.6,M,-25.1,M,2.8,0000*41
$GPGSA,A,3,27,09,28,08,15,26,17,,,,,,3.1,1.3,2.9*31
$GPRMC,172658.000,A,3748.7675,N,12217.7983,W,2.20,104.28,260912,,,D*7E
$GPVTG,104.28,T,,M,2.20,N,4.1,K,D*02
$GPGGA,172659.000,3748.7673,N,12217.7974,W,2,07,1.3,5.2,M,-25.1,M,3.8,0000*48
$GPGSA,A,3,27,09,28,08,15,26,17,,,,,,3.1,1.3,2.9*31
$GPRMC,172659.000,A,3748.7673,N,12217.7974,W,2.53,115.70,260912,,,D*78
$GPVTG,115.70,T,,M,2.53,N,4.7,K,D*0D
$GPGGA,172700.000,3748.7664,N,12217.7964,W,2,07,1.3,6.7,M,-25.1,M,4.8,0000*43
$GPGSA,A,3,27,09,28,08,15,26,17,,,,,,3.1,1.3,2.9*31
$GPRMC,172700.000,A,3748.7664,N,12217.7964,W,2.69,117.11,260912,,,D*7E
$GPVTG,117.11,T,,M,2.69,N,5.0,K,D*07
$GPGGA,172701.000,3748.7658,N,12217.7956,W,2,07,1.3,7.4,M,-25.1,M,,0000*6C
$GPGSA,A,3,27,09,28,08,15,26,17,,,,,,3.1,1.3,2.9*31
$GPRMC,172701.000,A,3748.7658,N,12217.7956,W,2.54,111.50,260912,,,D*7C
$GPVTG,111.50,T,,M,2.54,N,4.7,K,D*0C
$GPGGA,172702.000,3748.7655,N,12217.7946,W,2,07,1.3,6.8,M,-25.1,M,,0000*6E
$GPGSA,A,3,27,09,28,08,15,26,17,,,,,,3.1,1.3,2.9*31
$GPGSV,3,1,12,17,72,043,26,27,47,312,20,28,42,066,23,09,35,315,21*7A
$GPGSV,3,2,12,15,29,260,31,04,29,155,36,26,27,214,34,08,21,136,34*70
$GPGSV,3,3,12,01,11,039,18,02,04,185,22,12,03,279,,48,44,197,35*7B
$GPRMC,172702.000,A,3748.7655,N,12217.7946,W,2.72,102.99,260912,,,D*70
$GPVTG,102.99,T,,M,2.72,N,5.0,K,D*09
$GPGGA,172703.000,3748.7652,N,12217.7936,W,2,07,1.3,7.0,M,-25.1,M,,0000*66
$GPGSA,A,3,27,09,28,08,15,26,17,,,,,,3.1,1.3,2.9*31
$GPRMC,172703.000,A,3748.7652,N,12217.7936,W,2.67,102.69,260912,,,D*7A
$GPVTG,102.69,T,,M,2.67,N,5.0,K,D*02
$GPGGA,172704.000,3748.7649,N,12217.7926,W,2,07,1.3,6.5,M,-25.1,M,2.8,0000*4A
$GPGSA,A,3,27,09,28,08,15,26,17,,,,,,3.1,1.3,2.9*31
$GPRMC,172704.000,A,3748.7649,N,12217.7926,W,2.00,118.38,260912,,,D*78
$GPVTG,118.38,T,,M,2.00,N,3.7,K,D*0D
$GPGGA,172705.000,3748.7643,N,12217.7918,W,2,07,1.3,7.7,M,-25.1,M,3.8,0000*4E
$GPGSA,A,3,27,09,28,08,15,26,17,,,,,,3.1,1.3,2.9*31
$GPRMC,172705.000,A,3748.7643,N,12217.7918,W,2.47,106.03,260912,,,D*7A
$GPVTG,106.03,T,,M,2.47,N,4.6,K,D*0F
$GPGGA,172706.000,3748.7641,N,12217.7908,W,2,07,1.3,7.8,M,-25.1,M,,0000*64
$GPGSA,A,3,27,09,28,08,15,26,17,,,,,,3.1,1.3,2.9*31
$GPRMC,172706.000,A,3748.7641,N,12217.7908,W,2.76,104.33,260912,,,D*79
$GPVTG,104.33,T,,M,2.76,N,5.1,K,D*0A
$GPGGA,172707.000,3748.7641,N,12217.7898,W,2,07,1.3,5.7,M,-25.1,M,,0000*60
$GPGSA,A,3,27,09,28,08,15,26,17,,,,,,3.1,1.3,2.9*31
$GPGSV,3,1,12,17,72,043,26,27,47,312,19,28,42,066,25,09,35,315,21*76
$GPGSV,3,2,12,15,29,260,30,04,29,155,35,26,27,214,33,08,21,136,33*72
$GPGSV,3,3,12,01,11,039,18,02,04,185,31,12,03,279,,48,44,197,34*78
$GPRMC,172707.000,A,3748.7641,N,12217.7898,W,2.19,107.01,260912,,,D*7B
$GPGGA,172708.000,3748.7639,N,12217.7893,W,2,07,1.3,4.9,M,-25.1,M,2.8,0000*40
$GPGSA,A,3,27,09,28,08,15,26,17,,,,,,3.1,1.3,2.9*31
$GPRMC,172708.000,A,3748.7639,N,12217.7893,W,2.20,111.20,260912,,,D*7E
$GPVTG,111.20,T,,M,2.20,N,4.1,K,D*0E
$GPGGA,172709.000,3748.7634,N,12217.7889,W,2,07,1.3,4.8,M,-25.1,M,,0000*62
$GPGSA,A,3,27,09,28,08,15,26,17,,,,,,3.1,1.3,2.9*31
$GPRMC,172709.000,A,3748.7634,N,12217.7889,W,2.42,114.66,260912,,,D*7A
$GPVTG,114.66,T,,M,2.42,N,4.5,K,D*09
$GPGGA,172710.000,3748.7630,N,12217.7882,W,2,07,1.3,3.4,M,-25.1,M,,0000*6E
$GPGSA,A,3,27,09,28,08,15,26,17,,,,,,3.1,1.3,2.9*31
$GPRMC,172710.000,A,3748.7630,N,12217.7882,W,2.81,124.01,260912,,,D*70
$GPVTG,124.01,T,,M,2.81,N,5.2,K,D*02
$GPGGA,172711.000,3748.7622,N,12217.7877,W,2,07,1.3,3.1,M,-25.1,M,,0000*63
$GPGSA,A,3,27,09,28,08,15,26,17,,,,,,3.1,1.3,2.9*31
$GPRMC,172711.000,A,3748.7622,N,12217.7877,W,3.02,125.03,260912,,,D*71
$GPVTG,125.03,T,,M,3.02,N,5.6,K,D*0F
$GPGGA,172712.000,3748.7616,N,12217.7868,W,2,07,1.3,2.6,M,-25.1,M,2.8,0000*4B
$GPGSA,A,3,27,09,28,08,15,26,17,,,,,,3.1,1.3,2.9*31
$GPGSV,3,1,12,17,72,043,26,27,47,312,19,28,42,066,20,09,35,315,21*73
$GPGSV,3,2,12,15,29,260,30,04,29,155,34,26,27,214,33,08,21,136,35*75
$GPGSV,3,3,12,01,11,039,18,02,04,185,30,12,03,279,,48,44,197,35*78
$GPRMC,172712.000,A,3748.7616,N,12217.7868,W,2.74,118.50,260912,,,D*73
$GPVTG,118.50,T,,M,2.74,N,5.1,K,D*00
$GPGGA,172713.000,3748.7611,N,12217.7859,W,2,07,1.3,4.3,M,-25.1,M,3.8,0000*4D
$GPGSA,A,3,27,09,28,08,15,26,17,,,,,,3.1,1.3,2.9*31
$GPRMC,172713.000,A,3748.7611,N,12217.7859,W,2.76,93.60,260912,,,D*44
$GPVTG,93.60,T,,M,2.76,N,5.1,K,D*33
$GPGGA,172714.000,3748.7608,N,12217.7849,W,2,07,1.3,5.1,M,-25.1,M,4.8,0000*47
$GPGSA,A,3,27,09,28,08,15,26,17,,,,,,3.1,1.3,2.9*31
$GPRMC,172714.000,A,3748.7608,N,12217.7849,W,2.67,102.69,260912,,,D*7A
$GPVTG,102.69,T,,M,2.67,N,4.9,K,D*0A
$GPGGA,172715.000,3748.7605,N,12217.7840,W,2,07,1.3,4.4,M,-25.1,M,,0000*64
$GPGSA,A,3,27,09,28,08,15,26,17,,,,,,3.1,1.3,2.9*31
$GPRMC,172715.000,A,3748.7605,N,12217.7840,W,2.44,106.28,260912,,,D*7F
$GPVTG,106.28,T,,M,2.44,N,4.5,K,D*06
$GPGGA,172716.000,3748.7602,N,12217.7830,W,2,07,1.3,4.8,M,-25.1,M,,0000*6B
$GPGSA,A,3,27,09,28,08,15,26,17,,,,,,3.1,1.3,2.9*31
$GPRMC,172716.000,A,3748.7602,N,12217.7830,W,2.76,97.48,260912,,,D*42
$GPVTG,97.48,T,,M,2.76,N,5.1,K,D*3D
$GPGGA,172717.000,3748.7595,N,12217.7820,W,2,07,1.3,5.9,M,-25.1,M,2.8,0000*42
$GPGSA,A,3,27,09,28,08,15,26,17,,,,,,3.1,1.3,2.9*31
$GPGSV,3,1,12,17,72,043,25,27,47,312,19,28,42,066,20,09,35,315,20*71
$GPGSV,3,2,12,15,29,260,30,04,29,155,35,26,26,214,25,08,21,136,35*72
$GPGSV,3,3,12,01,11,039,16,02,04,185,24,12,03,280,,48,44,197,34*74
$GPRMC,172717.000,A,3748.7595,N,12217.7820,W,2.72,111.93,260912,,,D*72
$GPVTG,111.93,T,,M,2.72,N,5.0,K,D*01
$GPGGA,172718.000,3748.7585,N,12217.7811,W,2,07,1.3,7.2,M,-25.1,M,3.8,0000*46
$GPGSA,A,3,27,09,28,08,15,26,17,,,,,,3.1,1.3,2.9*31
$GPRMC,172718.000,A,3748.7585,N,12217.7811,W,2.75,122.87,260912,,,D*7C
$GPVTG,122.87,T,,M,2.75,N,5.1,K,D*02
$GPGGA,172719.000,3748.7577,N,12217.7803,W,2,07,1.3,7.7,M,-25.1,M,,0000*69
$GPGSA,A,3,27,09,28,08,15,26,17,,,,,,3.1,1.3,2.9*31
$GPRMC,172719.000,A,3748.7577,N,12217.7803,W,2.80,126.92,260912,,,D*79
$GPVTG,126.92,T,,M,2.80,N,5.2,K,D*0B
$GPGGA,172720.000,3748.7569,N,12217.7793,W,2,07,1.3,9.5,M,-25.1,M,,0000*66
$GPGSA,A,3,27,09,28,08,15,26,17,,,,,,3.1,1.3,2.9*31
$GPRMC,172720.000,A,3748.7569,N,12217.7793,W,2.91,116.67,260912,,,D*73
$GPVTG,116.67,T,,M,2.91,N,5.4,K,D*04
$GPGGA,172721.000,3748.7559,N,12217.7786,W,2,07,1.3,10.2,M,-25.1,M,,0000*5F
$GPGSA,A,3,27,09,28,08,15,26,17,,,,,,3.1,1.3,2.9*31
$GPRMC,172721.000,A,3748.7559,N,12217.7786,W,2.73,121.38,260912,,,D*77
$GPVTG,121.38,T,,M,2.73,N,5.1,K,D*03
$GPGGA,172722.000,3748.7549,N,12217.7779,W,2,06,1.3,11.8,M,-25.1,M,2.8,0000*73
$GPGSA,A,3,09,28,08,15,26,17,,,,,,,3.2,1.3,2.9*37
$GPGSV,3,1,12,17,72,043,25,27,47,312,19,28,42,066,19,09,35,315,20*7B
$GPGSV,3,2,12,15,29,260,30,04,29,155,35,26,26,214,25,08,21,136,30*77
$GPGSV,3,3,12,01,11,039,16,02,04,185,32,12,03,280,,48,44,197,37*70
$GPVTG,124.72,T,,M,2.65,N,4.9,K,D*06
$GPGGA,172723.000,3748.7546,N,12217.7770,W,2,06,1.3,12.3,M,-25.1,M,3.8,0000*7D
$GPGSA,A,3,09,28,08,15,26,17,,,,,,,3.2,1.3,2.9*37
$GPRMC,172723.000,A,3748.7546,N,12217.7770,W,2.46,125.54,260912,,,D*7A
$GPVTG,125.54,T,,M,2.46,N,4.6,K,D*0D
$GPGGA,172724.000,3748.7545,N,12217.7761,W,2,07,1.3,11.8,M,-25.1,M,4.8,0000*77
$GPGSA,A,3,27,09,28,08,15,26,17,,,,,,3.2,1.3,2.9*32
$GPRMC,172724.000,A,3748.7545,N,12217.7761,W,2.25,121.47,260912,,,D*7D
$GPVTG,121.47,T,,M,2.25,N,4.2,K,D*0A
$GPGGA,172725.000,3748.7540,N,12217.7751,W,2,07,1.3,13.8,M,-25.1,M,,0000*50
$GPGSA,A,3,27,09,28,08,15,26,17,,,,,,3.2,1.3,2.9*32
$GPRMC,172725.000,A,3748.7540,N,12217.7751,W,2.50,116.26,260912,,,D*7B
$GPVTG,116.26,T,,M,2.50,N,4.6,K,D*0F
$GPGGA,172726.000,3748.7531,N,12217.7740,W,2,06,1.3,16.0,M,-25.1,M,,0000*59
$GPGSA,A,3,09,28,08,15,26,17,,,,,,,3.2,1.3,2.9*37
$GPRMC,172726.000,A,3748.7531,N,12217.7740,W,2.65,117.46,260912,,,D*7F
$GPVTG,117.46,T,,M,2.65,N,4.9,K,D*01
$GPGGA,172727.000,3748.7522,N,12217.7728,W,2,07,1.3,18.4,M,-25.1,M,,0000*5F
$GPGSA,A,3,27,09,28,08,15,26,17,,,,,,3.2,1.3,2.9*32
$GPGSV,3,1,12,17,72,043,25,27,47,312,18,28,42,066,19,09,35,315,20*7A
$GPGSV,3,2,12,15,29,260,24,04,29,155,35,26,26,214,33,08,21,136,31*74
$GPGSV,3,3,12,01,11,039,17,02,04,185,23,12,03,280,,48,44,197,36*70
$GPRMC,172727.000,A,3748.7522,N,12217.7728,W,2.76,118.19,260912,,,D*75
$GPVTG,118.19,T,,M,2.76,N,5.1,K,D*0F
$GPGGA,172728.000,3748.7517,N,12217.7718,W,2,07,1.3,20.2,M,-25.1,M,2.8,0000*7C
$GPGSA,A,3,27,09,28,08,15,26,17,,,,,,3.2,1.3,2.9*32
$GPRMC,172728.000,A,3748.7517,N,12217.7718,W,2.64,121.82,260912,,,D*74
$GPVTG,121.82,T,,M,2.64,N,4.9,K,D*0D
$GPGGA,172729.000,3748.7516,N,12217.7713,W,2,07,1.3,17.2,M,-25.1,M,1.8,0000*70
$GPGSA,A,3,27,09,28,08,15,26,17,,,,,,3.2,1.3,2.9*32
$GPRMC,172729.000,A,3748.7516,N,12217.7713,W,2.34,124.58,260912,,,D*78
$GPVTG,124.58,T,,M,2.34,N,4.3,K,D*00
$GPGGA,172730.000,3748.7509,N,12217.7706,W,2,07,1.3,17.4,M,-25.1,M,2.8,0000*77
$GPGSA,A,3,27,09,28,08,15,26,17,,,,,,3.2,1.3,2.9*32
$GPRMC,172730.000,A,3748.7509,N,12217.7706,W,2.25,119.40,260912,,,D*7D
$GPVTG,119.40,T,,M,2.25,N,4.2,K,D*06
$GPGGA,172731.000,3748.7503,N,12217.7699,W,2,07,1.3,17.6,M,-25.1,M,1.8,0000*7A
$GPGSA,A,3,27,09,28,08,15,26,17,,,,,,3.2,1.3,2.9*32
$GPRMC,172731.000,A,3748.7503,N,12217.7699,W,2.76,124.20,260912,,,D*7F
$GPVTG,124.20,T,,M,2.76,N,5.1,K,D*0A
$GPGGA,172732.000,3748.7496,N,12217.7692,W,2,07,1.3,17.3,M,-25.1,M,1.8,0000*7A
$GPGSA,A,3,27,09,28,08,15,26,17,,,,,,3.2,1.3,2.9*32
$GPGSV,3,1,12,17,72,043,25,27,47,312,18,28,42,066,18,09,35,315,20*7B
$GPGSV,3,2,12,15,29,260,26,04,29,155,35,26,26,214,33,08,21,136,32*75
$GPGSV,3,3,12,01,11,039,21,02,04,185,23,12,03,280,,48,44,197,37*74
$GPRMC,172732.000,A,3748.7496,N,12217.7692,W,2.54,121.18,260912,,,D*74
$GPVTG,121.18,T,,M,2.54,N,4.7,K,D*03
$GPGGA,172733.000,3748.7489,N,12217.7685,W,2,07,1.3,17.8,M,-25.1,M,1.8,0000*78
$GPGSA,A,3,27,09,28,08,15,26,17,,,,,,3.2,1.3,2.9*32
$GPRMC,172733.000,A,3748.7489,N,12217.7685,W,2.45,109.91,260912,,,D*76
$GPVTG,109.91,T,,M,2.45,N,4.5,K,D*0A
$GPGGA,172734.000,3748.7482,N,12217.7676,W,2,06,1.5,19.2,M,-25.1,M,2.8,0000*78
$GPGSA,A,3,27,09,08,15,26,17,,,,,,,3.3,1.5,3.0*37
$GPRMC,172734.000,A,3748.7482,N,12217.7676,W,2.07,118.03,260912,,,D*7B
$GPVTG,118.03,T,,M,2.07,N,3.8,K,D*0D
$GPGGA,172735.000,3748.7475,N,12217.7667,W,2,07,1.3,20.9,M,-25.1,M,3.8,0000*76
$GPGSA,A,3,27,09,28,08,15,26,17,,,,,,3.2,1.3,2.9*32
$GPRMC,172735.000,A,3748.7475,N,12217.7667,W,2.23,114.03,260912,,,D*78
$GPVTG,114.03,T,,M,2.23,N,4.1,K,D*09
$GPGGA,172736.000,3748.7469,N,12217.7658,W,2,07,1.3,22.8,M,-25.1,M,4.8,0000*70
$GPGSA,A,3,27,09,28,08,15,26,17,,,,,,3.2,1.3,2.9*32
$GPRMC,172736.000,A,3748.7469,N,12217.7658,W,2.28,111.76,260912,,,D*76
$GPVTG,111.76,T,,M,2.28,N,4.2,K,D*06
$GPGGA,172737.000,3748.7460,N,12217.7648,W,2,06,1.5,25.7,M,-25.1,M,1.8,0000*73
$GPGSA,A,3,27,09,08,15,26,17,,,,,,,3.4,1.5,3.0*30
$GPGSV,3,1,12,17,72,043,26,27,47,312,19,28,42,066,18,09,35,315,21*78
$GPGSV,3,2,12,15,29,260,28,04,29,155,35,26,26,214,33,08,21,136,33*7A
$GPGSV,3,3,12,01,11,039,21,02,04,185,22,12,03,280,,48,44,197,37*75
$GPRMC,172737.000,A,3748.7460,N,12217.7648,W,2.60,104.84,260912,,,D*7A
$GPVTG,104.84,T,,M,2.60,N,4.8,K,D*09
$GPGGA,172738.000,3748.7454,N,12217.7641,W,2,07,1.3,27.5,M,-25.1,M,1.8,0000*75
$GPGSA,A,3,27,09,28,08,15,26,17,,,,,,3.2,1.3,2.9*32
$GPRMC,172738.000,A,3748.7454,N,12217.7641,W,2.61,120.15,260912,,,D*74
$GPVTG,120.15,T,,M,2.61,N,4.8,K,D*06
$GPGGA,172739.000,3748.7449,N,12217.7633,W,2,07,1.3,27.6,M,-25.1,M,1.8,0000*7E
$GPGSA,A,3,27,09,28,08,15,26,17,,,,,,3.2,1.3,2.9*32
$GPRMC,172739.000,A,3748.7449,N,12217.7633,W,2.59,121.62,260912,,,D*76
$GPVTG,121.62,T,,M,2.59,N,4.8,K,D*0C
$GPGGA,172740.000,3748.7447,N,12217.7624,W,2,07,1.3,27.1,M,-25.1,M,2.8,0000*7C
$GPGSA,A,3,27,09,28,08,15,26,17,,,,,,3.2,1.3,2.9*32
$GPRMC,172740.000,A,3748.7447,N,12217.7624,W,2.72,125.24,260912,,,D*7F
$GPVTG,125.24,T,,M,2.72,N,5.0,K,D*0A
$GPGGA,172741.000,3748.7443,N,12217.7614,W,2,07,1.3,28.7,M,-25.1,M,1.8,0000*70
$GPGSA,A,3,27,09,28,08,15,26,17,,,,,,3.2,1.3,2.9*32
$GPRMC,172741.000,A,3748.7443,N,12217.7614,W,2.78,110.44,260912,,,D*73
$GPVTG,110.44,T,,M,2.78,N,5.1,K,D*01
$GPGGA,172742.000,3748.7441,N,12217.7604,W,2,07,1.3,27.7,M,-25.1,M,2.8,0000*7C
$GPGSA,A,3,27,09,28,08,15,26,17,,,,,,3.2,1.3,2.9*32
$GPGSV,3,1,12,17,72,043,25,27,47,312,20,28,42,066,18,09,35,315,21*71
$GPGSV,3,2,12,15,29,260,29,04,29,155,35,26,26,214,29,08,21,136,33*70
$GPGSV,3,3,12,01,11,039,17,02,04,185,23,12,03,280,,48,44,197,36*70
$GPVTG,109.01,T,,M,2.75,N,5.1,K,D*05
$GPGGA,172743.000,3748.7436,N,12217.7596,W,2,07,1.3,27.3,M,-25.1,M,1.8,0000*72
$GPGSA,A,3,27,09,28,08,15,26,17,,,,,,3.2,1.3,2.9*32
$GPRMC,172743.000,A,3748.7436,N,12217.7596,W,2.58,108.28,260912,,,D*7B
$GPVTG,108.28,T,,M,2.58,N,4.8,K,D*08
$GPGGA,172744.000,3748.7428,N,12217.7592,W,2,07,1.3,28.1,M,-25.1,M,0.8,0000*72
$GPGSA,A,3,27,09,28,08,15,26,17,,,,,,3.2,1.3,2.9*32
$GPRMC,172744.000,A,3748.7428,N,12217.7592,W,2.61,121.01,260912,,,D*7D
$GPVTG,121.01,T,,M,2.61,N,4.8,K,D*02
$GPGGA,172745.000,3748.7423,N,12217.7588,W,2,07,1.3,28.0,M,-25.1,M,1.8,0000*73
$GPGSA,A,3,27,09,28,08,15,26,17,,,,,,3.2,1.3,2.9*32
$GPRMC,172745.000,A,3748.7423,N,12217.7588,W,1.74,128.99,260912,,,D*73
$GPVTG,128.99,T,,M,1.74,N,3.2,K,D*00
$GPGGA,172746.000,3748.7423,N,12217.7580,W,2,07,1.3,25.1,M,-25.1,M,2.8,0000*77
$GPGSA,A,3,27,09,28,08,15,26,17,,,,,,3.2,1.3,2.9*32
$GPRMC,172746.000,A,3748.7423,N,12217.7580,W,2.09,116.23,260912,,,D*7D
$GPVTG,116.23,T,,M,2.09,N,3.9,K,D*0E
$GPGGA,172747.000,3748.7418,N,12217.7574,W,2,07,1.3,25.0,M,-25.1,M,3.8,0000*75
$GPGSA,A,3,27,09,28,08,15,26,17,,,,,,3.2,1.3,2.9*32
$GPGSV,3,1,12,17,72,043,25,27,48,312,20,28,42,067,24,09,35,315,21*70
$GPGSV,3,2,12,04,29,155,35,15,29,260,30,26,26,214,32,08,21,137,23*72
$GPGSV,3,3,12,01,11,039,17,02,04,185,26,12,03,280,,48,44,197,36*75
$GPRMC,172747.000,A,3748.7418,N,12217.7574,W,2.55,117.52,260912,,,D*71
$GPVTG,117.52,T,,M,2.55,N,4.7,K,D*09
$GPGGA,172748.000,3748.7415,N,12217.7568,W,2,07,1.3,25.5,M,-25.1,M,1.8,0000*7D
$GPGSA,A,3,27,09,28,08,15,26,17,,,,,,3.2,1.3,2.9*32
$GPRMC,172748.000,A,3748.7415,N,12217.7568,W,2.10,101.72,260912,,,D*7A
$GPVTG,101.72,T,,M,2.10,N,3.9,K,D*04
$GPGGA,172749.000,3748.7414,N,12217.7559,W,2,07,1.3,23.1,M,-25.1,M,1.8,0000*7D
$GPGSA,A,3,27,09,28,08,15,26,17,,,,,,3.2,1.3,2.9*32
$GPRMC,172749.000,A,3748.7414,N,12217.7559,W,2.14,113.48,260912,,,D*76
$GPVTG,113.48,T,,M,2.14,N,4.0,K,D*04
$GPGGA,172750.000,3748.7414,N,12217.7549,W,2,07,1.3,20.5,M,-25.1,M,1.8,0000*73
$GPGSA,A,3,27,09,28,08,15,26,17,,,,,,3.2,1.3,2.9*32
$GPRMC,172750.000,A,3748.7414,N,12217.7549,W,2.92,104.46,260912,,,D*79
$GPVTG,104.46,T,,M,2.92,N,5.4,K,D*07
$GPGGA,172751.000,3748.7411,N,12217.7540,W,2,07,1.3,21.0,M,-25.1,M,1.8,0000*7A
$GPGSA,A,3,27,09,28,08,15,26,17,,,,,,3.2,1.3,2.9*32
$GPRMC,172751.000,A,3748.7411,N,12217.7540,W,3.12,108.04,260912,,,D*77
$GPVTG,108.04,T,,M,3.12,N,5.8,K,D*08
$GPGGA,172752.000,3748.7411,N,12217.7529,W,2,07,1.3,20.6,M,-25.1,M,2.8,0000*72
$GPGSA,A,3,27,09,28,08,15,26,17,,,,,,3.2,1.3,2.9*32
$GPGSV,3,1,12,17,72,043,25,27,48,312,20,28,42,067,24,09,35,315,21*70
$GPGSV,3,2,12,04,29,155,22,15,29,260,30,26,26,214,27,08,21,137,24*77
$GPGSV,3,3,12,01,11,039,17,02,04,185,20,12,03,280,,48,44,197,34*71
$GPRMC,172752.000,A,3748.7411,N,12217.7529,W,2.73,108.40,260912,,,D*7D
$GPVTG,108.40,T,,M,2.73,N,5.1,K,D*07
$GPGGA,172753.000,3748.7409,N,12217.7521,W,2,07,1.3,19.1,M,-25.1,M,3.8,0000*7E
$GPGSA,A,3,27,09,28,08,15,26,17,,,,,,3.2,1.3,2.9*32
$GPRMC,172753.000,A,3748.7409,N,12217.7521,W,2.11,118.83,260912,,,D*77
$GPVTG,118.83,T,,M,2.11,N,3.9,K,D*03
$GPGGA,172754.000,3748.7407,N,12217.7512,W,2,07,1.3,18.8,M,-25.1,M,4.8,0000*78
$GPGSA,A,3,27,09,28,08,15,26,17,,,,,,3.2,1.3,2.9*32
$GPRMC,172754.000,A,3748.7407,N,12217.7512,W,2.15,113.87,260912,,,D*75
$GPVTG,113.87,T,,M,2.15,N,4.0,K,D*06
$GPGGA,172755.000,3748.7408,N,12217.7507,W,2,07,1.3,17.4,M,-25.1,M,5.8,0000*70
$GPGSA,A,3,27,09,28,08,15,26,17,,,,,,3.2,1.3,2.9*32
$GPRMC,172755.000,A,3748.7408,N,12217.7507,W,1.54,77.40,260912,,,D*41
$GPVTG,77.40,T,,M,1.54,N,2.9,K,D*37
$GPGGA,172756.000,3748.7404,N,12217.7504,W,2,07,1.3,17.4,M,-25.1,M,6.8,0000*7F
$GPGSA,A,3,27,09,28,08,15,26,17,,,,,,3.2,1.3,2.9*32
$GPRMC,172756.000,A,3748.7404,N,12217.7504,W,1.61,108.90,260912,,,D*7F
$GPVTG,108.90,T,,M,1.61,N,3.0,K,D*0D
$GPGGA,172757.000,3748.7391,N,12217.7497,W,2,07,1.3,20.0,M,-25.1,M,7.8,0000*7F
$GPGSA,A,3,27,09,28,08,15,26,17,,,,,,3.2,1.3,2.9*32
$GPGSV,3,1,12,17,72,043,25,27,48,312,20,28,42,067,19,09,35,315,22*7D
$GPGSV,3,2,12,04,29,155,30,15,29,260,30,26,26,214,23,08,21,137,23*77
$GPGSV,3,3,12,01,11,039,17,02,04,185,19,12,03,280,,48,44,197,30*7F
$GPRMC,172757.000,A,3748.7391,N,12217.7497,W,2.88,126.34,260912,,,D*78
$GPVTG,126.34,T,,M,2.88,N,5.3,K,D*0E
$GPGGA,172758.000,3748.7384,N,12217.7486,W,2,08,1.2,18.4,M,-25.1,M,8.8,0000*7A
$GPGSA,A,3,27,09,28,08,15,26,04,17,,,,,3.1,1.2,2.9*34
$GPRMC,172758.000,A,3748.7384,N,12217.7486,W,2.53,113.41,260912,,,D*71
$GPVTG,113.41,T,,M,2.53,N,4.7,K,D*09
$GPGGA,172759.000,3748.7378,N,12217.7477,W,2,08,1.2,16.8,M,-25.1,M,9.8,0000*75
$GPGSA,A,3,27,09,28,08,15,26,04,17,,,,,3.1,1.2,2.9*34
$GPRMC,172759.000,A,3748.7378,N,12217.7477,W,1.86,132.72,260912,,,D*75
$GPVTG,132.72,T,,M,1.86,N,3.4,K,D*05
$GPGGA,172800.000,3748.7378,N,12217.7467,W,2,08,1.2,15.7,M,-25.1,M,10.8,0000*43
$GPGSA,A,3,27,09,28,08,15,26,04,17,,,,,3.1,1.2,2.9*34
$GPRMC,172800.000,A,3748.7378,N,12217.7467,W,2.30,109.71,260912,,,D*72
$GPVTG,109.71,T,,M,2.30,N,4.3,K,D*00
$GPGGA,172801.000,3748.7370,N,12217.7458,W,2,08,1.2,16.8,M,-25.1,M,11.8,0000*4B
$GPGSA,A,3,27,09,28,08,15,26,04,17,,,,,3.1,1.2,2.9*34
$GPRMC,172801.000,A,3748.7370,N,12217.7458,W,1.61,100.29,260912,,,D*74
$GPVTG,100.29,T,,M,1.61,N,3.0,K,D*07
$GPGGA,172802.000,3748.7358,N,12217.7457,W,2,08,1.2,18.8,M,-25.1,M,1.8,0000*72
$GPGSA,A,3,27,09,28,08,15,26,04,17,,,,,3.1,1.2,2.9*34
$GPGSV,3,1,12,17,72,043,21,27,48,312,20,28,42,067,23,09,35,315,22*70
$GPGSV,3,2,12,04,29,155,24,15,29,259,23,26,26,214,32,08,20,137,21*79
$GPGSV,3,3,12,01,11,039,17,02,04,185,18,12,03,280,,48,44,197,34*7A
$GPVTG,117.40,T,,M,1.61,N,3.0,K,D*0E
$GPGGA,172803.000,3748.7355,N,12217.7449,W,2,08,1.2,18.7,M,-25.1,M,1.8,0000*7E
$GPGSA,A,3,27,09,28,08,15,26,04,17,,,,,3.1,1.2,2.9*34
$GPRMC,172803.000,A,3748.7355,N,12217.7449,W,1.52,110.34,260912,,,D*7C
$GPVTG,110.34,T,,M,1.52,N,2.8,K,D*03
$GPGGA,172804.000,3748.7353,N,12217.7446,W,2,08,1.2,18.9,M,-25.1,M,2.8,0000*7D
$GPGSA,A,3,27,09,28,08,15,26,04,17,,,,,3.1,1.2,2.9*34
$GPRMC,172804.000,A,3748.7353,N,12217.7446,W,1.55,96.26,260912,,,D*49
$GPVTG,96.26,T,,M,1.55,N,2.9,K,D*39
$GPGGA,172805.000,3748.7346,N,12217.7440,W,2,08,1.2,21.4,M,-25.1,M,3.8,0000*78
$GPGSA,A,3,27,09,28,08,15,26,04,17,,,,,3.1,1.2,2.9*34
$GPRMC,172805.000,A,3748.7346,N,12217.7440,W,2.14,112.07,260912,,,D*72
$GPVTG,112.07,T,,M,2.14,N,4.0,K,D*0E
$GPGGA,172806.000,3748.7343,N,12217.7427,W,2,08,1.2,20.1,M,-25.1,M,4.8,0000*7C
$GPGSA,A,3,27,09,28,08,15,26,04,17,,,,,3.1,1.2,2.9*34
$GPRMC,172806.000,A,3748.7343,N,12217.7427,W,2.25,109.69,260912,,,D*75
$GPVTG,109.69,T,,M,2.25,N,4.2,K,D*0C
$GPGGA,172807.000,3748.7349,N,12217.7416,W,2,08,1.2,15.8,M,-25.1,M,5.8,0000*7B
$GPGSA,A,3,27,09,28,08,15,26,04,17,,,,,3.1,1.2,2.9*34
$GPGSV,3,1,12,17,72,043,26,27,48,312,19,28,42,067,24,09,35,315,21*79
$GPGSV,3,2,12,04,29,155,32,15,29,259,27,26,26,214,29,08,20,137,24*75
$GPGSV,3,3,12,01,11,039,17,02,04,185,17,12,03,280,,48,44,197,24*74
$GPRMC,172807.000,A,3748.7349,N,12217.7416,W,2.38,82.66,260912,,,D*4D
$GPVTG,82.66,T,,M,2.38,N,4.4,K,D*3B
$GPGGA,172808.000,3748.7355,N,12217.7406,W,2,08,1.2,12.5,M,-25.1,M,6.8,0000*71
$GPGSA,A,3,27,09,28,08,15,26,04,17,,,,,3.1,1.2,2.9*34
$GPRMC,172808.000,A,3748.7355,N,12217.7406,W,2.14,74.08,260912,,,D*41
$GPVTG,74.08,T,,M,2.14,N,4.0,K,D*30
$GPGGA,172809.000,3748.7354,N,12217.7399,W,2,08,1.2,11.6,M,-25.1,M,7.8,0000*71
$GPGSA,A,3,27,09,28,08,15,26,04,17,,,,,3.1,1.2,2.9*34
$GPRMC,172809.000,A,3748.7354,N,12217.7399,W,1.84,83.85,260912,,,D*47
$GPVTG,83.85,T,,M,1.84,N,3.4,K,D*34
$GPGGA,172810.000,3748.7351,N,12217.7390,W,2,08,1.2,11.6,M,-25.1,M,8.8,0000*7A
$GPGSA,A,3,27,09,28,08,15,26,04,17,,,,,3.1,1.2,2.9*34
$GPRMC,172810.000,A,3748.7351,N,12217.7390,W,1.51,94.16,260912,,,D*47
$GPVTG,94.16,T,,M,1.51,N,2.8,K,D*3D
$GPGGA,172811.000,3748.7347,N,12217.7383,W,2,08,1.2,11.1,M,-25.1,M,9.8,0000*78
$GPGSA,A,3,27,09,28,08,15,26,04,17,,,,,3.1,1.2,2.9*34
$GPRMC,172811.000,A,3748.7347,N,12217.7383,W,1.44,103.58,260912,,,D*72
$GPVTG,103.58,T,,M,1.44,N,2.7,K,D*03
$GPGGA,172812.000,3748.7342,N,12217.7378,W,2,08,1.2,10.5,M,-25.1,M,10.8,0000*47
$GPGSA,A,3,27,09,28,08,15,26,04,17,,,,,3.1,1.2,2.9*34
$GPGSV,3,1,11,17,72,043,22,27,48,312,19,28,42,067,24,09,35,315,20*7F
$GPGSV,3,2,11,04,29,155,27,15,29,259,19,26,26,214,28,08,20,137,25*7F
$GPGSV,3,3,11,01,11,039,17,02,04,185,17,12,03,280,*42
$GPRMC,172812.000,A,3748.7342,N,12217.7378,W,1.35,114.90,260912,,,D*74
$GPVTG,114.90,T,,M,1.35,N,2.5,K,D*05
$GPGGA,172813.000,3748.7339,N,12217.7369,W,2,08,1.2,9.3,M,-25.1,M,11.8,0000*75
$GPGSA,A,3,27,09,28,08,15,26,04,17,,,,,3.1,1.2,2.9*34
$GPRMC,172813.000,A,3748.7339,N,12217.7369,W,1.87,118.50,260912,,,D*70
$GPVTG,118.50,T,,M,1.87,N,3.5,K,D*0D
$GPGGA,172814.000,3748.7335,N,12217.7360,W,2,08,1.2,7.7,M,-25.1,M,12.8,0000*7E
$GPGSA,A,3,27,09,28,08,15,26,04,17,,,,,3.1,1.2,2.9*34
$GPRMC,172814.000,A,3748.7335,N,12217.7360,W,2.02,113.94,260912,,,D*7F
