$ADVER,3080,2.3
$GPRMC,210834.327,A,3748.8031,N,12217.8649,W,0.00,,071211,,,A*6A
$GPGGA,210835.327,3748.8037,N,12217.8640,W,1,03,15.2,25.1,M,-25.1,M,,0000*64
$GPGSA,A,2,29,16,06,,,,,,,,,,15.3,15.2,1.0*39
$GPGSV,3,1,11,29,58,134,32,16,22,307,39,06,16,313,35,21,64,321,37*70
$GPGSV,3,2,11,18,61,217,31,30,28,277,37,26,24,062,,22,18,223,*73
$GPGSV,3,3,11,05,10,045,,03,03,315,,25,03,181,*47
$GPRMC,210835.327,A,3748.8037,N,12217.8640,W,0.00,,071211,,,A*64
$GPVTG,,T,,M,0.00,N,0.0,K,N*1C
$GPGGA,210836.327,3748.8037,N,12217.8640,W,1,03,15.2,25.1,M,-25.1,M,,0000*67
$GPGSA,A,2,29,16,06,,,,,,,,,,15.2,15.2,1.0*38
$GPRMC,210836.327,A,3748.8037,N,12217.8640,W,0.00,,071211,,,A*67
$GPVTG,,T,,M,0.00,N,0.0,K,N*1C
$GPGGA,210837.327,3748.7787,N,12217.8904,W,1,03,15.2,25.1,M,-25.1,M,,0000*6A
$GPGSA,A,2,29,16,06,,,,,,,,,,15.2,15.2,1.0*38
$GPRMC,210837.327,A,3748.7787,N,12217.8904,W,0.00,,071211,,,A*6A
$GPVTG,,T,,M,0.00,N,0.0,K,N*1C
$GPGGA,210840.327,3748.7848,N,12217.8839,W,1,03,15.1,25.1,M,-25.1,M,,0000*6A
$GPGSA,A,2,29,16,06,,,,,,,,,,15.2,15.1,1.0*3B
$GPGSV,3,1,11,29,58,134,32,16,22,307,37,06,16,313,31,21,64,321,37*7A
$GPGSV,3,2,11,18,61,217,31,30,28,277,37,26,24,062,,22,18,223,*73
$GPGSV,3,3,11,05,10,045,29,03,03,315,,25,03,181,*4C
$GPRMC,210840.327,A,3748.7848,N,12217.8839,W,0.00,,071211,,,A*69
$GPGGA,210841.327,3748.7897,N,12217.8787,W,1,03,15.1,25.1,M,-25.1,M,,0000*63
$GPGSA,A,2,29,16,06,,,,,,,,,,15.2,15.1,1.0*3B
$GPRMC,210841.327,A,3748.7897,N,12217.8787,W,0.00,,071211,,,A*60
$GPVTG,,T,,M,0.00,N,0.0,K,N*1C
$GPGGA,210842.327,3748.7919,N,12217.8762,W,1,03,15.1,25.1,M,-25.1,M,,0000*6C
$GPGSA,A,2,29,16,06,,,,,,,,,,15.1,15.1,1.0*38
$GPRMC,210842.327,A,3748.7919,N,12217.8762,W,0.00,,071211,,,A*6F
$GPVTG,,T,,M,0.00,N,0.0,K,N*1C
$GPGGA,210843.327,3748.7957,N,12217.8723,W,1,03,15.1,25.1,M,-25.1,M,,0000*62
$GPGSA,A,2,29,16,06,,,,,,,,,,15.1,15.1,1.0*38
$GPRMC,210843.327,A,3748.7957,N,12217.8723,W,0.00,,071211,,,A*61
$GPVTG,,T,,M,0.00,N,0.0,K,N*1C
$GPGGA,210844.327,3748.7960,N,12217.8720,W,1,03,15.1,25.1,M,-25.1,M,,0000*62
$GPGSA,A,2,29,16,06,,,,,,,,,,15.1,15.1,1.0*38
$GPRMC,210844.327,A,3748.7960,N,12217.8720,W,0.00,,071211,,,A*61
$GPVTG,,T,,M,0.00,N,0.0,K,N*1C
$GPGGA,210845.327,3748.7973,N,12217.8707,W,1,03,15.0,25.1,M,-25.1,M,,0000*65
$GPGSA,A,2,29,16,06,,,,,,,,,,15.1,15.0,1.0*39
$GPGSV,3,1,11,29,57,134,32,16,22,307,38,06,16,313,36,21,64,321,37*7D
$GPGSV,3,2,11,18,61,217,31,30,28,277,37,26,24,062,,22,18,223,*73
$GPGSV,3,3,11,05,10,045,28,03,03,315,,25,03,181,*4D
$GPRMC,210845.327,A,3748.7973,N,12217.8707,W,0.00,,071211,,,A*67
$GPVTG,,T,,M,0.00,N,0.0,K,N*1C
$GPGGA,210846.327,3748.7973,N,12217.8706,W,1,03,15.0,25.1,M,-25.1,M,,0000*67
$GPGSA,A,2,29,16,06,,,,,,,,,,15.1,15.0,1.0*39
$GPRMC,210846.327,A,3748.7973,N,12217.8706,W,0.00,,071211,,,A*65
$GPVTG,,T,,M,0.00,N,0.0,K,N*1C
$GPGGA,210847.327,3748.7970,N,12217.8709,W,1,03,15.0,25.1,M,-25.1,M,,0000*6A
$GPGSA,A,2,29,16,06,,,,,,,,,,15.0,15.0,1.0*38
$GPRMC,210847.327,A,3748.7970,N,12217.8709,W,0.00,,071211,,,A*68
$GPVTG,,T,,M,0.00,N,0.0,K,N*1C
$GPGGA,210848.327,3748.7976,N,12217.8703,W,1,03,15.0,25.1,M,-25.1,M,,0000*69
$GPGSA,A,2,29,16,06,,,,,,,,,,15.0,15.0,1.0*38
$GPRMC,210848.327,A,3748.7976,N,12217.8703,W,0.00,,071211,,,A*6B
$GPVTG,,T,,M,0.00,N,0.0,K,N*1C
$GPGGA,210849.327,3748.7973,N,12217.8706,W,1,03,15.0,25.1,M,-25.1,M,,0000*68
$GPGSA,A,2,29,16,06,,,,,,,,,,15.0,15.0,1.0*38
$GPRMC,210849.327,A,3748.7973,N,12217.8706,W,0.00,,071211,,,A*6A
$GPVTG,,T,,M,0.00,N,0.0,K,N*1C
$GPGGA,210850.327,3748.7973,N,12217.8707,W,1,03,15.0,25.1,M,-25.1,M,,0000*61
$GPGSA,A,2,29,16,06,,,,,,,,,,15.0,15.0,1.0*38
$GPGSV,3,1,11,29,57,134,31,16,22,307,38,06,16,313,36,21,64,321,37*7E
$GPGSV,3,2,11,18,61,217,31,30,28,277,37,26,24,062,,22,18,223,*73
$GPGSV,3,3,11,05,10,045,27,03,03,316,,25,03,181,*41
$GPRMC,210850.327,A,3748.7973,N,12217.8707,W,0.00,,071211,,,A*63
$GPGGA,210851.327,3748.7972,N,12217.8708,W,1,03,14.9,25.1,M,-25.1,M,,0000*66
$GPGSA,A,2,29,16,06,,,,,,,,,,15.0,14.9,1.0*30
$GPRMC,210851.327,A,3748.7972,N,12217.8708,W,0.00,,071211,,,A*6C
$GPVTG,,T,,M,0.00,N,0.0,K,N*1C
$GPGGA,210852.327,3748.7881,N,12217.8754,W,1,04,10.2,7.9,M,-25.1,M,,0000*51
$GPGSA,A,3,29,16,06,21,,,,,,,,,10.3,10.2,1.0*3B
$GPRMC,210852.327,A,3748.7881,N,12217.8754,W,0.00,,071211,,,A*6B
$GPVTG,,T,,M,0.00,N,0.0,K,N*1C
$GPGGA,210853.327,3748.7882,N,12217.8754,W,1,04,10.2,7.9,M,-25.1,M,,0000*53
$GPGSA,A,3,29,16,06,21,,,,,,,,,10.2,10.2,1.0*3A
$GPRMC,210853.327,A,3748.7882,N,12217.8754,W,0.00,,071211,,,A*69
$GPVTG,,T,,M,0.00,N,0.0,K,N*1C
$GPGGA,210854.327,3748.7880,N,12217.8755,W,1,04,10.2,7.9,M,-25.1,M,,0000*57
$GPGSA,A,3,29,16,06,21,,,,,,,,,10.2,10.2,1.0*3A
$GPRMC,210854.327,A,3748.7880,N,12217.8755,W,0.00,,071211,,,A*6D
$GPVTG,,T,,M,0.00,N,0.0,K,N*1C
$GPGGA,210855.327,3748.7878,N,12217.8757,W,1,04,10.2,7.8,M,-25.1,M,,0000*52
$GPGSA,A,3,29,16,06,21,,,,,,,,,10.2,10.2,1.0*3A
$GPGSV,3,1,12,21,64,321,37,29,57,134,32,30,28,277,37,16,22,307,38*74
$GPGSV,3,2,12,06,16,313,36,18,61,217,31,26,24,062,,22,18,223,*7A
$GPGSV,3,3,12,05,10,045,27,03,03,316,,25,03,181,,48,44,197,27*74
$GPRMC,210855.327,A,3748.7878,N,12217.8757,W,0.00,,071211,,,A*69
$GPVTG,,T,,M,0.00,N,0.0,K,N*1C
$GPGGA,210856.327,3748.7880,N,12217.8754,W,1,04,10.2,7.6,M,-25.1,M,,0000*5B
$GPGSA,A,3,29,16,06,21,,,,,,,,,10.2,10.2,1.0*3A
$GPRMC,210856.327,A,3748.7880,N,12217.8754,W,0.00,,071211,,,A*6E
$GPVTG,,T,,M,0.00,N,0.0,K,N*1C
$GPGGA,210857.327,3748.7878,N,12217.8755,W,1,04,10.1,7.5,M,-25.1,M,,0000*5C
$GPGSA,A,3,29,16,06,21,,,,,,,,,10.2,10.1,1.0*39
$GPRMC,210857.327,A,3748.7878,N,12217.8755,W,0.00,,071211,,,A*69
$GPVTG,,T,,M,0.00,N,0.0,K,N*1C
$GPGGA,210858.327,3748.7878,N,12217.8756,W,1,04,10.1,7.5,M,-25.1,M,,0000*50
$GPGSA,A,3,29,16,06,21,,,,,,,,,10.2,10.1,1.0*39
$GPRMC,210858.327,A,3748.7878,N,12217.8756,W,0.00,,071211,,,A*65
$GPVTG,,T,,M,0.00,N,0.0,K,N*1C
$GPGGA,210859.327,3748.7879,N,12217.8754,W,1,04,10.1,7.3,M,-25.1,M,,0000*54
$GPGSA,A,3,29,16,06,21,,,,,,,,,10.2,10.1,1.0*39
$GPRMC,210859.327,A,3748.7879,N,12217.8754,W,0.00,,071211,,,A*67
$GPVTG,,T,,M,0.00,N,0.0,K,N*1C
$GPGGA,210900.327,3748.7877,N,12217.8756,W,1,04,10.1,7.3,M,-25.1,M,,0000*55
$GPGSA,A,3,29,16,06,21,,,,,,,,,10.1,10.1,1.0*3A
$GPGSV,3,1,12,21,64,321,37,29,57,134,32,30,28,277,37,16,22,307,38*74
$GPGSV,3,2,12,06,16,313,36,18,61,217,31,26,24,062,24,22,18,223,*7C
$GPGSV,3,3,12,05,10,045,27,03,03,316,,25,03,181,,48,44,197,24*77
$GPVTG,,T,,M,0.00,N,0.0,K,N*1C
$GPGGA,210901.327,3748.7878,N,12217.8755,W,1,04,10.1,7.3,M,-25.1,M,,0000*58
$GPGSA,A,3,29,16,06,21,,,,,,,,,10.1,10.1,1.0*3A
$GPRMC,210901.327,A,3748.7878,N,12217.8755,W,0.00,,071211,,,A*6B
$GPVTG,,T,,M,0.00,N,0.0,K,N*1C
$GPGGA,210902.327,3748.7878,N,12217.8755,W,1,04,10.1,7.4,M,-25.1,M,,0000*5C
$GPGSA,A,3,29,16,06,21,,,,,,,,,10.1,10.1,1.0*3A
$GPRMC,210902.327,A,3748.7878,N,12217.8755,W,0.00,,071211,,,A*68
$GPVTG,,T,,M,0.00,N,0.0,K,N*1C
$GPGGA,210903.327,3748.7877,N,12217.8756,W,1,04,10.0,7.3,M,-25.1,M,,0000*57
$GPGSA,A,3,29,16,06,21,,,,,,,,,10.1,10.0,1.0*3B
$GPRMC,210903.327,A,3748.7877,N,12217.8756,W,0.00,,071211,,,A*65
$GPVTG,,T,,M,0.00,N,0.0,K,N*1C
$GPGGA,210904.327,3748.7818,N,12217.8771,W,1,04,10.0,-3.4,M,-25.1,M,,0000*72
$GPGSA,A,3,29,16,06,21,,,,,,,,,10.1,10.0,1.0*3B
$GPRMC,210904.327,A,3748.7818,N,12217.8771,W,0.00,,071211,,,A*6E
$GPVTG,,T,,M,0.00,N,0.0,K,N*1C
$GPGGA,210905.327,3748.7939,N,12217.8730,W,1,04,10.0,18.6,M,-25.1,M,,0000*61
$GPGSA,A,3,29,16,06,21,,,,,,,,,10.1,10.0,1.0*3B
$GPGSV,3,1,12,21,64,321,28,29,57,134,27,30,28,277,37,16,22,307,38*7E
$GPGSV,3,2,12,06,16,313,36,18,61,217,20,26,24,062,32,22,18,223,33*7B
$GPGSV,3,3,12,05,10,045,36,03,03,316,33,25,03,181,,48,44,197,22*71
$GPRMC,210905.327,A,3748.7939,N,12217.8730,W,0.00,,071211,,,A*68
$GPVTG,,T,,M,0.00,N,0.0,K,N*1C
$GPGGA,210906.327,3748.7909,N,12217.8744,W,1,04,10.0,12.7,M,-25.1,M,,0000*69
$GPGSA,A,3,29,16,06,21,,,,,,,,,10.0,10.0,1.0*3A
$GPRMC,210906.327,A,3748.7909,N,12217.8744,W,0.00,,071211,,,A*6B
$GPVTG,,T,,M,0.00,N,0.0,K,N*1C
$GPGGA,210907.327,3748.7926,N,12217.8770,W,1,04,10.0,13.7,M,-25.1,M,,0000*63
$GPGSA,A,3,29,16,06,21,,,,,,,,,10.0,10.0,1.0*3A
$GPRMC,210907.327,A,3748.7926,N,12217.8770,W,0.00,,071211,,,A*60
$GPVTG,,T,,M,0.00,N,0.0,K,N*1C
$GPGGA,210908.327,3748.8123,N,12217.8553,W,1,04,10.0,19.6,M,-25.1,M,,0000*66
$GPGSA,A,3,29,16,06,21,,,,,,,,,10.0,10.0,1.0*3A
$GPRMC,210908.327,A,3748.8123,N,12217.8553,W,1.02,236.39,071211,,,A*7E
$GPVTG,236.39,T,,M,1.02,N,1.9,K,N*04
$GPGGA,210909.327,3748.8081,N,12217.8541,W,1,04,10.0,6.8,M,-25.1,M,,0000*5D
$GPGSA,A,3,29,16,06,21,,,,,,,,,10.0,10.0,1.0*3A
$GPRMC,210909.327,A,3748.8081,N,12217.8541,W,2.59,234.86,071211,,,A*7E
$GPVTG,234.86,T,,M,2.59,N,4.8,K,A*04
$GPGGA,210910.000,3748.8076,N,12217.8539,W,1,04,9.9,5.5,M,-25.1,M,,0000*6B
$GPGSA,A,3,29,16,06,21,,,,,,,,,10.0,9.9,1.0*0B
$GPGSV,3,1,11,21,64,321,22,29,57,134,25,30,28,277,25,16,22,307,38*76
$GPGSV,3,2,11,06,16,313,36,18,61,217,21,26,24,062,30,22,18,223,30*78
$GPGSV,3,3,11,05,10,045,31,03,03,316,33,25,03,181,*46
$GPRMC,210910.000,A,3748.8076,N,12217.8539,W,2.96,203.07,071211,,,A*79
$GPVTG,203.07,T,,M,2.96,N,5.5,K,A*06
$GPGGA,210911.000,3748.8080,N,12217.8532,W,1,04,9.9,5.8,M,-25.1,M,,0000*65
$GPGSA,A,3,29,16,06,21,,,,,,,,,10.0,9.9,1.0*0B
$GPRMC,210911.000,A,3748.8080,N,12217.8532,W,1.68,232.17,071211,,,A*7B
$GPVTG,232.17,T,,M,1.68,N,3.1,K,A*05
$GPGGA,210912.000,3748.8048,N,12217.8577,W,1,04,9.9,8.2,M,-25.1,M,,0000*64
$GPGSA,A,3,29,16,06,21,,,,,,,,,10.0,9.9,1.0*0B
$GPRMC,210912.000,A,3748.8048,N,12217.8577,W,0.95,176.91,071211,,,A*73
$GPVTG,176.91,T,,M,0.95,N,1.8,K,A*00
$GPGGA,210913.000,3748.8040,N,12217.8591,W,1,04,9.9,10.1,M,-25.1,M,,0000*5F
$GPGSA,A,3,29,16,06,21,,,,,,,,,9.9,9.9,1.0*3A
$GPRMC,210913.000,A,3748.8040,N,12217.8591,W,1.23,228.52,071211,,,A*79
$GPVTG,228.52,T,,M,1.23,N,2.3,K,A*03
$GPGGA,210914.000,3748.8024,N,12217.8612,W,1,04,9.9,11.3,M,-25.1,M,,0000*51
$GPGSA,A,3,29,16,06,21,,,,,,,,,9.9,9.9,1.0*3A
$GPRMC,210914.000,A,3748.8024,N,12217.8612,W,1.45,183.37,071211,,,A*75
$GPVTG,183.37,T,,M,1.45,N,2.7,K,A*06
$GPGGA,210915.000,3748.8005,N,12217.8637,W,1,04,9.9,12.1,M,-25.1,M,,0000*55
$GPGSA,A,3,29,16,06,21,,,,,,,,,9.9,9.9,1.0*3A
$GPGSV,3,1,12,21,64,321,34,29,57,134,29,30,28,277,25,16,22,307,34*72
$GPGSV,3,2,12,06,16,313,35,18,61,217,22,26,24,062,41,22,18,223,27*7B
$GPGSV,3,3,12,05,10,045,42,03,03,316,30,25,03,181,,48,44,197,33*71
$GPRMC,210915.000,A,3748.8005,N,12217.8637,W,1.14,217.20,071211,,,A*7C
$GPGGA,210916.000,3748.8015,N,12217.8632,W,1,04,9.9,14.2,M,-25.1,M,,0000*57
$GPGSA,A,3,29,16,06,21,,,,,,,,,9.9,9.9,1.0*3A
$GPRMC,210916.000,A,3748.8015,N,12217.8632,W,0.63,220.26,071211,,,A*78
$GPVTG,220.26,T,,M,0.63,N,1.2,K,A*0F
$GPGGA,210917.000,3748.8028,N,12217.8622,W,1,04,9.8,16.1,M,-25.1,M,,0000*59
$GPGSA,A,3,29,16,06,21,,,,,,,,,9.9,9.8,1.0*3B
$GPRMC,210917.000,A,3748.8028,N,12217.8622,W,0.10,227.84,071211,,,A*7D
$GPVTG,227.84,T,,M,0.10,N,0.2,K,A*05
$GPGGA,210918.000,3748.8042,N,12217.8609,W,1,04,9.8,17.6,M,-25.1,M,,0000*55
$GPGSA,A,3,29,16,06,21,,,,,,,,,9.9,9.8,1.0*3B
$GPRMC,210918.000,A,3748.8042,N,12217.8609,W,0.31,39.05,071211,,,A*40
$GPVTG,39.05,T,,M,0.31,N,0.6,K,A*36
$GPGGA,210919.000,3748.8053,N,12217.8598,W,1,04,9.8,18.9,M,-25.1,M,,0000*5F
$GPGSA,A,3,29,16,06,21,,,,,,,,,9.9,9.8,1.0*3B
$GPRMC,210919.000,A,3748.8053,N,12217.8598,W,0.48,35.22,071211,,,A*4D
$GPVTG,35.22,T,,M,0.48,N,0.9,K,A*3E
$GPGGA,210920.000,3748.8046,N,12217.8603,W,1,03,10.6,18.1,M,-25.1,M,,0000*69
$GPGSA,A,2,29,16,21,,,,,,,,,,10.7,10.6,1.0*3C
$GPGSV,3,1,12,21,64,321,25,29,57,134,33,30,28,277,21,16,22,307,29*71
$GPGSV,3,2,12,06,16,313,,18,61,217,22,26,24,062,40,22,18,223,31*7B
$GPGSV,3,3,12,05,10,045,39,03,03,316,25,25,03,181,23,48,44,197,30*7B
$GPRMC,210920.000,A,3748.8046,N,12217.8603,W,0.69,246.59,071211,,,A*7B
$GPVTG,246.59,T,,M,0.69,N,1.3,K,N*03
$GPGGA,210921.000,3748.7993,N,12217.8657,W,1,03,10.6,16.8,M,-25.1,M,,0000*60
$GPGSA,A,2,29,16,21,,,,,,,,,,10.7,10.6,1.0*3C
$GPRMC,210921.000,A,3748.7993,N,12217.8657,W,2.53,225.03,071211,,,A*74
$GPVTG,225.03,T,,M,2.53,N,4.7,K,N*03
$GPGGA,210922.000,3748.7919,N,12217.8737,W,1,04,9.8,17.4,M,-25.1,M,,0000*5A
$GPGSA,A,3,29,16,06,21,,,,,,,,,9.8,9.8,1.0*3A
$GPRMC,210922.000,A,3748.7919,N,12217.8737,W,5.12,215.74,071211,,,A*73
$GPVTG,215.74,T,,M,5.12,N,9.5,K,A*02
$GPGGA,210923.000,3748.7863,N,12217.8797,W,1,04,9.8,17.2,M,-25.1,M,,0000*5B
$GPGSA,A,3,29,16,06,21,,,,,,,,,9.8,9.8,1.0*3A
$GPRMC,210923.000,A,3748.7863,N,12217.8797,W,6.03,221.16,071211,,,A*74
$GPVTG,221.16,T,,M,6.03,N,11.2,K,A*3C
$GPGGA,210924.000,3748.7862,N,12217.8798,W,1,04,9.7,16.9,M,-25.1,M,,0000*57
$GPGSA,A,3,29,16,06,21,,,,,,,,,9.8,9.7,1.0*35
$GPRMC,210924.000,A,3748.7862,N,12217.8798,W,5.49,220.98,071211,,,A*77
$GPVTG,220.98,T,,M,5.49,N,10.2,K,A*37
$GPGGA,210925.000,3748.7855,N,12217.8802,W,1,04,9.7,14.8,M,-25.1,M,,0000*5D
$GPGSA,A,3,29,16,06,21,,,,,,,,,9.8,9.7,1.0*35
$GPGSV,3,1,12,21,64,321,25,29,57,134,22,30,28,277,32,16,22,307,30*7B
$GPGSV,3,2,12,06,16,313,28,18,61,217,23,26,24,062,23,22,18,223,33*77
$GPGSV,3,3,12,05,10,045,32,03,03,316,28,25,03,181,21,48,44,197,28*76
$GPRMC,210925.000,A,3748.7855,N,12217.8802,W,5.27,225.30,071211,,,A*71
$GPVTG,225.30,T,,M,5.27,N,9.8,K,A*0A
$GPGGA,210926.000,3748.7824,N,12217.8832,W,1,03,13.8,14.3,M,-25.1,M,,0000*63
$GPGSA,A,2,16,06,21,,,,,,,,,,13.9,13.8,1.0*31
$GPRMC,210926.000,A,3748.7824,N,12217.8832,W,8.84,214.92,071211,,,A*79
$GPVTG,214.92,T,,M,8.84,N,16.4,K,N*39
$GPGGA,210927.000,3748.7820,N,12217.8828,W,1,03,13.8,13.9,M,-25.1,M,,0000*60
$GPGSA,A,2,16,06,21,,,,,,,,,,13.9,13.8,1.0*31
$GPRMC,210927.000,A,3748.7820,N,12217.8828,W,7.38,210.25,071211,,,A*77
$GPVTG,210.25,T,,M,7.38,N,13.7,K,N*3F
$GPGGA,210928.000,3748.7820,N,12217.8818,W,1,03,13.8,12.6,M,-25.1,M,,0000*62
$GPGSA,A,2,16,06,21,,,,,,,,,,13.8,13.8,1.0*30
$GPRMC,210928.000,A,3748.7820,N,12217.8818,W,6.46,205.21,071211,,,A*73
$GPVTG,205.21,T,,M,6.46,N,12.0,K,N*31
$GPGGA,210929.000,3748.7821,N,12217.8817,W,1,04,9.7,13.9,M,-25.1,M,,0000*50
$GPGSA,A,3,29,16,06,21,,,,,,,,,9.7,9.7,1.0*3A
$GPRMC,210929.000,A,3748.7821,N,12217.8817,W,5.30,212.46,071211,,,A*79
$GPVTG,212.46,T,,M,5.30,N,9.8,K,A*09
$GPGGA,210930.000,3748.7819,N,12217.8817,W,1,04,9.7,14.3,M,-25.1,M,,0000*5E
$GPGSA,A,3,29,16,06,21,,,,,,,,,9.7,9.7,1.0*3A
$GPGSV,3,1,12,21,64,321,22,29,57,134,29,30,28,277,29,16,22,307,27*7B
$GPGSV,3,2,12,06,16,313,25,18,61,217,31,26,24,062,35,22,18,223,31*7C
$GPGSV,3,3,12,05,10,045,29,03,03,316,26,25,03,181,22,48,44,197,31*79
$GPRMC,210930.000,A,3748.7819,N,12217.8817,W,3.91,217.31,071211,,,A*72
$GPGGA,210931.000,3748.7828,N,12217.8809,W,1,04,9.6,13.9,M,-25.1,M,,0000*5E
$GPGSA,A,3,29,16,06,21,,,,,,,,,9.7,9.6,1.0*3B
$GPRMC,210931.000,A,3748.7828,N,12217.8809,W,2.14,207.70,071211,,,A*76
$GPVTG,207.70,T,,M,2.14,N,4.0,K,A*0C
$GPGGA,210932.000,3748.7836,N,12217.8801,W,1,04,9.6,13.5,M,-25.1,M,,0000*56
$GPGSA,A,3,29,16,06,21,,,,,,,,,9.7,9.6,1.0*3B
$GPRMC,210932.000,A,3748.7836,N,12217.8801,W,1.99,205.21,071211,,,A*72
$GPVTG,205.21,T,,M,1.99,N,3.7,K,A*0C
$GPGGA,210933.000,3748.7852,N,12217.8777,W,1,04,9.6,12.8,M,-25.1,M,,0000*57
$GPGSA,A,3,29,16,06,21,,,,,,,,,9.7,9.6,1.0*3B
$GPRMC,210933.000,A,3748.7852,N,12217.8777,W,1.05,229.18,071211,,,A*7E
$GPVTG,229.18,T,,M,1.05,N,2.0,K,A*0B
$GPGGA,210934.000,3748.7841,N,12217.8793,W,1,04,9.6,13.4,M,-25.1,M,,0000*55
$GPGSA,A,3,29,16,06,21,,,,,,,,,9.7,9.6,1.0*3B
$GPRMC,210934.000,A,3748.7841,N,12217.8793,W,0.63,242.69,071211,,,A*7B
$GPVTG,242.69,T,,M,0.63,N,1.2,K,A*00
$GPGGA,210935.000,3748.7823,N,12217.8825,W,1,04,9.6,13.7,M,-25.1,M,,0000*51
$GPGSA,A,3,29,16,06,21,,,,,,,,,9.6,9.6,1.0*3A
$GPGSV,3,1,11,21,64,321,28,29,57,134,35,30,28,277,21,16,22,307,22*72
$GPGSV,3,2,11,06,16,313,27,18,61,217,23,26,24,062,37,22,18,223,28*74
$GPGSV,3,3,11,05,10,045,36,03,03,316,28,25,03,181,*4B
$GPRMC,210935.000,A,3748.7823,N,12217.8825,W,2.19,231.81,071211,,,A*71
$GPVTG,231.81,T,,M,2.19,N,4.1,K,A*0B
$GPGGA,210936.000,3748.7821,N,12217.8828,W,1,04,9.6,13.3,M,-25.1,M,,0000*59
$GPGSA,A,3,29,16,06,21,,,,,,,,,9.6,9.6,1.0*3A
$GPRMC,210936.000,A,3748.7821,N,12217.8828,W,2.22,225.87,071211,,,A*76
$GPVTG,225.87,T,,M,2.22,N,4.1,K,A*00
$GPGGA,210937.000,3748.7853,N,12217.8782,W,1,04,9.6,11.8,M,-25.1,M,,0000*5B
$GPGSA,A,3,29,16,06,21,,,,,,,,,9.6,9.6,1.0*3A
$GPRMC,210937.000,A,3748.7853,N,12217.8782,W,0.36,139.26,071211,,,A*7F
$GPVTG,139.26,T,,M,0.36,N,0.7,K,A*00
$GPGGA,210938.000,3748.7867,N,12217.8759,W,1,04,9.5,11.4,M,-25.1,M,,0000*5A
$GPGSA,A,3,29,16,06,21,,,,,,,,,9.6,9.5,1.0*39
$GPRMC,210938.000,A,3748.7867,N,12217.8759,W,0.94,63.84,071211,,,A*4F
$GPVTG,63.84,T,,M,0.94,N,1.7,K,A*3F
$GPGGA,210939.000,3748.7855,N,12217.8771,W,1,04,9.5,11.4,M,-25.1,M,,0000*50
$GPGSA,A,3,29,16,06,21,,,,,,,,,9.6,9.5,1.0*39
$GPRMC,210939.000,A,3748.7855,N,12217.8771,W,0.38,79.35,071211,,,A*42
$GPVTG,79.35,T,,M,0.38,N,0.7,K,A*39
$GPGGA,210940.000,3748.7837,N,12217.8793,W,1,04,9.5,11.7,M,-25.1,M,,0000*55
$GPGSA,A,3,29,16,06,21,,,,,,,,,9.6,9.5,1.0*39
$GPGSV,3,1,12,21,64,321,30,29,57,134,34,30,28,277,24,16,22,307,24*7A
$GPGSV,3,2,12,06,16,313,32,18,61,217,24,26,24,062,39,22,18,223,29*7B
$GPGSV,3,3,12,05,10,045,38,03,03,316,29,25,03,181,,51,43,156,29*7D
$GPRMC,210940.000,A,3748.7837,N,12217.8793,W,0.41,214.64,071211,,,A*77
$GPVTG,214.64,T,,M,0.41,N,0.8,K,A*05
$GPGGA,210941.000,3748.7827,N,12217.8805,W,1,04,9.5,12.0,M,-25.1,M,,0000*51
$GPGSA,A,3,29,16,06,21,,,,,,,,,9.6,9.5,1.0*39
$GPRMC,210941.000,A,3748.7827,N,12217.8805,W,1.20,221.56,071211,,,A*76
$GPVTG,221.56,T,,M,1.20,N,2.2,K,A*0C
$GPGGA,210942.000,3748.7811,N,12217.8825,W,1,04,9.5,12.4,M,-25.1,M,,0000*51
$GPGSA,A,3,29,16,06,21,,,,,,,,,9.5,9.5,1.0*3A
$GPRMC,210942.000,A,3748.7811,N,12217.8825,W,1.60,218.90,071211,,,A*76
$GPVTG,218.90,T,,M,1.60,N,3.0,K,A*0B
$GPGGA,210943.000,3748.7810,N,12217.8824,W,1,04,9.5,12.5,M,-25.1,M,,0000*51
$GPGSA,A,3,29,16,06,21,,,,,,,,,9.5,9.5,1.0*3A
$GPRMC,210943.000,A,3748.7810,N,12217.8824,W,1.54,220.65,071211,,,A*71
$GPVTG,220.65,T,,M,1.54,N,2.8,K,A*04
$GPGGA,210944.000,3748.7818,N,12217.8812,W,1,04,9.5,12.4,M,-25.1,M,,0000*5A
$GPGSA,A,3,29,16,06,21,,,,,,,,,9.5,9.5,1.0*3A
$GPRMC,210944.000,A,3748.7818,N,12217.8812,W,0.89,216.43,071211,,,A*7B
$GPVTG,216.43,T,,M,0.89,N,1.6,K,A*09
$GPGGA,210945.000,3748.7820,N,12217.8809,W,1,04,9.5,12.5,M,-25.1,M,,0000*5B
$GPGSA,A,3,29,16,06,21,,,,,,,,,9.5,9.5,1.0*3A
$GPGSV,3,1,12,21,64,322,30,18,61,217,24,29,57,134,34,30,28,277,*76
$GPGSV,3,2,12,26,24,061,39,16,22,307,26,22,18,223,29,06,16,313,31*70
$GPGSV,3,3,12,05,09,045,38,03,04,316,29,25,02,181,,51,43,156,25*7F
$GPRMC,210945.000,A,3748.7820,N,12217.8809,W,0.63,216.25,071211,,,A*7F
$GPVTG,216.25,T,,M,0.63,N,1.2,K,A*09
$GPGGA,210946.000,3748.7803,N,12217.8831,W,1,04,9.4,13.1,M,-25.1,M,,0000*56
$GPGSA,A,3,29,16,06,21,,,,,,,,,9.5,9.4,1.0*3B
$GPRMC,210946.000,A,3748.7803,N,12217.8831,W,1.56,217.17,071211,,,A*71
$GPVTG,217.17,T,,M,1.56,N,2.9,K,A*06
$GPGGA,210947.000,3748.7822,N,12217.8812,W,1,04,9.4,13.5,M,-25.1,M,,0000*51
$GPGSA,A,3,29,16,06,21,,,,,,,,,9.5,9.4,1.0*3B
$GPRMC,210947.000,A,3748.7822,N,12217.8812,W,1.31,222.55,071211,,,A*73
$GPVTG,222.55,T,,M,1.31,N,2.4,K,A*0A
$GPGGA,210948.000,3748.7825,N,12217.8810,W,1,04,9.4,14.5,M,-25.1,M,,0000*5C
$GPGSA,A,3,29,16,06,21,,,,,,,,,9.5,9.4,1.0*3B
$GPRMC,210948.000,A,3748.7825,N,12217.8810,W,1.04,209.36,071211,,,A*73
$GPVTG,209.36,T,,M,1.04,N,1.9,K,A*0E
$GPGGA,210949.000,3748.7812,N,12217.8828,W,1,04,9.4,15.5,M,-25.1,M,,0000*53
$GPGSA,A,3,29,16,06,21,,,,,,,,,9.4,9.4,1.0*3A
$GPRMC,210949.000,A,3748.7812,N,12217.8828,W,2.03,226.19,071211,,,A*79
$GPVTG,226.19,T,,M,2.03,N,3.8,K,A*09
$GPGGA,210950.000,3748.7794,N,12217.8843,W,1,04,9.4,17.0,M,-25.1,M,,0000*50
$GPGSA,A,3,29,16,06,21,,,,,,,,,9.4,9.4,1.0*3A
$GPGSV,3,1,12,21,65,322,22,18,61,217,34,29,57,134,35,30,28,277,*74
$GPGSV,3,2,12,26,24,061,28,16,22,307,23,22,18,223,40,06,16,313,21*7B
$GPGSV,3,3,12,05,09,045,29,03,04,316,24,25,02,181,,51,43,156,39*7F
$GPRMC,210950.000,A,3748.7794,N,12217.8843,W,2.67,185.97,071211,,,A*73
$GPVTG,185.97,T,,M,2.67,N,4.9,K,A*01
$GPGGA,210951.000,3748.7801,N,12217.8819,W,1,04,9.4,17.6,M,-25.1,M,,0000*5B
$GPGSA,A,3,29,16,06,21,,,,,,,,,9.4,9.4,1.0*3A
$GPRMC,210951.000,A,3748.7801,N,12217.8819,W,2.49,158.20,071211,,,A*7E
$GPVTG,158.20,T,,M,2.49,N,4.6,K,A*0E
$GPGGA,210952.000,3748.7828,N,12217.8778,W,1,04,9.4,18.7,M,-25.1,M,,0000*55
$GPGSA,A,3,29,16,06,21,,,,,,,,,9.4,9.4,1.0*3A
$GPRMC,210952.000,A,3748.7828,N,12217.8778,W,2.89,101.44,071211,,,A*7C
$GPVTG,101.44,T,,M,2.89,N,5.3,K,A*08
$GPGGA,210953.000,3748.7828,N,12217.8761,W,1,04,9.3,18.0,M,-25.1,M,,0000*5C
$GPGSA,A,3,29,16,06,21,,,,,,,,,9.4,9.3,1.0*3D
$GPRMC,210953.000,A,3748.7828,N,12217.8761,W,3.02,93.40,071211,,,A*49
$GPVTG,93.40,T,,M,3.02,N,5.6,K,A*31
$GPGGA,210954.000,3748.7822,N,12217.8749,W,1,04,9.3,17.3,M,-25.1,M,,0000*57
$GPGSA,A,3,29,16,06,21,,,,,,,,,9.4,9.3,1.0*3D
$GPRMC,210954.000,A,3748.7822,N,12217.8749,W,2.40,114.64,071211,,,A*71
$GPVTG,114.64,T,,M,2.40,N,4.4,K,A*0D
$GPGGA,210955.000,3748.7823,N,12217.8731,W,1,04,9.3,16.9,M,-25.1,M,,0000*53
$GPGSA,A,3,29,16,06,21,,,,,,,,,9.4,9.3,1.0*3D
$GPGSV,3,1,12,21,65,322,23,18,61,217,35,29,57,134,35,30,28,277,33*74
$GPGSV,3,2,12,26,24,061,27,16,22,307,21,22,18,223,40,06,16,313,23*74
$GPGSV,3,3,12,05,09,045,23,03,04,316,29,25,02,181,,51,43,156,40*76
$GPRMC,210955.000,A,3748.7823,N,12217.8731,W,2.06,124.32,071211,,,A*7C
$GPVTG,124.32,T,,M,2.06,N,3.8,K,A*04
$GPGGA,210956.000,3748.7828,N,12217.8712,W,1,04,9.3,18.2,M,-25.1,M,,0000*5F
$GPGSA,A,3,29,16,06,21,,,,,,,,,9.4,9.3,1.0*3D
$GPRMC,210956.000,A,3748.7828,N,12217.8712,W,2.79,89.11,071211,,,A*4A
$GPVTG,89.11,T,,M,2.79,N,5.2,K,A*37
$GPGGA,210957.000,3748.7812,N,12217.8719,W,1,04,9.3,19.5,M,-25.1,M,,0000*5A
$GPGSA,A,3,29,16,06,21,,,,,,,,,9.3,9.3,1.0*3A
$GPRMC,210957.000,A,3748.7812,N,12217.8719,W,2.45,108.62,071211,,,A*7A
$GPVTG,108.62,T,,M,2.45,N,4.5,K,A*02
$GPGGA,210958.000,3748.7799,N,12217.8725,W,1,04,9.3,20.0,M,-25.1,M,,0000*59
$GPGSA,A,3,29,16,06,21,,,,,,,,,9.3,9.3,1.0*3A
$GPRMC,210958.000,A,3748.7799,N,12217.8725,W,2.52,121.13,071211,,,A*7D
$GPVTG,121.13,T,,M,2.52,N,4.7,K,A*0B
$GPGGA,210959.000,3748.7804,N,12217.8709,W,1,04,9.3,19.4,M,-25.1,M,,0000*53
$GPGSA,A,3,29,16,06,21,,,,,,,,,9.3,9.3,1.0*3A
$GPRMC,210959.000,A,3748.7804,N,12217.8709,W,1.98,119.05,071211,,,A*70
$GPVTG,119.05,T,,M,1.98,N,3.7,K,A*05
$GPGGA,211000.000,3748.7796,N,12217.8705,W,1,04,9.3,18.3,M,-25.1,M,,0000*59
$GPGSA,A,3,29,16,06,21,,,,,,,,,9.3,9.3,1.0*3A
$GPGSV,3,1,12,21,65,322,22,18,61,217,35,29,57,134,28,30,28,277,33*79
$GPGSV,3,2,12,26,24,061,22,16,22,307,25,22,18,223,39,06,16,313,23*7B
$GPGSV,3,3,12,05,09,045,23,03,04,316,24,25,02,181,,51,43,156,36*7A
$GPRMC,211000.000,A,3748.7796,N,12217.8705,W,2.12,122.65,071211,,,A*73
$GPGGA,211001.000,3748.7794,N,12217.8691,W,1,04,9.2,16.8,M,-25.1,M,,0000*52
$GPGSA,A,3,29,16,06,21,,,,,,,,,9.3,9.2,1.0*3B
$GPRMC,211001.000,A,3748.7794,N,12217.8691,W,2.17,136.39,071211,,,A*75
$GPVTG,136.39,T,,M,2.17,N,4.0,K,A*03
$GPGGA,211002.000,3748.7802,N,12217.8666,W,1,04,9.2,15.7,M,-25.1,M,,0000*55
$GPGSA,A,3,29,16,06,21,,,,,,,,,9.3,9.2,1.0*3B
$GPRMC,211002.000,A,3748.7802,N,12217.8666,W,2.26,108.43,071211,,,A*7C
$GPVTG,108.43,T,,M,2.26,N,4.2,K,A*03
$GPGGA,211003.000,3748.7833,N,12217.8608,W,1,04,9.2,13.2,M,-25.1,M,,0000*5D
$GPGSA,A,3,29,16,06,21,,,,,,,,,9.3,9.2,1.0*3B
$GPRMC,211003.000,A,3748.7833,N,12217.8608,W,2.55,102.33,071211,,,A*7E
$GPVTG,102.33,T,,M,2.55,N,4.7,K,A*0F
$GPGGA,211004.000,3748.7814,N,12217.8615,W,1,04,9.2,12.1,M,-25.1,M,,0000*51
$GPGSA,A,3,29,16,06,21,,,,,,,,,9.3,9.2,1.0*3B
$GPRMC,211004.000,A,3748.7814,N,12217.8615,W,1.73,144.37,071211,,,A*71
$GPVTG,144.37,T,,M,1.73,N,3.2,K,A*0C
$GPGGA,211005.000,3748.7812,N,12217.8603,W,1,04,9.2,11.8,M,-25.1,M,,0000*5B
$GPGSA,A,3,29,16,06,21,,,,,,,,,9.2,9.2,1.0*3A
$GPGSV,3,1,12,21,65,322,23,18,61,217,35,29,57,134,32,30,28,277,30*70
$GPGSV,3,2,12,26,24,061,23,16,22,307,24,22,18,223,35,06,16,313,24*70
$GPGSV,3,3,12,05,09,045,22,03,04,316,23,25,02,181,,51,43,156,40*7D
$GPRMC,211005.000,A,3748.7812,N,12217.8603,W,1.93,163.52,071211,,,A*79
$GPVTG,163.52,T,,M,1.93,N,3.6,K,A*00
$GPGGA,211006.000,3748.7792,N,12217.8612,W,1,04,9.2,11.5,M,-25.1,M,,0000*52
$GPGSA,A,3,29,16,06,21,,,,,,,,,9.2,9.2,1.0*3A
$GPRMC,211006.000,A,3748.7792,N,12217.8612,W,2.88,192.74,071211,,,A*7E
$GPVTG,192.74,T,,M,2.88,N,5.3,K,A*00
$GPGGA,211007.000,3748.7763,N,12217.8634,W,1,04,9.2,10.8,M,-25.1,M,,0000*55
$GPGSA,A,3,29,16,06,21,,,,,,,,,9.2,9.2,1.0*3A
$GPRMC,211007.000,A,3748.7763,N,12217.8634,W,4.10,201.63,071211,,,A*7D
$GPVTG,201.63,T,,M,4.10,N,7.6,K,A*0F
$GPGGA,211008.000,3748.7771,N,12217.8613,W,1,04,9.2,10.4,M,-25.1,M,,0000*50
$GPGSA,A,3,29,16,06,21,,,,,,,,,9.2,9.2,1.0*3A
$GPRMC,211008.000,A,3748.7771,N,12217.8613,W,3.39,197.30,071211,,,A*72
$GPVTG,197.30,T,,M,3.39,N,6.3,K,A*0D
$GPGGA,211009.000,3748.7799,N,12217.8576,W,1,04,9.1,11.5,M,-25.1,M,,0000*54
$GPGSA,A,3,29,16,06,21,,,,,,,,,9.2,9.1,1.0*39
$GPRMC,211009.000,A,3748.7799,N,12217.8576,W,1.30,172.89,071211,,,A*77
$GPVTG,172.89,T,,M,1.30,N,2.4,K,A*0C
$GPGGA,211010.000,3748.7815,N,12217.8552,W,1,04,9.1,12.6,M,-25.1,M,,0000*51
$GPGSA,A,3,29,16,06,21,,,,,,,,,9.2,9.1,1.0*39
$GPGSV,3,1,12,21,65,322,23,18,61,217,33,29,57,134,32,30,28,277,30*76
$GPGSV,3,2,12,26,24,061,24,16,22,307,24,22,18,223,36,06,16,313,24*74
$GPGSV,3,3,12,05,09,045,23,03,04,316,23,25,02,181,,51,43,156,36*7D
$GPRMC,211010.000,A,3748.7815,N,12217.8552,W,1.69,92.01,071211,,,A*41
$GPVTG,92.01,T,,M,1.69,N,3.1,K,A*3B
$GPGGA,211011.000,3748.7795,N,12217.8567,W,1,04,9.1,13.3,M,-25.1,M,,0000*55
$GPGSA,A,3,29,16,06,21,,,,,,,,,9.2,9.1,1.0*39
$GPRMC,211011.000,A,3748.7795,N,12217.8567,W,1.42,136.00,071211,,,A*76
$GPVTG,136.00,T,,M,1.42,N,2.6,K,A*0A
$GPGGA,211012.000,3748.7782,N,12217.8572,W,1,04,9.1,14.5,M,-25.1,M,,0000*55
$GPGSA,A,3,29,16,06,21,,,,,,,,,9.2,9.1,1.0*39
$GPRMC,211012.000,A,3748.7782,N,12217.8572,W,1.88,159.73,071211,,,A*7C
$GPVTG,159.73,T,,M,1.88,N,3.5,K,A*03
$GPGGA,211013.000,3748.7774,N,12217.8566,W,1,04,9.1,13.8,M,-25.1,M,,0000*52
$GPGSA,A,3,29,16,06,21,,,,,,,,,9.1,9.1,1.0*3A
$GPRMC,211013.000,A,3748.7774,N,12217.8566,W,2.25,182.92,071211,,,A*7C
$GPVTG,182.92,T,,M,2.25,N,4.2,K,A*0E
$GPGGA,211014.000,3748.7823,N,12217.8493,W,1,04,9.1,12.3,M,-25.1,M,,0000*59
$GPGSA,A,3,29,16,06,21,,,,,,,,,9.1,9.1,1.0*3A
$GPRMC,211014.000,A,3748.7823,N,12217.8493,W,1.23,116.58,071211,,,A*73
$GPVTG,116.58,T,,M,1.23,N,2.3,K,A*07
$GPGGA,211015.000,3748.7815,N,12217.8490,W,1,04,9.1,11.8,M,-25.1,M,,0000*56
$GPGSA,A,3,29,16,06,21,,,,,,,,,9.1,9.1,1.0*3A
$GPGSV,3,1,12,21,65,322,24,18,61,217,34,29,57,134,33,30,28,277,31*76
$GPGSV,3,2,12,26,24,061,27,16,22,307,24,22,18,223,38,06,16,313,23*7E
$GPGSV,3,3,12,05,09,045,25,03,04,316,22,25,02,181,,51,43,156,36*7A
$GPRMC,211015.000,A,3748.7815,N,12217.8490,W,2.00,145.31,071211,,,A*7F
$GPGGA,211016.000,3748.7785,N,12217.8519,W,1,04,9.1,12.1,M,-25.1,M,,0000*59
$GPGSA,A,3,29,16,06,21,,,,,,,,,9.1,9.1,1.0*3A
$GPRMC,211016.000,A,3748.7785,N,12217.8519,W,2.23,182.93,071211,,,A*78
$GPVTG,182.93,T,,M,2.23,N,4.1,K,A*0A
$GPGGA,211017.000,3748.7742,N,12217.8556,W,1,04,9.0,11.3,M,-25.1,M,,0000*58
$GPGSA,A,3,29,16,06,21,,,,,,,,,9.1,9.0,1.0*3B
$GPRMC,211017.000,A,3748.7742,N,12217.8556,W,4.14,190.83,071211,,,A*79
$GPVTG,190.83,T,,M,4.14,N,7.7,K,A*0F
$GPGGA,211018.000,3748.7753,N,12217.8529,W,1,04,9.0,10.5,M,-25.1,M,,0000*58
$GPGSA,A,3,29,16,06,21,,,,,,,,,9.1,9.0,1.0*3B
$GPRMC,211018.000,A,3748.7753,N,12217.8529,W,3.16,190.29,071211,,,A*7B
$GPVTG,190.29,T,,M,3.16,N,5.8,K,A*07
$GPGGA,211019.000,3748.7780,N,12217.8479,W,1,04,9.0,9.3,M,-25.1,M,,0000*6D
$GPGSA,A,3,29,16,06,21,,,,,,,,,9.1,9.0,1.0*3B
$GPRMC,211019.000,A,3748.7780,N,12217.8479,W,2.06,179.78,071211,,,A*73
$GPVTG,179.78,T,,M,2.06,N,3.8,K,A*02
$GPGGA,211020.000,3748.7733,N,12217.8518,W,1,04,9.0,9.2,M,-25.1,M,,0000*68
$GPGSA,A,3,29,16,06,21,,,,,,,,,9.1,9.0,1.0*3B
$GPGSV,3,1,12,21,65,323,24,18,62,218,34,29,57,134,33,30,28,276,31*7A
$GPGSV,3,2,12,26,24,061,27,16,22,306,23,22,18,223,38,06,17,313,23*79
$GPGSV,3,3,12,05,08,045,22,03,04,316,23,25,02,181,,51,43,156,38*73
$GPRMC,211020.000,A,3748.7733,N,12217.8518,W,3.43,195.10,071211,,,A*7B
$GPVTG,195.10,T,,M,3.43,N,6.4,K,A*07
$GPGGA,211021.000,3748.7677,N,12217.8563,W,1,04,9.0,8.6,M,-25.1,M,,0000*61
$GPGSA,A,3,29,16,06,21,,,,,,,,,9.0,9.0,1.0*3A
$GPRMC,211021.000,A,3748.7677,N,12217.8563,W,5.24,203.41,071211,,,A*78
$GPVTG,203.41,T,,M,5.24,N,9.7,K,A*04
$GPGGA,211022.000,3748.7641,N,12217.8589,W,1,04,9.0,8.7,M,-25.1,M,,0000*62
$GPGSA,A,3,29,16,06,21,,,,,,,,,9.0,9.0,1.0*3A
$GPRMC,211022.000,A,3748.7641,N,12217.8589,W,6.35,203.56,071211,,,A*7F
$GPVTG,203.56,T,,M,6.35,N,11.8,K,A*37
$GPGGA,211023.000,3748.7648,N,12217.8571,W,1,04,9.0,10.2,M,-25.1,M,,0000*51
$GPGSA,A,3,29,16,06,21,,,,,,,,,9.0,9.0,1.0*3A
$GPRMC,211023.000,A,3748.7648,N,12217.8571,W,5.53,202.66,071211,,,A*71
$GPVTG,202.66,T,,M,5.53,N,10.2,K,A*3D
$GPGGA,211024.000,3748.7639,N,12217.8568,W,1,04,9.0,9.9,M,-25.1,M,,0000*6B
$GPGSA,A,3,29,16,06,21,,,,,,,,,9.0,9.0,1.0*3A
$GPRMC,211024.000,A,3748.7639,N,12217.8568,W,5.17,202.49,071211,,,A*75
$GPVTG,202.49,T,,M,5.17,N,9.6,K,A*0C
$GPGGA,211025.000,3748.7670,N,12217.8518,W,1,04,8.9,8.3,M,-25.1,M,,0000*63
$GPGSA,A,3,29,16,06,21,,,,,,,,,9.0,8.9,1.0*32
$GPGSV,3,1,12,21,65,323,24,18,62,218,34,29,57,134,34,30,28,276,31*7D
$GPGSV,3,2,12,26,24,061,26,16,22,306,23,22,18,223,39,06,17,313,22*78
$GPGSV,3,3,12,05,08,045,23,03,04,316,22,25,02,181,,51,43,156,40*7C
$GPRMC,211025.000,A,3748.7670,N,12217.8518,W,3.29,200.47,071211,,,A*79
$GPVTG,200.47,T,,M,3.29,N,6.1,K,A*03
$GPGGA,211026.000,3748.7686,N,12217.8487,W,1,04,8.9,8.3,M,-25.1,M,,0000*6E
$GPGSA,A,3,29,16,06,21,,,,,,,,,9.0,8.9,1.0*32
$GPRMC,211026.000,A,3748.7686,N,12217.8487,W,2.47,167.35,071211,,,A*7A
$GPVTG,167.35,T,,M,2.47,N,4.6,K,A*08
$GPGGA,211027.000,3748.7680,N,12217.8485,W,1,04,8.9,9.3,M,-25.1,M,,0000*6A
$GPGSA,A,3,29,16,06,21,,,,,,,,,9.0,8.9,1.0*32
$GPRMC,211027.000,A,3748.7680,N,12217.8485,W,2.35,180.75,071211,,,A*77
$GPVTG,180.75,T,,M,2.35,N,4.3,K,A*05
$GPGGA,211028.000,3748.7675,N,12217.8484,W,1,04,8.9,10.3,M,-25.1,M,,0000*56
$GPGSA,A,3,29,16,06,21,,,,,,,,,9.0,8.9,1.0*32
$GPRMC,211028.000,A,3748.7675,N,12217.8484,W,2.27,187.14,071211,,,A*70
$GPVTG,187.14,T,,M,2.27,N,4.2,K,A*07
$GPGGA,211029.000,3748.7671,N,12217.8480,W,1,04,8.9,11.7,M,-25.1,M,,0000*52
$GPGSA,A,3,29,16,06,21,,,,,,,,,8.9,8.9,1.0*3A
$GPRMC,211029.000,A,3748.7671,N,12217.8480,W,2.25,168.98,071211,,,A*76
$GPVTG,168.98,T,,M,2.25,N,4.2,K,A*00
$GPGGA,211030.000,3748.7690,N,12217.8445,W,1,04,8.9,11.3,M,-25.1,M,,0000*58
$GPGSA,A,3,29,16,06,21,,,,,,,,,8.9,8.9,1.0*3A
$GPGSV,3,1,12,21,65,323,24,18,62,218,29,29,57,134,32,30,28,276,32*74
$GPGSV,3,2,12,26,24,061,22,16,22,306,23,22,18,223,39,06,17,313,22*7C
$GPGSV,3,3,12,05,08,045,23,03,04,316,22,25,02,181,,51,43,156,34*7F
$GPRMC,211030.000,A,3748.7690,N,12217.8445,W,2.46,160.87,071211,,,A*7B
$GPGGA,211031.000,3748.7738,N,12217.8374,W,1,04,8.9,10.8,M,-25.1,M,,0000*55
$GPGSA,A,3,29,16,06,21,,,,,,,,,8.9,8.9,1.0*3A
$GPRMC,211031.000,A,3748.7738,N,12217.8374,W,3.66,77.25,071211,,,A*40
$GPVTG,77.25,T,,M,3.66,N,6.8,K,A*37
$GPGGA,211032.000,3748.7789,N,12217.8299,W,1,04,8.9,10.3,M,-25.1,M,,0000*55
$GPGSA,A,3,29,16,06,21,,,,,,,,,8.9,8.9,1.0*3A
$GPRMC,211032.000,A,3748.7789,N,12217.8299,W,5.75,65.99,071211,,,A*4B
$GPVTG,65.99,T,,M,5.75,N,10.7,K,A*0F
$GPGGA,211033.000,3748.7841,N,12217.8220,W,1,04,8.9,9.1,M,-25.1,M,,0000*67
$GPGSA,A,3,29,16,06,21,,,,,,,,,8.9,8.9,1.0*3A
$GPRMC,211033.000,A,3748.7841,N,12217.8220,W,6.94,63.47,071211,,,A*4A
$GPVTG,63.47,T,,M,6.94,N,12.8,K,A*0B
$GPGGA,211034.000,3748.7857,N,12217.8190,W,1,04,8.8,9.2,M,-25.1,M,,0000*6D
$GPGSA,A,3,29,16,06,21,,,,,,,,,8.9,8.8,1.0*3B
$GPRMC,211034.000,A,3748.7857,N,12217.8190,W,7.59,61.54,071211,,,A*42
$GPVTG,61.54,T,,M,7.59,N,14.1,K,A*04
$GPGGA,211035.000,3748.7877,N,12217.8151,W,1,04,8.8,8.1,M,-25.1,M,,0000*61
$GPGSA,A,3,29,16,06,21,,,,,,,,,8.9,8.8,1.0*3B
$GPGSV,3,1,12,21,65,323,24,18,62,218,34,29,57,134,33,30,28,276,29*73
$GPGSV,3,2,12,26,24,061,24,16,22,306,23,22,18,223,39,06,17,313,22*7A
$GPGSV,3,3,12,05,08,045,21,03,04,316,21,25,02,181,,51,43,156,39*73
$GPRMC,211035.000,A,3748.7877,N,12217.8151,W,7.30,63.68,071211,,,A*4E
$GPVTG,63.68,T,,M,7.30,N,13.5,K,A*05
$GPGGA,211036.000,3748.7874,N,12217.8143,W,1,04,8.8,6.7,M,-25.1,M,,0000*6A
$GPGSA,A,3,29,16,06,21,,,,,,,,,8.9,8.8,1.0*3B
$GPRMC,211036.000,A,3748.7874,N,12217.8143,W,5.82,56.80,071211,,,A*46
$GPVTG,56.80,T,,M,5.82,N,10.8,K,A*00
$GPGGA,211037.000,3748.7830,N,12217.8186,W,1,04,8.8,6.8,M,-25.1,M,,0000*6D
$GPGSA,A,3,29,16,06,21,,,,,,,,,8.9,8.8,1.0*3B
$GPRMC,211037.000,A,3748.7830,N,12217.8186,W,3.19,72.39,071211,,,A*4E
$GPVTG,72.39,T,,M,3.19,N,5.9,K,A*35
$GPGGA,211038.000,3748.7814,N,12217.8195,W,1,04,8.8,7.3,M,-25.1,M,,0000*6C
$GPGSA,A,3,29,16,06,21,,,,,,,,,8.8,8.8,1.0*3A
$GPRMC,211038.000,A,3748.7814,N,12217.8195,W,2.91,81.25,071211,,,A*45
$GPVTG,81.25,T,,M,2.91,N,5.4,K,A*38
$GPGGA,211039.000,3748.7815,N,12217.8181,W,1,04,8.8,6.8,M,-25.1,M,,0000*63
$GPGSA,A,3,29,16,06,21,,,,,,,,,8.8,8.8,1.0*3A
$GPRMC,211039.000,A,3748.7815,N,12217.8181,W,3.47,76.12,071211,,,A*46
$GPVTG,76.12,T,,M,3.47,N,6.4,K,A*3D
$GPGGA,211040.000,3748.7830,N,12217.8149,W,1,04,8.8,7.0,M,-25.1,M,,0000*67
$GPGSA,A,3,29,16,06,21,,,,,,,,,8.8,8.8,1.0*3A
$GPGSV,3,1,12,21,65,323,24,18,62,218,34,29,57,134,33,30,28,276,30*7B
$GPGSV,3,2,12,26,24,061,24,16,22,306,23,22,18,223,37,06,17,313,22*74
$GPGSV,3,3,12,05,08,045,21,03,04,316,21,25,02,181,,51,43,156,39*73
$GPRMC,211040.000,A,3748.7830,N,12217.8149,W,3.59,69.63,071211,,,A*4C
$GPVTG,69.63,T,,M,3.59,N,6.7,K,A*39
$GPGGA,211041.000,3748.7802,N,12217.8170,W,1,04,8.8,6.6,M,-25.1,M,,0000*6A
$GPGSA,A,3,29,16,06,21,,,,,,,,,8.8,8.8,1.0*3A
$GPRMC,211041.000,A,3748.7802,N,12217.8170,W,2.08,119.96,071211,,,A*7F
$GPVTG,119.96,T,,M,2.08,N,3.9,K,A*0B
$GPGGA,211042.000,3748.7773,N,12217.8193,W,1,04,8.7,6.6,M,-25.1,M,,0000*62
$GPGSA,A,3,29,16,06,21,,,,,,,,,8.8,8.7,1.0*35
$GPRMC,211042.000,A,3748.7773,N,12217.8193,W,2.92,175.40,071211,,,A*7A
$GPVTG,175.40,T,,M,2.92,N,5.4,K,A*02
$GPGGA,211043.000,3748.7706,N,12217.8258,W,1,04,8.7,6.4,M,-25.1,M,,0000*67
$GPGSA,A,3,29,16,06,21,,,,,,,,,8.8,8.7,1.0*35
$GPRMC,211043.000,A,3748.7706,N,12217.8258,W,4.48,193.62,071211,,,A*74
$GPVTG,193.62,T,,M,4.48,N,8.3,K,A*01
$GPGGA,211044.000,3748.7667,N,12217.8291,W,1,04,8.7,7.0,M,-25.1,M,,0000*66
$GPGSA,A,3,29,16,06,21,,,,,,,,,8.8,8.7,1.0*35
$GPRMC,211044.000,A,3748.7667,N,12217.8291,W,5.44,195.03,071211,,,A*7C
$GPVTG,195.03,T,,M,5.44,N,10.1,K,A*36
$GPGGA,211045.000,3748.7649,N,12217.8291,W,1,04,8.7,6.1,M,-25.1,M,,0000*6B
$GPGSA,A,3,29,16,06,21,,,,,,,,,8.8,8.7,1.0*35
$GPGSV,3,1,12,21,65,323,23,18,62,218,35,29,57,134,34,30,28,276,30*7A
$GPGSV,3,2,12,26,23,061,24,16,22,306,23,22,19,223,39,06,17,313,23*7D
$GPGSV,3,3,12,05,08,046,23,03,04,316,21,25,02,181,,51,43,156,37*7C
$GPRMC,211045.000,A,3748.7649,N,12217.8291,W,4.96,188.97,071211,,,A*7E
$GPVTG,188.97,T,,M,4.96,N,9.2,K,A*02
$GPGGA,211046.000,3748.7636,N,12217.8286,W,1,04,8.7,5.8,M,-25.1,M,,0000*6C
$GPGSA,A,3,29,16,06,21,,,,,,,,,8.8,8.7,1.0*35
$GPRMC,211046.000,A,3748.7636,N,12217.8286,W,4.60,185.37,071211,,,A*7D
$GPVTG,185.37,T,,M,4.60,N,8.5,K,A*0A
$GPGGA,211047.000,3748.7656,N,12217.8240,W,1,04,8.7,4.0,M,-25.1,M,,0000*68
$GPGSA,A,3,29,16,06,21,,,,,,,,,8.7,8.7,1.0*3A
$GPRMC,211047.000,A,3748.7656,N,12217.8240,W,3.24,178.48,071211,,,A*7D
$GPVTG,178.48,T,,M,3.24,N,6.0,K,A*0C
$GPGGA,211048.000,3748.7663,N,12217.8219,W,1,04,8.7,4.2,M,-25.1,M,,0000*6F
$GPGSA,A,3,29,16,06,21,,,,,,,,,8.7,8.7,1.0*3A
$GPRMC,211048.000,A,3748.7663,N,12217.8219,W,2.69,181.64,071211,,,A*78
$GPVTG,181.64,T,,M,2.69,N,5.0,K,A*0F
$GPGGA,211049.000,3748.7688,N,12217.8179,W,1,04,8.7,3.7,M,-25.1,M,,0000*6C
$GPGSA,A,3,29,16,06,21,,,,,,,,,8.7,8.7,1.0*3A
$GPRMC,211049.000,A,3748.7688,N,12217.8179,W,2.19,137.59,071211,,,A*7D
$GPVTG,137.59,T,,M,2.19,N,4.1,K,A*0B
$GPGGA,211050.000,3748.7698,N,12217.8155,W,1,04,8.7,2.7,M,-25.1,M,,0000*6A
$GPGSA,A,3,29,16,06,21,,,,,,,,,8.7,8.7,1.0*3A
$GPGSV,3,1,12,21,65,323,23,18,62,218,35,29,57,135,34,30,28,276,30*7B
$GPGSV,3,2,12,26,23,061,24,16,22,306,23,22,19,223,39,06,17,313,23*7D
$GPGSV,3,3,12,05,08,046,25,03,04,316,21,25,02,181,,51,43,156,40*7A
$GPRMC,211050.000,A,3748.7698,N,12217.8155,W,1.55,138.61,071211,,,A*75
$GPVTG,138.61,T,,M,1.55,N,2.9,K,A*0A
$GPGGA,211051.000,3748.7741,N,12217.8088,W,1,04,8.6,1.7,M,-25.1,M,,0000*6D
$GPGSA,A,3,29,16,06,21,,,,,,,,,8.7,8.6,1.0*3B
$GPRMC,211051.000,A,3748.7741,N,12217.8088,W,3.15,87.87,071211,,,A*4B
$GPVTG,87.87,T,,M,3.15,N,5.8,K,A*37
$GPGGA,211052.000,3748.7727,N,12217.8090,W,1,05,2.4,2.2,M,-25.1,M,,0000*68
$GPGSA,A,3,29,16,06,21,22,,,,,,,,4.0,2.4,3.2*38
$GPRMC,211052.000,A,3748.7727,N,12217.8090,W,2.42,95.02,071211,,,A*4C
$GPVTG,95.02,T,,M,2.42,N,4.5,K,A*36
$GPGGA,211053.000,3748.7723,N,12217.8078,W,1,05,2.4,2.7,M,-25.1,M,,0000*6E
$GPGSA,A,3,29,16,06,21,22,,,,,,,,4.0,2.4,3.2*38
$GPRMC,211053.000,A,3748.7723,N,12217.8078,W,2.27,99.63,071211,,,A*47
$GPVTG,99.63,T,,M,2.27,N,4.2,K,A*39
$GPGGA,211054.000,3748.7714,N,12217.8070,W,1,05,2.4,2.3,M,-25.1,M,,0000*61
$GPGSA,A,3,29,16,06,21,22,,,,,,,,4.0,2.4,3.2*38
$GPRMC,211054.000,A,3748.7714,N,12217.8070,W,2.36,92.40,071211,,,A*46
$GPVTG,92.40,T,,M,2.36,N,4.4,K,A*35
$GPGGA,211055.000,3748.7714,N,12217.8060,W,1,05,2.4,2.1,M,-25.1,M,,0000*63
$GPGSA,A,3,29,16,06,21,22,,,,,,,,4.0,2.4,3.2*38
$GPGSV,3,1,12,21,65,323,23,18,62,218,34,29,56,135,35,30,28,276,25*7E
$GPGSV,3,2,12,26,23,061,24,16,22,306,23,22,19,223,38,06,17,313,22*7D
$GPGSV,3,3,12,05,08,046,24,03,04,316,20,25,02,181,,51,43,156,37*7A
$GPRMC,211055.000,A,3748.7714,N,12217.8060,W,2.19,79.46,071211,,,A*48
$GPVTG,79.46,T,,M,2.19,N,4.1,K,A*3E
$GPGGA,211056.000,3748.7712,N,12217.8052,W,1,05,2.4,2.2,M,-25.1,M,,0000*64
$GPGSA,A,3,29,16,06,21,22,,,,,,,,4.0,2.4,3.2*38
$GPRMC,211056.000,A,3748.7712,N,12217.8052,W,2.05,71.41,071211,,,A*4E
$GPVTG,71.41,T,,M,2.05,N,3.8,K,A*32
$GPGGA,211057.000,3748.7710,N,12217.8047,W,1,05,2.4,3.4,M,-25.1,M,,0000*64
$GPGSA,A,3,29,16,06,21,22,,,,,,,,4.0,2.4,3.2*38
$GPRMC,211057.000,A,3748.7710,N,12217.8047,W,2.17,81.62,071211,,,A*44
$GPVTG,81.62,T,,M,2.17,N,4.0,K,A*30
$GPGGA,211058.000,3748.7714,N,12217.8044,W,1,05,2.4,4.8,M,-25.1,M,,0000*67
$GPGSA,A,3,29,16,06,21,22,,,,,,,,4.0,2.4,3.2*38
$GPRMC,211058.000,A,3748.7714,N,12217.8044,W,1.94,70.16,071211,,,A*49
$GPVTG,70.16,T,,M,1.94,N,3.6,K,A*34
$GPGGA,211059.000,3748.7712,N,12217.8040,W,1,05,2.4,5.9,M,-25.1,M,,0000*64
$GPGSA,A,3,29,16,06,21,22,,,,,,,,4.0,2.4,3.2*38
$GPRMC,211059.000,A,3748.7712,N,12217.8040,W,2.10,67.54,071211,,,A*45
$GPVTG,67.54,T,,M,2.10,N,3.9,K,A*34
$GPGGA,211100.000,3748.7709,N,12217.8032,W,1,05,2.4,6.2,M,-25.1,M,,0000*6E
$GPGSA,A,3,29,16,06,21,22,,,,,,,,4.0,2.4,3.2*38
$GPGSV,3,1,12,21,65,323,23,18,62,218,35,29,56,135,35,30,28,276,32*79
$GPGSV,3,2,12,26,23,061,20,16,22,306,23,22,19,223,38,06,17,313,23*78
$GPGSV,3,3,12,05,08,046,24,03,04,316,20,25,02,181,,51,43,156,38*75
$GPRMC,211100.000,A,3748.7709,N,12217.8032,W,2.50,83.59,071211,,,A*44
$GPGGA,211101.000,3748.7703,N,12217.8029,W,1,05,2.4,8.0,M,-25.1,M,,0000*63
$GPGSA,A,3,29,16,06,21,22,,,,,,,,4.0,2.4,3.2*38
$GPRMC,211101.000,A,3748.7703,N,12217.8029,W,2.16,78.79,071211,,,A*41
$GPVTG,78.79,T,,M,2.16,N,4.0,K,A*3D
$GPGGA,211102.000,3748.7700,N,12217.8022,W,1,05,2.4,8.6,M,-25.1,M,,0000*6E
$GPGSA,A,3,29,16,06,21,22,,,,,,,,4.0,2.4,3.2*38
$GPRMC,211102.000,A,3748.7700,N,12217.8022,W,1.95,93.26,071211,,,A*4D
$GPVTG,93.26,T,,M,1.95,N,3.6,K,A*3B
$GPGGA,211103.000,3748.7697,N,12217.8015,W,1,05,2.4,8.9,M,-25.1,M,,0000*6B
$GPGSA,A,3,29,16,06,21,22,,,,,,,,4.0,2.4,3.2*38
$GPRMC,211103.000,A,3748.7697,N,12217.8015,W,2.29,106.26,071211,,,A*7E
$GPVTG,106.26,T,,M,2.29,N,4.2,K,A*01
$GPGGA,211104.000,3748.7692,N,12217.8004,W,1,05,2.4,8.3,M,-25.1,M,,0000*63
$GPGSA,A,3,29,16,06,21,22,,,,,,,,4.0,2.4,3.2*38
$GPRMC,211104.000,A,3748.7692,N,12217.8004,W,2.14,103.21,071211,,,A*70
$GPVTG,103.21,T,,M,2.14,N,4.0,K,A*0F
$GPGGA,211105.000,3748.7686,N,12217.7996,W,1,05,2.4,9.0,M,-25.1,M,,0000*68
$GPGSA,A,3,29,16,06,21,22,,,,,,,,4.0,2.4,3.2*38
$GPGSV,3,1,12,21,65,323,24,18,62,218,35,29,56,135,35,30,28,276,32*7E
$GPGSV,3,2,12,26,23,061,29,16,22,306,23,22,19,223,38,06,17,313,23*71
$GPGSV,3,3,12,05,08,046,23,03,04,316,20,25,02,181,,51,43,156,38*72
$GPRMC,211105.000,A,3748.7686,N,12217.7996,W,2.59,101.34,071211,,,A*76
$GPVTG,101.34,T,,M,2.59,N,4.8,K,A*08
$GPGGA,211106.000,3748.7683,N,12217.7987,W,1,05,2.4,8.9,M,-25.1,M,,0000*66
$GPGSA,A,3,29,16,06,21,22,,,,,,,,4.0,2.4,3.2*38
$GPRMC,211106.000,A,3748.7683,N,12217.7987,W,2.16,100.40,071211,,,A*79
$GPVTG,100.40,T,,M,2.16,N,4.0,K,A*09
$GPGGA,211107.000,3748.7677,N,12217.7980,W,1,05,2.4,8.9,M,-25.1,M,,0000*6B
$GPGSA,A,3,29,16,06,21,22,,,,,,,,4.1,2.4,3.2*39
$GPRMC,211107.000,A,3748.7677,N,12217.7980,W,2.36,108.57,071211,,,A*78
$GPVTG,108.57,T,,M,2.36,N,4.4,K,A*01
$GPGGA,211108.000,3748.7671,N,12217.7969,W,1,05,2.4,8.1,M,-25.1,M,,0000*6D
$GPGSA,A,3,29,16,06,21,22,,,,,,,,4.1,2.4,3.2*39
$GPRMC,211108.000,A,3748.7671,N,12217.7969,W,2.30,101.83,071211,,,A*70
$GPVTG,101.83,T,,M,2.30,N,4.3,K,A*00
$GPGGA,211109.000,3748.7667,N,12217.7960,W,1,05,2.4,7.8,M,-25.1,M,,0000*64
$GPGSA,A,3,29,16,06,21,22,,,,,,,,4.1,2.4,3.2*39
$GPRMC,211109.000,A,3748.7667,N,12217.7960,W,2.62,97.12,071211,,,A*4E
$GPVTG,97.12,T,,M,2.62,N,4.9,K,A*3B
$GPGGA,211110.000,3748.7658,N,12217.7951,W,1,05,2.4,8.9,M,-25.1,M,,0000*6C
$GPGSA,A,3,29,16,06,21,22,,,,,,,,4.1,2.4,3.2*39
$GPGSV,3,1,12,21,65,323,24,18,62,218,35,29,56,135,35,30,28,276,32*7E
$GPGSV,3,2,12,26,23,061,25,16,22,306,23,22,19,223,34,06,17,313,23*71
$GPGSV,3,3,12,05,08,046,22,03,04,316,20,25,02,181,28,51,43,156,38*79
$GPRMC,211110.000,A,3748.7658,N,12217.7951,W,2.71,102.45,071211,,,A*75
$GPVTG,102.45,T,,M,2.71,N,5.0,K,A*0E
$GPGGA,211111.000,3748.7652,N,12217.7944,W,1,05,2.4,9.8,M,-25.1,M,,0000*63
$GPGSA,A,3,29,16,06,21,22,,,,,,,,4.1,2.4,3.2*39
$GPRMC,211111.000,A,3748.7652,N,12217.7944,W,2.25,98.34,071211,,,A*4F
$GPVTG,98.34,T,,M,2.25,N,4.2,K,A*38
$GPGGA,211112.000,3748.7646,N,12217.7940,W,1,05,2.4,11.5,M,-25.1,M,,0000*55
$GPGSA,A,3,29,16,06,21,22,,,,,,,,4.1,2.4,3.2*39
$GPRMC,211112.000,A,3748.7646,N,12217.7940,W,1.97,86.73,071211,,,A*4B
$GPVTG,86.73,T,,M,1.97,N,3.7,K,A*3C
$GPGGA,211113.000,3748.7642,N,12217.7935,W,1,04,1.6,12.7,M,-25.1,M,,0000*53
$GPGSA,A,3,29,16,06,22,,,,,,,,,1.9,1.6,1.0*36
$GPRMC,211113.000,A,3748.7642,N,12217.7935,W,2.24,78.76,071211,,,A*43
$GPVTG,78.76,T,,M,2.24,N,4.2,K,A*31
$GPGGA,211114.000,3748.7639,N,12217.7925,W,1,04,1.6,13.3,M,-25.1,M,,0000*5C
$GPGSA,A,3,29,16,06,22,,,,,,,,,1.9,1.6,1.0*36
$GPRMC,211114.000,A,3748.7639,N,12217.7925,W,2.52,80.87,071211,,,A*41
$GPVTG,80.87,T,,M,2.52,N,4.7,K,A*3C
$GPGGA,211115.000,3748.7637,N,12217.7914,W,1,05,2.4,12.7,M,-25.1,M,,0000*54
$GPGSA,A,3,29,16,06,21,22,,,,,,,,4.1,2.4,3.2*39
$GPGSV,3,1,11,21,65,324,22,18,62,218,35,29,56,135,35,26,23,061,31*77
$GPGSV,3,2,11,16,22,306,23,22,19,223,34,06,17,313,23,05,08,046,22*78
$GPGSV,3,3,11,03,04,316,19,25,02,180,19,51,43,156,39*4D
$GPRMC,211115.000,A,3748.7637,N,12217.7914,W,2.42,64.39,071211,,,A*42
$GPGGA,211116.000,3748.7636,N,12217.7908,W,1,05,2.4,13.3,M,-25.1,M,,0000*5E
$GPGSA,A,3,29,16,06,21,22,,,,,,,,4.1,2.4,3.2*39
$GPRMC,211116.000,A,3748.7636,N,12217.7908,W,2.10,73.54,071211,,,A*47
$GPVTG,73.54,T,,M,2.10,N,3.9,K,A*31
$GPGGA,211117.000,3748.7631,N,12217.7907,W,1,05,2.4,16.1,M,-25.1,M,,0000*50
$GPGSA,A,3,29,16,06,21,22,,,,,,,,4.1,2.4,3.2*39
$GPRMC,211117.000,A,3748.7631,N,12217.7907,W,1.96,76.62,071211,,,A*43
$GPVTG,76.62,T,,M,1.96,N,3.6,K,A*33
$GPGGA,211118.000,3748.7625,N,12217.7899,W,1,05,2.4,16.9,M,-25.1,M,,0000*54
$GPGSA,A,3,29,16,06,21,22,,,,,,,,4.1,2.4,3.2*39
$GPRMC,211118.000,A,3748.7625,N,12217.7899,W,1.90,73.03,071211,,,A*4B
$GPVTG,73.03,T,,M,1.90,N,3.5,K,A*34
$GPGGA,211119.000,3748.7623,N,12217.7887,W,1,05,2.4,16.0,M,-25.1,M,,0000*55
$GPGSA,A,3,29,16,06,21,22,,,,,,,,4.1,2.4,3.2*39
$GPRMC,211119.000,A,3748.7623,N,12217.7887,W,1.80,61.08,071211,,,A*4A
$GPVTG,61.08,T,,M,1.80,N,3.3,K,A*3B
$GPGGA,211120.000,3748.7622,N,12217.7875,W,1,05,2.4,14.3,M,-25.1,M,,0000*52
$GPGSA,A,3,29,16,06,21,22,,,,,,,,4.1,2.4,3.2*39
$GPGSV,3,1,11,21,65,324,23,18,62,218,34,29,56,135,35,26,23,060,22*74
$GPGSV,3,2,11,16,23,306,23,22,19,223,36,06,17,313,23,05,08,046,22*7B
$GPGSV,3,3,11,03,04,316,20,25,02,180,29,51,43,156,39*44
$GPRMC,211120.000,A,3748.7622,N,12217.7875,W,1.49,79.78,071211,,,A*47
$GPVTG,79.78,T,,M,1.49,N,2.8,K,A*3A
$GPGGA,211121.000,3748.7617,N,12217.7865,W,1,05,2.4,13.2,M,-25.1,M,,0000*52
$GPGSA,A,3,29,16,06,21,22,,,,,,,,4.1,2.4,3.3*38
$GPRMC,211121.000,A,3748.7617,N,12217.7865,W,2.24,112.85,071211,,,A*77
$GPVTG,112.85,T,,M,2.24,N,4.1,K,A*03
$GPGGA,211122.000,3748.7609,N,12217.7865,W,1,05,2.4,15.8,M,-25.1,M,,0000*52
$GPGSA,A,3,29,16,06,21,22,,,,,,,,4.1,2.4,3.3*38
$GPRMC,211122.000,A,3748.7609,N,12217.7865,W,2.35,101.06,071211,,,A*72
$GPVTG,101.06,T,,M,2.35,N,4.4,K,A*0F
$GPGGA,211123.000,3748.7608,N,12217.7844,W,1,04,2.9,11.9,M,-25.1,M,,0000*58
$GPGSA,A,3,29,16,21,22,,,,,,,,,5.2,2.9,4.3*36
$GPRMC,211123.000,A,3748.7608,N,12217.7844,W,2.47,88.69,071211,,,A*4D
$GPVTG,88.69,T,,M,2.47,N,4.6,K,A*31
$GPGGA,211124.000,3748.7608,N,12217.7830,W,1,04,2.9,9.7,M,-25.1,M,,0000*6B
$GPGSA,A,3,29,16,21,22,,,,,,,,,5.2,2.9,4.3*36
$GPRMC,211124.000,A,3748.7608,N,12217.7830,W,2.54,76.41,071211,,,A*40
$GPVTG,76.41,T,,M,2.54,N,4.7,K,A*39
$GPGGA,211125.000,3748.7609,N,12217.7818,W,1,04,2.9,8.5,M,-25.1,M,,0000*62
$GPGSA,A,3,29,16,21,22,,,,,,,,,5.2,2.9,4.3*36
$GPGSV,3,1,11,21,65,324,22,18,62,218,34,29,56,135,35,26,23,060,22*75
$GPGSV,3,2,11,16,23,306,23,22,19,223,36,06,17,313,19,05,08,046,21*71
$GPRMC,211125.000,A,3748.7609,N,12217.7818,W,2.56,79.43,071211,,,A*45
$GPVTG,79.43,T,,M,2.56,N,4.7,K,A*36
$GPGGA,211126.000,3748.7608,N,12217.7806,W,1,05,2.4,6.9,M,-25.1,M,,0000*61
$GPGSA,A,3,29,16,06,21,22,,,,,,,,4.1,2.4,3.3*38
$GPRMC,211126.000,A,3748.7608,N,12217.7806,W,2.65,94.73,071211,,,A*48
$GPVTG,94.73,T,,M,2.65,N,4.9,K,A*38
$GPGGA,211127.000,3748.7605,N,12217.7786,W,1,05,2.4,3.4,M,-25.1,M,,0000*62
$GPGSA,A,3,29,16,06,21,22,,,,,,,,4.1,2.4,3.3*38
$GPRMC,211127.000,A,3748.7605,N,12217.7786,W,3.01,97.26,071211,,,A*43
$GPVTG,97.26,T,,M,3.01,N,5.6,K,A*36
$GPGGA,211128.000,3748.7599,N,12217.7773,W,1,05,2.4,2.2,M,-25.1,M,,0000*66
$GPGSA,A,3,29,16,06,21,22,,,,,,,,4.1,2.4,3.3*38
$GPRMC,211128.000,A,3748.7599,N,12217.7773,W,3.44,103.57,071211,,,A*7B
$GPVTG,103.57,T,,M,3.44,N,6.4,K,A*0C
$GPGGA,211129.000,3748.7595,N,12217.7760,W,1,05,2.4,1.0,M,-25.1,M,,0000*68
$GPGSA,A,3,29,16,06,21,22,,,,,,,,4.1,2.4,3.3*38
$GPRMC,211129.000,A,3748.7595,N,12217.7760,W,3.14,97.18,071211,,,A*46
$GPVTG,97.18,T,,M,3.14,N,5.8,K,A*31
$GPGGA,211130.000,3748.7587,N,12217.7750,W,1,05,2.4,1.4,M,-25.1,M,,0000*64
$GPGSA,A,3,29,16,06,21,22,,,,,,,,4.1,2.4,3.3*38
$GPGSV,3,1,11,21,65,324,23,18,62,218,34,29,56,135,35,26,23,060,22*74
$GPGSV,3,2,11,16,23,306,23,22,19,223,36,06,17,313,20,05,08,046,20*7A
$GPGSV,3,3,11,03,04,316,19,25,02,180,24,51,43,156,38*42
$GPRMC,211130.000,A,3748.7587,N,12217.7750,W,3.04,98.52,071211,,,A*4E
$GPVTG,98.52,T,,M,3.04,N,5.6,K,A*3F
$GPGGA,211131.000,3748.7578,N,12217.7744,W,1,05,2.4,2.7,M,-25.1,M,,0000*60
$GPGSA,A,3,29,16,06,21,22,,,,,,,,4.1,2.4,3.3*38
$GPRMC,211131.000,A,3748.7578,N,12217.7744,W,3.01,109.31,071211,,,A*73
$GPVTG,109.31,T,,M,3.01,N,5.6,K,A*06
$GPGGA,211132.000,3748.7572,N,12217.7736,W,1,05,2.4,2.9,M,-25.1,M,,0000*62
$GPGSA,A,3,29,16,06,21,22,,,,,,,,4.1,2.4,3.3*38
$GPRMC,211132.000,A,3748.7572,N,12217.7736,W,2.67,102.55,071211,,,A*77
$GPVTG,102.55,T,,M,2.67,N,4.9,K,A*00
$GPGGA,211133.000,3748.7566,N,12217.7731,W,1,05,2.4,4.0,M,-25.1,M,,0000*6E
$GPGSA,A,3,29,16,06,21,22,,,,,,,,4.1,2.4,3.3*38
$GPRMC,211133.000,A,3748.7566,N,12217.7731,W,2.66,112.18,071211,,,A*7D
$GPVTG,112.18,T,,M,2.66,N,4.9,K,A*09
$GPGGA,211134.000,3748.7559,N,12217.7726,W,1,05,2.4,5.7,M,-25.1,M,,0000*65
$GPGSA,A,3,29,16,06,21,22,,,,,,,,4.1,2.4,3.3*38
$GPRMC,211134.000,A,3748.7559,N,12217.7726,W,2.52,106.80,071211,,,A*73
$GPVTG,106.80,T,,M,2.52,N,4.7,K,A*04
$GPGGA,211135.000,3748.7552,N,12217.7726,W,1,05,2.4,8.6,M,-25.1,M,,0000*63
$GPGSA,A,3,29,16,06,21,22,,,,,,,,4.1,2.4,3.3*38
$GPGSV,3,1,11,21,65,324,23,18,62,218,34,29,56,135,35,26,23,060,22*74
$GPGSV,3,2,11,16,23,306,23,22,19,223,30,06,17,313,20,05,08,046,20*7C
$GPGSV,3,3,11,03,04,316,20,25,02,180,24,51,43,156,38*48
$GPRMC,211135.000,A,3748.7552,N,12217.7726,W,2.17,88.23,071211,,,A*46
$GPVTG,88.23,T,,M,2.17,N,4.0,K,A*3C
$GPGGA,211136.000,3748.7546,N,12217.7723,W,1,05,2.4,10.8,M,-25.1,M,,0000*57
$GPGSA,A,3,29,16,06,21,22,,,,,,,,4.1,2.4,3.3*38
$GPRMC,211136.000,A,3748.7546,N,12217.7723,W,2.28,87.31,071211,,,A*45
$GPVTG,87.31,T,,M,2.28,N,4.2,K,A*3E
$GPGGA,211137.000,3748.7543,N,12217.7716,W,1,05,2.4,11.4,M,-25.1,M,,0000*58
$GPGSA,A,3,29,16,06,21,22,,,,,,,,4.1,2.4,3.3*38
$GPRMC,211137.000,A,3748.7543,N,12217.7716,W,2.24,90.67,071211,,,A*4E
$GPVTG,90.67,T,,M,2.24,N,4.1,K,A*34
$GPGGA,211138.000,3748.7541,N,12217.7699,W,1,05,2.4,8.8,M,-25.1,M,,0000*67
$GPGSA,A,3,29,16,06,21,22,,,,,,,,4.1,2.4,3.3*38
$GPRMC,211138.000,A,3748.7541,N,12217.7699,W,2.40,90.53,071211,,,A*40
$GPVTG,90.53,T,,M,2.40,N,4.4,K,A*34
$GPGGA,211139.000,3748.7541,N,12217.7690,W,1,05,2.4,7.7,M,-25.1,M,,0000*6F
$GPGSA,A,3,29,16,06,21,22,,,,,,,,4.1,2.4,3.3*38
$GPRMC,211139.000,A,3748.7541,N,12217.7690,W,2.26,84.44,071211,,,A*4B
$GPVTG,84.44,T,,M,2.26,N,4.2,K,A*31
$GPGGA,211140.000,3748.7539,N,12217.7684,W,1,05,2.4,7.9,M,-25.1,M,,0000*65
$GPGSA,A,3,29,16,06,21,22,,,,,,,,4.1,2.4,3.3*38
$GPGSV,3,1,11,21,65,324,23,18,62,218,34,29,56,135,35,26,23,060,22*74
$GPGSV,3,2,11,16,23,306,22,22,19,223,39,06,17,313,20,05,08,046,25*71
$GPGSV,3,3,11,03,04,316,21,25,02,180,23,51,43,156,37*41
$GPVTG,98.36,T,,M,2.49,N,4.6,K,A*34
$GPGGA,211141.000,3748.7536,N,12217.7681,W,1,05,2.4,9.6,M,-25.1,M,,0000*6F
$GPGSA,A,3,29,16,06,21,22,,,,,,,,4.1,2.4,3.3*38
$GPRMC,211141.000,A,3748.7536,N,12217.7681,W,2.49,94.19,071211,,,A*44
$GPVTG,94.19,T,,M,2.49,N,4.6,K,A*35
$GPGGA,211142.000,3748.7534,N,12217.7670,W,1,05,2.4,8.7,M,-25.1,M,,0000*60
$GPGSA,A,3,29,16,06,21,22,,,,,,,,4.1,2.4,3.3*38
$GPRMC,211142.000,A,3748.7534,N,12217.7670,W,2.48,82.00,071211,,,A*45
$GPVTG,82.00,T,,M,2.48,N,4.6,K,A*3B
$GPGGA,211143.000,3748.7531,N,12217.7653,W,2,05,2.4,6.3,M,-25.1,M,0.8,0000*4A
$GPGSA,A,3,29,16,06,21,22,,,,,,,,4.1,2.4,3.3*38
$GPRMC,211143.000,A,3748.7531,N,12217.7653,W,2.59,90.13,071211,,,D*44
$GPVTG,90.13,T,,M,2.59,N,4.8,K,D*31
$GPGGA,211144.000,3748.7528,N,12217.7650,W,2,05,2.4,7.2,M,-25.1,M,0.8,0000*46
$GPGSA,A,3,29,16,06,21,22,,,,,,,,4.1,2.4,3.3*38
$GPRMC,211144.000,A,3748.7528,N,12217.7650,W,2.39,92.44,071211,,,D*4E
$GPVTG,92.44,T,,M,2.39,N,4.4,K,D*3B
$GPGGA,211145.000,3748.7525,N,12217.7644,W,2,05,2.4,7.5,M,-25.1,M,0.8,0000*48
$GPGSA,A,3,29,16,06,21,22,,,,,,,,4.1,2.4,3.3*38
$GPGSV,3,1,11,21,65,324,23,18,62,218,34,29,56,135,35,26,23,060,21*77
$GPGSV,3,2,11,16,23,306,22,22,19,223,39,06,17,313,19,05,08,046,19*74
$GPGSV,3,3,11,03,04,316,20,25,02,180,19,51,43,156,38*46
$GPRMC,211145.000,A,3748.7525,N,12217.7644,W,2.43,95.53,071211,,,D*4B
$GPVTG,95.53,T,,M,2.43,N,4.5,K,D*36
$GPGGA,211146.000,3748.7524,N,12217.7639,W,2,05,2.4,7.7,M,-25.1,M,1.8,0000*43
$GPGSA,A,3,29,16,06,21,22,,,,,,,,4.1,2.4,3.3*38
$GPRMC,211146.000,A,3748.7524,N,12217.7639,W,2.23,79.84,071211,,,D*4D
$GPVTG,79.84,T,,M,2.23,N,4.1,K,D*3C
$GPGGA,211147.000,3748.7523,N,12217.7626,W,2,05,2.4,6.1,M,-25.1,M,0.8,0000*4D
$GPGSA,A,3,29,16,06,21,22,,,,,,,,4.1,2.4,3.3*38
$GPRMC,211147.000,A,3748.7523,N,12217.7626,W,2.34,65.43,071211,,,D*45
$GPVTG,65.43,T,,M,2.34,N,4.3,K,D*3E
$GPGGA,211148.000,3748.7522,N,12217.7613,W,2,05,2.4,4.5,M,-25.1,M,1.8,0000*42
$GPGSA,A,3,29,16,06,21,22,,,,,,,,4.1,2.4,3.3*38
$GPRMC,211148.000,A,3748.7522,N,12217.7613,W,2.57,67.77,071211,,,D*4D
$GPVTG,67.77,T,,M,2.57,N,4.8,K,D*35
$GPGGA,211149.000,3748.7519,N,12217.7594,W,2,05,2.4,1.6,M,-25.1,M,0.8,0000*40
$GPGSA,A,3,29,16,06,21,22,,,,,,,,4.1,2.4,3.3*38
$GPRMC,211149.000,A,3748.7519,N,12217.7594,W,2.68,72.98,071211,,,D*41
$GPVTG,72.98,T,,M,2.68,N,5.0,K,D*35
$GPGGA,211150.000,3748.7517,N,12217.7585,W,2,05,2.4,1.2,M,-25.1,M,0.8,0000*42
$GPGSA,A,3,29,16,06,21,22,,,,,,,,4.1,2.4,3.3*38
$GPGSV,3,1,11,21,65,324,23,18,62,218,34,29,56,135,35,26,23,060,21*77
$GPGSV,3,2,11,16,23,306,21,22,19,223,38,06,17,313,19,05,08,046,22*7E
$GPGSV,3,3,11,03,04,316,20,25,02,180,20,51,43,156,38*4C
$GPRMC,211150.000,A,3748.7517,N,12217.7585,W,2.72,74.81,071211,,,D*42
$GPVTG,74.81,T,,M,2.72,N,5.0,K,D*30
$GPGGA,211151.000,3748.7514,N,12217.7582,W,2,05,2.4,2.5,M,-25.1,M,0.8,0000*43
$GPGSA,A,3,29,16,06,21,22,,,,,,,,4.1,2.4,3.3*38
$GPRMC,211151.000,A,3748.7514,N,12217.7582,W,2.51,72.10,071211,,,D*48
$GPVTG,72.10,T,,M,2.51,N,4.6,K,D*38
$GPGGA,211152.000,3748.7511,N,12217.7579,W,2,05,2.4,4.0,M,-25.1,M,1.8,0000*43
$GPGSA,A,3,29,16,06,21,22,,,,,,,,4.1,2.4,3.3*38
$GPRMC,211152.000,A,3748.7511,N,12217.7579,W,2.45,75.83,071211,,,D*42
$GPVTG,75.83,T,,M,2.45,N,4.5,K,D*33
$GPGGA,211153.000,3748.7504,N,12217.7575,W,2,05,2.4,5.4,M,-25.1,M,2.8,0000*4C
$GPGSA,A,3,29,16,06,21,22,,,,,,,,4.1,2.4,3.3*38
$GPRMC,211153.000,A,3748.7504,N,12217.7575,W,2.83,99.40,071211,,,D*4C
$GPVTG,99.40,T,,M,2.83,N,5.2,K,D*32
$GPGGA,211154.000,3748.7495,N,12217.7578,W,2,05,2.4,9.3,M,-25.1,M,3.8,0000*45
$GPGSA,A,3,29,16,06,21,22,,,,,,,,4.1,2.4,3.3*38
$GPRMC,211154.000,A,3748.7495,N,12217.7578,W,2.45,86.86,071211,,,D*41
$GPVTG,86.86,T,,M,2.45,N,4.5,K,D*3A
$GPGGA,211155.000,3748.7490,N,12217.7577,W,2,05,2.4,11.1,M,-25.1,M,0.8,0000*76
$GPGSA,A,3,29,16,06,21,22,,,,,,,,4.1,2.4,3.3*38
$GPGSV,3,1,11,21,65,324,23,18,62,218,34,29,56,135,35,26,23,060,21*77
$GPGSV,3,2,11,16,23,306,21,22,19,223,31,06,17,313,19,05,08,046,24*71
$GPGSV,3,3,11,03,04,316,20,25,02,180,20,51,43,156,38*4C
$GPRMC,211155.000,A,3748.7490,N,12217.7577,W,2.00,69.29,071211,,,D*4F
$GPGGA,211156.000,3748.7487,N,12217.7574,W,2,05,2.4,12.2,M,-25.1,M,0.8,0000*70
$GPGSA,A,3,29,16,06,21,22,,,,,,,,4.1,2.4,3.3*38
$GPRMC,211156.000,A,3748.7487,N,12217.7574,W,1.93,68.76,071211,,,D*4B
$GPVTG,68.76,T,,M,1.93,N,3.6,K,D*39
$GPGGA,211157.000,3748.7483,N,12217.7569,W,2,05,2.4,13.0,M,-25.1,M,0.8,0000*7A
$GPGSA,A,3,29,16,06,21,22,,,,,,,,4.1,2.4,3.3*38
$GPRMC,211157.000,A,3748.7483,N,12217.7569,W,2.23,71.96,071211,,,D*4C
$GPVTG,71.96,T,,M,2.23,N,4.1,K,D*37
$GPGGA,211158.000,3748.7481,N,12217.7562,W,2,05,2.4,13.0,M,-25.1,M,0.8,0000*7C
$GPGSA,A,3,29,16,06,21,22,,,,,,,,4.1,2.4,3.3*38
$GPRMC,211158.000,A,3748.7481,N,12217.7562,W,2.12,62.47,071211,,,D*46
$GPVTG,62.47,T,,M,2.12,N,3.9,K,D*34
$GPGGA,211159.000,3748.7474,N,12217.7555,W,2,05,2.4,14.0,M,-25.1,M,1.8,0000*75
$GPGSA,A,3,29,16,06,21,22,,,,,,,,4.1,2.4,3.3*38
$GPRMC,211159.000,A,3748.7474,N,12217.7555,W,2.07,67.13,071211,,,D*49
$GPVTG,67.13,T,,M,2.07,N,3.8,K,D*35
$GPGGA,211200.000,3748.7466,N,12217.7551,W,2,05,2.4,15.2,M,-25.1,M,2.8,0000*7D
$GPGSA,A,3,29,16,06,21,22,,,,,,,,4.1,2.4,3.3*38
$GPGSV,3,1,11,21,65,324,23,18,62,218,34,29,56,135,35,26,23,060,26*70
$GPGSV,3,2,11,16,23,306,21,22,19,223,35,06,17,313,20,05,08,046,20*7B
$GPGSV,3,3,11,03,04,316,20,25,02,180,20,51,43,156,38*4C
$GPRMC,211200.000,A,3748.7466,N,12217.7551,W,1.92,68.52,071211,,,D*44
$GPVTG,68.52,T,,M,1.92,N,3.5,K,D*3D
$GPGGA,211201.000,3748.7459,N,12217.7542,W,2,05,2.4,15.3,M,-25.1,M,0.8,0000*71
$GPGSA,A,3,29,16,06,21,22,,,,,,,,4.1,2.4,3.3*38
$GPRMC,211201.000,A,3748.7459,N,12217.7542,W,2.18,83.51,071211,,,D*4C
$GPVTG,83.51,T,,M,2.18,N,4.0,K,D*38
$GPGGA,211202.000,3748.7452,N,12217.7541,W,2,05,2.4,17.6,M,-25.1,M,0.8,0000*7D
$GPGSA,A,3,29,16,06,21,22,,,,,,,,4.1,2.4,3.3*38
$GPRMC,211202.000,A,3748.7452,N,12217.7541,W,2.26,65.49,071211,,,D*4B
$GPVTG,65.49,T,,M,2.26,N,4.2,K,D*36
$GPGGA,211203.000,3748.7447,N,12217.7539,W,2,05,2.4,19.3,M,-25.1,M,1.8,0000*7D
$GPGSA,A,3,29,16,06,21,22,,,,,,,,4.1,2.4,3.3*38
$GPRMC,211203.000,A,3748.7447,N,12217.7539,W,2.27,58.74,071211,,,D*40
$GPVTG,58.74,T,,M,2.27,N,4.2,K,D*37
$GPGGA,211204.000,3748.7442,N,12217.7526,W,2,05,2.4,18.4,M,-25.1,M,2.8,0000*74
$GPGSA,A,3,29,16,06,21,22,,,,,,,,4.1,2.4,3.3*38
$GPRMC,211204.000,A,3748.7442,N,12217.7526,W,2.28,74.93,071211,,,D*44
$GPVTG,74.93,T,,M,2.28,N,4.2,K,D*3F
$GPGGA,211205.000,3748.7432,N,12217.7522,W,2,05,2.4,20.5,M,-25.1,M,3.8,0000*7D
$GPGSA,A,3,29,16,06,21,22,,,,,,,,4.1,2.4,3.3*38
$GPGSV,3,1,11,21,65,324,23,18,62,218,34,29,56,135,34,26,23,060,27*70
$GPGSV,3,2,11,16,23,306,22,22,19,223,33,06,17,313,21,05,08,046,20*7F
$GPGSV,3,3,11,03,04,316,20,25,02,180,20,51,43,156,32*46
$GPRMC,211205.000,A,3748.7432,N,12217.7522,W,2.46,92.09,071211,,,D*45
$GPVTG,92.09,T,,M,2.46,N,4.6,K,D*38
$GPGGA,211206.000,3748.7423,N,12217.7514,W,2,05,2.4,22.1,M,-25.1,M,4.8,0000*7A
$GPGSA,A,3,29,16,06,21,22,,,,,,,,4.1,2.4,3.3*38
$GPRMC,211206.000,A,3748.7423,N,12217.7514,W,2.90,90.40,071211,,,D*47
$GPVTG,90.40,T,,M,2.90,N,5.4,K,D*3F
$GPGGA,211207.000,3748.7416,N,12217.7510,W,2,05,2.4,24.1,M,-25.1,M,5.8,0000*7E
$GPGSA,A,3,29,16,06,21,22,,,,,,,,4.1,2.4,3.3*38
$GPRMC,211207.000,A,3748.7416,N,12217.7510,W,2.00,90.28,071211,,,D*43
$GPVTG,90.28,T,,M,2.00,N,3.7,K,D*3D
$GPGGA,211208.000,3748.7412,N,12217.7492,W,2,05,2.4,20.3,M,-25.1,M,6.8,0000*7B
$GPGSA,A,3,29,16,06,21,22,,,,,,,,4.1,2.4,3.3*38
$GPRMC,211208.000,A,3748.7412,N,12217.7492,W,1.80,117.30,071211,,,D*7F
$GPVTG,117.30,T,,M,1.80,N,3.3,K,D*05
$GPGGA,211209.000,3748.7414,N,12217.7471,W,2,05,2.4,15.9,M,-25.1,M,7.8,0000*7C
$GPGSA,A,3,29,16,06,21,22,,,,,,,,4.1,2.4,3.3*38
$GPRMC,211209.000,A,3748.7414,N,12217.7471,W,1.96,105.10,071211,,,D*73
$GPVTG,105.10,T,,M,1.96,N,3.6,K,D*06
$GPGGA,211210.000,3748.7414,N,12217.7458,W,2,05,2.4,14.6,M,-25.1,M,8.8,0000*7E
$GPGSA,A,3,29,16,06,21,22,,,,,,,,4.1,2.4,3.3*38
$GPGSV,3,1,11,21,65,324,24,18,62,218,32,29,56,135,31,26,23,060,26*75
$GPGSV,3,2,11,16,23,306,23,22,19,223,21,06,17,313,21,05,08,046,21*7C
$GPGSV,3,3,11,03,04,316,20,25,02,180,20,51,43,156,28*4D
$GPRMC,211210.000,A,3748.7414,N,12217.7458,W,2.02,81.50,071211,,,D*47
$GPGGA,211211.000,3748.7417,N,12217.7441,W,2,05,2.4,11.9,M,-25.1,M,9.8,0000*7F
$GPGSA,A,3,29,16,06,21,22,,,,,,,,4.1,2.4,3.3*38
$GPRMC,211211.000,A,3748.7417,N,12217.7441,W,2.33,92.73,071211,,,D*4C
$GPVTG,92.73,T,,M,2.33,N,4.3,K,D*32
$GPGGA,211212.000,3748.7415,N,12217.7430,W,2,05,2.4,9.8,M,-25.1,M,10.8,0000*78
$GPGSA,A,3,29,16,06,21,22,,,,,,,,4.1,2.4,3.3*38
$GPRMC,211212.000,A,3748.7415,N,12217.7430,W,2.12,115.83,071211,,,D*79
$GPVTG,115.83,T,,M,2.12,N,3.9,K,D*0D
$GPGGA,211213.000,3748.7414,N,12217.7423,W,2,05,2.4,9.3,M,-25.1,M,11.8,0000*70
$GPGSA,A,3,29,16,06,21,22,,,,,,,,4.1,2.4,3.3*38
$GPRMC,211213.000,A,3748.7414,N,12217.7423,W,1.76,106.50,071211,,,D*76
$GPVTG,106.50,T,,M,1.76,N,3.3,K,D*0A
$GPGGA,211214.000,3748.7411,N,12217.7415,W,2,05,2.4,9.5,M,-25.1,M,12.8,0000*72
$GPGSA,A,3,29,16,06,21,22,,,,,,,,4.1,2.4,3.3*38
$GPRMC,211214.000,A,3748.7411,N,12217.7415,W,2.12,130.75,071211,,,D*72
$GPVTG,130.75,T,,M,2.12,N,3.9,K,D*03
$GPGGA,211215.000,3748.7404,N,12217.7409,W,2,05,2.4,10.7,M,-25.1,M,0.8,0000*73
$GPGSA,A,3,29,16,06,21,22,,,,,,,,4.1,2.4,3.3*38
$GPGSV,3,1,11,21,65,324,24,18,62,218,29,29,56,135,31,26,23,060,26*7F
$GPGSV,3,2,11,16,23,306,23,22,19,223,23,06,17,313,22,05,08,046,20*7C
$GPGSV,3,3,11,03,04,316,20,25,02,180,19,51,43,156,30*4E
$GPRMC,211215.000,A,3748.7404,N,12217.7409,W,2.13,107.73,071211,,,D*79
$GPVTG,107.73,T,,M,2.13,N,3.9,K,D*00
$GPGGA,211216.000,3748.7398,N,12217.7398,W,2,05,2.4,9.2,M,-25.1,M,1.8,0000*41
$GPGSA,A,3,29,16,06,21,22,,,,,,,,4.1,2.4,3.3*38
$GPRMC,211216.000,A,3748.7398,N,12217.7398,W,2.77,111.96,071211,,,D*79
$GPVTG,111.96,T,,M,2.77,N,5.1,K,D*00
$GPGGA,211217.000,3748.7391,N,12217.7391,W,2,05,2.4,9.1,M,-25.1,M,2.8,0000*40
$GPGSA,A,3,29,16,06,21,22,,,,,,,,4.1,2.4,3.3*38
$GPRMC,211217.000,A,3748.7391,N,12217.7391,W,2.73,111.68,071211,,,D*7D
$GPVTG,111.68,T,,M,2.73,N,5.1,K,D*05
$GPGGA,211218.000,3748.7382,N,12217.7378,W,2,05,2.4,7.9,M,-25.1,M,3.8,0000*4D
$GPGSA,A,3,29,16,06,21,22,,,,,,,,4.1,2.4,3.3*38
$GPRMC,211218.000,A,3748.7382,N,12217.7378,W,3.01,104.86,071211,,,D*77
$GPVTG,104.86,T,,M,3.01,N,5.6,K,D*02
$GPGGA,211219.000,3748.7380,N,12217.7366,W,2,05,2.4,6.7,M,-25.1,M,4.8,0000*49
$GPGSA,A,3,29,16,06,21,22,,,,,,,,4.1,2.4,3.3*38
$GPRMC,211219.000,A,3748.7380,N,12217.7366,W,3.07,82.23,071211,,,D*4D
$GPVTG,82.23,T,,M,3.07,N,5.7,K,D*35
$GPGGA,211220.000,3748.7380,N,12217.7350,W,2,05,2.4,4.1,M,-25.1,M,5.8,0000*43
$GPGSA,A,3,29,16,06,21,22,,,,,,,,4.1,2.4,3.3*38
$GPGSV,3,1,11,21,65,324,23,18,62,218,31,29,56,135,31,26,23,060,25*72
$GPGSV,3,2,11,16,23,306,23,22,19,223,38,06,17,313,22,05,08,046,20*76
$GPGSV,3,3,11,03,04,316,20,25,02,180,19,51,43,156,31*4F
$GPRMC,211220.000,A,3748.7380,N,12217.7350,W,3.09,75.02,071211,,,D*47
$GPVTG,75.02,T,,M,3.09,N,5.7,K,D*30
$GPGGA,211221.000,3748.7375,N,12217.7339,W,2,05,2.4,3.1,M,-25.1,M,6.8,0000*43
