$ADVER,3080,2.3
$GPRMC,211904.749,A,3748.7950,N,12217.8732,W,0.33,66.25,110411,,,A*40
$GPGGA,211905.749,3748.7953,N,12217.8733,W,1,03,9.6,25.1,M,-25.1,M,,0000*53
$GPGSA,A,2,13,23,20,,,,,,,,,,9.6,9.6,1.0*33
$GPRMC,211905.749,A,3748.7953,N,12217.8733,W,0.61,164.79,110411,,,A*7E
$GPVTG,164.79,T,,M,0.61,N,1.1,K,N*08
$GPGGA,211906.749,3748.7956,N,12217.8732,W,1,03,9.6,25.1,M,-25.1,M,,0000*54
$GPGSA,A,2,13,23,20,,,,,,,,,,9.6,9.6,1.0*33
$GPGSV,3,1,11,20,68,307,41,23,48,295,42,13,17,274,35,31,38,045,35*7E
$GPGSV,3,2,11,24,35,215,40,30,34,113,38,16,25,136,28,11,17,211,37*78
$GPGSV,3,3,11,04,03,325,34,25,00,028,,48,00,000,41*49
$GPRMC,211906.749,A,3748.7956,N,12217.8732,W,0.50,112.40,110411,,,A*70
$GPVTG,112.40,T,,M,0.50,N,0.9,K,N*08
$GPGGA,211907.749,3748.7957,N,12217.8730,W,1,03,9.6,25.1,M,-25.1,M,,0000*56
$GPGSA,A,2,13,23,20,,,,,,,,,,9.6,9.6,1.0*33
$GPRMC,211907.749,A,3748.7957,N,12217.8730,W,0.69,45.43,110411,,,A*48
$GPVTG,45.43,T,,M,0.69,N,1.3,K,N*39
$GPGGA,211908.749,3748.7956,N,12217.8729,W,1,03,9.6,25.1,M,-25.1,M,,0000*50
$GPGSA,A,2,13,23,20,,,,,,,,,,9.6,9.6,1.0*33
$GPRMC,211908.749,A,3748.7956,N,12217.8729,W,0.39,130.92,110411,,,A*74
$GPVTG,130.92,T,,M,0.39,N,0.7,K,N*06
$GPGGA,211909.749,3748.7957,N,12217.8727,W,1,03,9.5,25.1,M,-25.1,M,,0000*5D
$GPGSA,A,2,13,23,20,,,,,,,,,,9.6,9.5,1.0*30
$GPRMC,211909.749,A,3748.7957,N,12217.8727,W,0.44,157.62,110411,,,A*7E
$GPVTG,157.62,T,,M,0.44,N,0.8,K,N*0D
$GPGGA,211910.749,3748.7957,N,12217.8725,W,1,03,9.5,25.1,M,-25.1,M,,0000*57
$GPGSA,A,2,13,23,20,,,,,,,,,,9.6,9.5,1.0*30
$GPRMC,211910.749,A,3748.7957,N,12217.8725,W,0.55,137.10,110411,,,A*77
$GPVTG,137.10,T,,M,0.55,N,1.0,K,N*07
$GPGGA,211911.749,3748.7956,N,12217.8724,W,1,03,9.5,25.1,M,-25.1,M,,0000*56
$GPGSA,A,2,13,23,20,,,,,,,,,,9.6,9.5,1.0*30
$GPGSV,3,1,11,20,68,307,41,23,48,295,43,13,17,274,34,31,38,045,40*7C
$GPGSV,3,2,11,24,35,215,41,30,34,113,38,16,25,136,29,11,17,211,38*77
$GPGSV,3,3,11,04,03,325,36,25,00,028,,48,00,000,41*4B
$GPRMC,211911.749,A,3748.7956,N,12217.8724,W,0.29,125.58,110411,,,A*72
$GPVTG,125.58,T,,M,0.29,N,0.5,K,N*07
$GPGGA,211912.749,3748.7957,N,12217.8724,W,1,03,9.5,25.1,M,-25.1,M,,0000*54
$GPGSA,A,2,13,23,20,,,,,,,,,,9.6,9.5,1.0*30
$GPRMC,211912.749,A,3748.7957,N,12217.8724,W,0.27,145.60,110411,,,A*73
$GPVTG,145.60,T,,M,0.27,N,0.5,K,N*04
$GPGGA,211913.749,3748.7957,N,12217.8725,W,1,03,9.5,25.1,M,-25.1,M,,0000*54
$GPGSA,A,2,13,23,20,,,,,,,,,,9.6,9.5,1.0*30
$GPRMC,211913.749,A,3748.7957,N,12217.8725,W,0.09,68.82,110411,,,A*4D
$GPVTG,68.82,T,,M,0.09,N,0.2,K,N*3D
$GPGGA,211914.749,3748.7959,N,12217.8726,W,1,03,9.5,25.1,M,-25.1,M,,0000*5E
$GPGSA,A,2,13,23,20,,,,,,,,,,9.6,9.5,1.0*30
$GPRMC,211914.749,A,3748.7959,N,12217.8726,W,0.79,146.79,110411,,,A*79
$GPVTG,146.79,T,,M,0.79,N,1.5,K,N*05
$GPGGA,211915.749,3748.7958,N,12217.8725,W,1,03,9.5,25.1,M,-25.1,M,,0000*5D
$GPGSA,A,2,13,23,20,,,,,,,,,,9.6,9.5,1.0*30
$GPRMC,211915.749,A,3748.7958,N,12217.8725,W,0.34,114.50,110411,,,A*7F
$GPVTG,114.50,T,,M,0.34,N,0.6,K,N*02
$GPGGA,211916.749,3748.7955,N,12217.8724,W,1,03,9.5,25.1,M,-25.1,M,,0000*52
$GPGSA,A,2,13,23,20,,,,,,,,,,9.6,9.5,1.0*30
$GPGSV,3,1,11,20,68,307,39,23,48,295,43,13,17,274,34,31,38,045,31*75
$GPGSV,3,2,11,24,35,215,29,30,34,113,22,16,25,136,26,11,17,211,27*73
$GPGSV,3,3,11,04,03,325,37,25,00,028,,48,00,000,31*4D
$GPVTG,146.49,T,,M,0.35,N,0.7,K,N*0D
$GPGGA,211917.749,3748.7953,N,12217.8723,W,1,03,9.5,25.1,M,-25.1,M,,0000*52
$GPGSA,A,2,13,23,20,,,,,,,,,,9.6,9.5,1.0*30
$GPRMC,211917.749,A,3748.7953,N,12217.8723,W,0.13,68.82,110411,,,A*40
$GPVTG,68.82,T,,M,0.13,N,0.2,K,N*36
$GPGGA,211918.749,3748.7952,N,12217.8723,W,1,03,9.5,25.1,M,-25.1,M,,0000*5C
$GPGSA,A,2,13,23,20,,,,,,,,,,9.6,9.5,1.0*30
$GPRMC,211918.749,A,3748.7952,N,12217.8723,W,0.27,170.13,110411,,,A*79
$GPVTG,170.13,T,,M,0.27,N,0.5,K,N*06
$GPGGA,211919.749,3748.7949,N,12217.8722,W,1,03,9.5,25.1,M,-25.1,M,,0000*56
$GPGSA,A,2,13,23,20,,,,,,,,,,9.5,9.5,1.0*33
$GPRMC,211919.749,A,3748.7949,N,12217.8722,W,0.96,148.84,110411,,,A*7C
$GPVTG,148.84,T,,M,0.96,N,1.8,K,N*05
$GPGGA,211920.749,3748.7950,N,12217.8722,W,1,03,9.5,25.1,M,-25.1,M,,0000*54
$GPGSA,A,2,13,23,20,,,,,,,,,,9.5,9.5,1.0*33
$GPRMC,211920.749,A,3748.7950,N,12217.8722,W,0.22,117.51,110411,,,A*73
$GPVTG,117.51,T,,M,0.22,N,0.4,K,N*05
$GPGGA,211921.749,3748.7950,N,12217.8720,W,1,03,9.5,25.1,M,-25.1,M,,0000*57
$GPGSA,A,2,13,23,20,,,,,,,,,,9.5,9.5,1.0*33
$GPGSV,3,1,10,20,69,306,29,23,48,295,37,13,17,274,35,31,38,045,27*70
$GPGSV,3,2,10,24,35,214,36,30,34,113,27,16,25,136,14,11,17,211,25*7B
$GPGSV,3,3,10,04,03,325,31,25,00,028,*74
$GPRMC,211921.749,A,3748.7950,N,12217.8720,W,0.85,131.81,110411,,,A*74
$GPVTG,131.81,T,,M,0.85,N,1.6,K,N*02
$GPGGA,211923.749,3748.7276,N,12217.9094,W,1,04,4.6,94.8,M,-25.1,M,,0000*59
$GPGSA,A,3,32,13,23,20,,,,,,,,,4.7,4.6,1.0*32
$GPRMC,211923.749,A,3748.7276,N,12217.9094,W,1.39,139.12,110411,,,A*74
$GPVTG,139.12,T,,M,1.39,N,2.6,K,A*0A
$GPGGA,211924.749,3748.7286,N,12217.9075,W,1,04,4.6,92.0,M,-25.1,M,,0000*50
$GPGSA,A,3,32,13,23,20,,,,,,,,,4.7,4.6,1.0*32
$GPRMC,211924.749,A,3748.7286,N,12217.9075,W,0.52,143.61,110411,,,A*76
$GPVTG,143.61,T,,M,0.52,N,1.0,K,A*0A
$GPGGA,211925.000,3748.7329,N,12217.9043,W,1,04,4.6,85.1,M,-25.1,M,,0000*5D
$GPGSA,A,3,32,13,23,20,,,,,,,,,4.7,4.6,1.0*32
$GPRMC,211925.000,A,3748.7329,N,12217.9043,W,0.30,69.07,110411,,,A*41
$GPVTG,69.07,T,,M,0.30,N,0.6,K,A*30
$GPGGA,211926.000,3748.7411,N,12217.9008,W,1,04,4.6,76.7,M,-25.1,M,,0000*57
$GPGSA,A,3,32,13,23,20,,,,,,,,,4.7,4.6,1.0*32
$GPGSV,3,1,11,32,80,106,32,20,69,306,34,23,48,295,39,13,17,274,31*75
$GPGSV,3,2,11,31,38,045,39,24,35,214,30,30,34,113,35,16,25,135,29*73
$GPGSV,3,3,11,11,17,211,27,04,03,325,40,25,00,028,*42
$GPRMC,211926.000,A,3748.7411,N,12217.9008,W,0.21,60.20,110411,,,A*4D
$GPVTG,60.20,T,,M,0.21,N,0.4,K,A*3E
$GPGGA,211927.000,3748.7411,N,12217.9008,W,6,00,50.0,76.7,M,-25.1,M,,0000*62
$GPGSA,A,2,,,,,,,,,,,,,50.0,50.0,50.0*06
$GPRMC,211927.000,A,3748.7411,N,12217.9008,W,0.21,60.20,110411,,,E*48
$GPVTG,60.20,T,,M,0.21,N,0.4,K,N*31
$GPGGA,211928.000,3748.7502,N,12217.8917,W,1,04,4.6,62.9,M,-25.1,M,,0000*57
$GPGSA,A,3,32,13,23,20,,,,,,,,,4.7,4.6,1.0*32
$GPRMC,211928.000,A,3748.7502,N,12217.8917,W,1.32,86.78,110411,,,A*40
$GPVTG,86.78,T,,M,1.32,N,2.4,K,N*35
$GPGGA,211929.000,3748.7637,N,12217.8826,W,1,04,4.6,43.5,M,-25.1,M,,0000*5F
$GPGSA,A,3,32,13,23,20,,,,,,,,,4.7,4.6,1.0*32
$GPRMC,211929.000,A,3748.7637,N,12217.8826,W,0.56,332.94,110411,,,A*7A
$GPVTG,332.94,T,,M,0.56,N,1.0,K,A*00
$GPGGA,211930.000,3748.7658,N,12217.8826,W,1,04,4.6,45.4,M,-25.1,M,,0000*59
$GPGSA,A,3,32,13,23,20,,,,,,,,,4.7,4.6,1.0*32
$GPRMC,211930.000,A,3748.7658,N,12217.8826,W,0.85,9.05,110411,,,A*76
$GPVTG,9.05,T,,M,0.85,N,1.6,K,A*0B
$GPGGA,211931.000,3748.7718,N,12217.8770,W,1,04,4.6,33.7,M,-25.1,M,,0000*53
$GPGSA,A,3,32,13,23,20,,,,,,,,,4.7,4.6,1.0*32
$GPGSV,3,1,12,32,80,106,28,20,69,306,27,23,48,295,31,13,17,274,38*7E
$GPGSV,3,2,12,31,38,045,23,24,35,214,37,30,34,113,31,16,25,135,34*74
$GPGSV,3,3,12,11,17,211,35,04,03,325,30,25,00,028,,48,44,197,37*72
$GPRMC,211931.000,A,3748.7718,N,12217.8770,W,1.00,16.96,110411,,,A*46
$GPVTG,16.96,T,,M,1.00,N,1.9,K,A*3C
$GPGGA,211932.000,3748.7764,N,12217.8733,W,1,04,4.6,26.2,M,-25.1,M,,0000*5D
$GPGSA,A,3,32,13,23,20,,,,,,,,,4.7,4.6,1.0*32
$GPRMC,211932.000,A,3748.7764,N,12217.8733,W,0.86,28.66,110411,,,A*44
$GPVTG,28.66,T,,M,0.86,N,1.6,K,A*3E
$GPGGA,211933.000,3748.7798,N,12217.8710,W,1,04,4.6,21.9,M,-25.1,M,,0000*52
$GPGSA,A,3,32,13,23,20,,,,,,,,,4.7,4.6,1.0*32
$GPRMC,211933.000,A,3748.7798,N,12217.8710,W,0.43,14.53,110411,,,A*47
$GPVTG,14.53,T,,M,0.43,N,0.8,K,A*31
$GPGGA,211934.000,3748.7976,N,12217.8567,W,1,05,4.2,-8.4,M,-25.1,M,,0000*47
$GPGSA,A,3,32,13,23,20,24,,,,,,,,7.0,4.2,5.6*36
$GPRMC,211934.000,A,3748.7976,N,12217.8567,W,0.01,75.67,110411,,,A*4A
$GPVTG,75.67,T,,M,0.01,N,0.0,K,A*3F
$GPGGA,211935.000,3748.7985,N,12217.8588,W,1,05,4.2,-5.1,M,-25.1,M,,0000*43
$GPGSA,A,3,32,13,23,20,24,,,,,,,,7.0,4.2,5.6*36
$GPRMC,211935.000,A,3748.7985,N,12217.8588,W,0.10,304.22,110411,,,A*72
$GPVTG,304.22,T,,M,0.10,N,0.2,K,A*09
$GPGGA,211936.000,3748.7983,N,12217.8608,W,1,05,4.2,-2.8,M,-25.1,M,,0000*43
$GPGSA,A,3,32,13,23,20,24,,,,,,,,7.0,4.2,5.6*36
$GPGSV,3,1,11,32,80,107,28,20,69,306,22,23,48,295,31,31,38,045,29*74
$GPGSV,3,2,11,24,35,214,37,30,34,113,33,16,25,135,34,13,17,274,37*7D
$GPGSV,3,3,11,11,17,210,38,04,03,325,28,48,44,197,37*49
$GPVTG,232.22,T,,M,0.45,N,0.8,K,A*07
$GPGGA,211937.000,3748.7982,N,12217.8625,W,1,05,4.2,-0.4,M,-25.1,M,,0000*42
$GPGSA,A,3,32,13,23,20,24,,,,,,,,7.0,4.2,5.6*36
$GPRMC,211937.000,A,3748.7982,N,12217.8625,W,0.21,244.92,110411,,,A*7F
$GPVTG,244.92,T,,M,0.21,N,0.4,K,A*03
$GPGGA,211938.000,3748.7983,N,12217.8642,W,1,05,4.2,2.6,M,-25.1,M,,0000*60
$GPGSA,A,3,32,13,23,20,24,,,,,,,,7.0,4.2,5.6*36
$GPRMC,211938.000,A,3748.7983,N,12217.8642,W,0.52,235.54,110411,,,A*78
$GPVTG,235.54,T,,M,0.52,N,1.0,K,A*0E
$GPGGA,211939.000,3748.7983,N,12217.8651,W,1,05,4.2,3.8,M,-25.1,M,,0000*6C
$GPGSA,A,3,32,13,23,20,24,,,,,,,,7.0,4.2,5.6*36
$GPRMC,211939.000,A,3748.7983,N,12217.8651,W,0.27,247.59,110411,,,A*71
$GPVTG,247.59,T,,M,0.27,N,0.5,K,A*00
$GPGGA,211940.000,3748.7982,N,12217.8653,W,1,05,4.2,4.0,M,-25.1,M,,0000*6E
$GPGSA,A,3,32,13,23,20,24,,,,,,,,7.0,4.2,5.6*36
$GPRMC,211940.000,A,3748.7982,N,12217.8653,W,0.01,194.17,110411,,,A*7F
$GPVTG,194.17,T,,M,0.01,N,0.0,K,A*06
$GPGGA,211941.000,3748.7983,N,12217.8650,W,1,05,4.2,3.0,M,-25.1,M,,0000*6A
$GPGSA,A,3,32,13,23,20,24,,,,,,,,7.0,4.2,5.6*36
$GPGSV,3,1,11,32,80,107,28,20,69,306,24,23,48,295,30,31,38,045,30*7B
$GPGSV,3,2,11,24,35,214,34,30,34,113,39,16,25,135,35,13,17,274,36*74
$GPGSV,3,3,11,11,17,210,39,04,03,325,30,48,44,197,27*40
$GPRMC,211941.000,A,3748.7983,N,12217.8650,W,0.07,312.89,110411,,,A*71
$GPVTG,312.89,T,,M,0.07,N,0.1,K,A*0A
$GPGGA,211942.000,3748.7985,N,12217.8652,W,1,05,4.2,3.2,M,-25.1,M,,0000*6F
$GPGSA,A,3,32,13,23,20,24,,,,,,,,7.0,4.2,5.6*36
$GPRMC,211942.000,A,3748.7985,N,12217.8652,W,0.31,357.66,110411,,,A*73
$GPVTG,357.66,T,,M,0.31,N,0.6,K,A*08
$GPGGA,211943.000,3748.7992,N,12217.8628,W,1,05,4.2,-0.7,M,-25.1,M,,0000*4E
$GPGSA,A,3,32,13,23,20,24,,,,,,,,7.0,4.2,5.6*36
$GPRMC,211943.000,A,3748.7992,N,12217.8628,W,0.24,74.70,110411,,,A*48
$GPVTG,74.70,T,,M,0.24,N,0.4,K,A*3B
$GPGGA,211944.000,3748.7997,N,12217.8611,W,1,05,4.2,-3.1,M,-25.1,M,,0000*43
$GPGSA,A,3,32,13,23,20,24,,,,,,,,7.0,4.2,5.6*36
$GPRMC,211944.000,A,3748.7997,N,12217.8611,W,0.25,97.90,110411,,,A*42
$GPVTG,97.90,T,,M,0.25,N,0.5,K,A*38
$GPGGA,211945.000,3748.8001,N,12217.8607,W,1,05,4.2,-2.8,M,-25.1,M,,0000*44
$GPGSA,A,3,32,13,23,20,24,,,,,,,,7.0,4.2,5.6*36
$GPRMC,211945.000,A,3748.8001,N,12217.8607,W,0.11,112.99,110411,,,A*7F
$GPVTG,112.99,T,,M,0.11,N,0.2,K,A*0D
$GPGGA,211946.000,3748.8003,N,12217.8605,W,1,05,4.2,-2.0,M,-25.1,M,,0000*4F
$GPGSA,A,3,32,13,23,20,24,,,,,,,,7.0,4.2,5.6*36
$GPGSV,3,1,11,32,80,107,27,20,69,306,23,23,48,295,33,31,38,045,32*72
$GPGSV,3,2,11,24,35,214,25,30,34,113,41,16,25,135,40,13,17,274,35*7A
$GPGSV,3,3,11,11,17,210,33,04,03,325,29,48,44,197,28*4D
$GPRMC,211946.000,A,3748.8003,N,12217.8605,W,0.31,144.89,110411,,,A*7C
$GPVTG,144.89,T,,M,0.31,N,0.6,K,A*09
$GPGGA,211947.000,3748.8007,N,12217.8599,W,1,05,4.2,-3.8,M,-25.1,M,,0000*45
$GPGSA,A,3,32,13,23,20,24,,,,,,,,7.0,4.2,5.6*36
$GPRMC,211947.000,A,3748.8007,N,12217.8599,W,0.23,67.09,110411,,,A*44
$GPVTG,67.09,T,,M,0.23,N,0.4,K,A*30
$GPGGA,211948.000,3748.8002,N,12217.8606,W,1,05,4.2,-3.2,M,-25.1,M,,0000*40
$GPGSA,A,3,32,13,23,20,24,,,,,,,,7.0,4.2,5.6*36
$GPRMC,211948.000,A,3748.8002,N,12217.8606,W,0.18,312.05,110411,,,A*7E
$GPVTG,312.05,T,,M,0.18,N,0.3,K,A*02
$GPGGA,211949.000,3748.7998,N,12217.8611,W,1,05,4.2,-4.1,M,-25.1,M,,0000*46
$GPGSA,A,3,32,13,23,20,24,,,,,,,,7.0,4.2,5.6*36
$GPRMC,211949.000,A,3748.7998,N,12217.8611,W,1.13,200.97,110411,,,A*7F
$GPVTG,200.97,T,,M,1.13,N,2.1,K,A*01
$GPGGA,211950.000,3748.7991,N,12217.8631,W,1,05,4.2,-2.4,M,-25.1,M,,0000*46
$GPGSA,A,3,32,13,23,20,24,,,,,,,,7.0,4.2,5.6*36
$GPRMC,211950.000,A,3748.7991,N,12217.8631,W,0.76,224.91,110411,,,A*7E
$GPVTG,224.91,T,,M,0.76,N,1.4,K,A*05
$GPGGA,211951.000,3748.7984,N,12217.8650,W,1,05,4.2,-0.3,M,-25.1,M,,0000*41
$GPGSA,A,3,32,13,23,20,24,,,,,,,,7.0,4.2,5.6*36
$GPGSV,3,1,11,32,80,107,27,20,69,306,23,23,48,295,27,31,38,045,32*77
$GPGSV,3,2,11,24,35,214,34,30,35,113,34,16,25,135,31,13,17,274,29*72
$GPGSV,3,3,11,11,17,210,27,04,04,325,22,48,44,197,29*45
$GPRMC,211951.000,A,3748.7984,N,12217.8650,W,0.94,229.66,110411,,,A*75
$GPGGA,211952.000,3748.7978,N,12217.8650,W,1,05,4.2,-0.9,M,-25.1,M,,0000*4B
$GPGSA,A,3,32,13,23,20,24,,,,,,,,7.0,4.2,5.6*36
$GPRMC,211952.000,A,3748.7978,N,12217.8650,W,0.76,239.01,110411,,,A*79
$GPVTG,239.01,T,,M,0.76,N,1.4,K,A*00
$GPGGA,211953.000,3748.7976,N,12217.8670,W,1,05,4.2,4.1,M,-25.1,M,,0000*67
$GPGSA,A,3,32,13,23,20,24,,,,,,,,7.0,4.2,5.6*36
$GPRMC,211953.000,A,3748.7976,N,12217.8670,W,0.91,326.14,110411,,,A*76
$GPVTG,326.14,T,,M,0.91,N,1.7,K,A*01
$GPGGA,211954.000,3748.7977,N,12217.8680,W,1,05,4.2,6.5,M,-25.1,M,,0000*68
$GPGSA,A,3,32,13,23,20,24,,,,,,,,7.0,4.2,5.6*36
$GPRMC,211954.000,A,3748.7977,N,12217.8680,W,0.90,245.14,110411,,,A*7A
$GPVTG,245.14,T,,M,0.90,N,1.7,K,A*04
$GPGGA,211955.000,3748.7979,N,12217.8688,W,1,05,4.2,8.2,M,-25.1,M,,0000*66
$GPGSA,A,3,32,13,23,20,24,,,,,,,,7.0,4.2,5.6*36
$GPRMC,211955.000,A,3748.7979,N,12217.8688,W,1.30,259.23,110411,,,A*7F
$GPVTG,259.23,T,,M,1.30,N,2.4,K,A*06
$GPGGA,211956.000,3748.7979,N,12217.8690,W,1,05,4.2,9.3,M,-25.1,M,,0000*6C
$GPGSA,A,3,32,13,23,20,24,,,,,,,,7.0,4.2,5.6*36
$GPGSV,3,1,11,32,80,107,31,20,69,306,33,23,48,295,39,31,38,045,33*7F
$GPGSV,3,2,11,24,35,214,39,30,35,113,26,16,25,135,25,13,17,274,38*79
$GPGSV,3,3,11,11,17,210,32,04,04,325,35,48,44,197,36*49
$GPRMC,211956.000,A,3748.7979,N,12217.8690,W,1.01,212.45,110411,,,A*78
$GPVTG,212.45,T,,M,1.01,N,1.9,K,A*05
$GPGGA,211957.000,3748.7977,N,12217.8689,W,1,05,4.2,9.5,M,-25.1,M,,0000*6D
$GPGSA,A,3,32,13,23,20,24,,,,,,,,7.0,4.2,5.6*36
$GPRMC,211957.000,A,3748.7977,N,12217.8689,W,0.70,209.85,110411,,,A*7E
$GPVTG,209.85,T,,M,0.70,N,1.3,K,A*0E
$GPGGA,211958.000,3748.7972,N,12217.8693,W,1,05,4.2,10.0,M,-25.1,M,,0000*51
$GPGSA,A,3,32,13,23,20,24,,,,,,,,7.0,4.2,5.6*36
$GPRMC,211958.000,A,3748.7972,N,12217.8693,W,1.37,233.72,110411,,,A*7C
$GPVTG,233.72,T,,M,1.37,N,2.5,K,A*08
$GPGGA,211959.000,3748.7972,N,12217.8679,W,1,05,4.2,8.3,M,-25.1,M,,0000*6E
$GPGSA,A,3,32,13,23,20,24,,,,,,,,7.0,4.2,5.6*36
$GPRMC,211959.000,A,3748.7972,N,12217.8679,W,0.28,159.81,110411,,,A*75
$GPVTG,159.81,T,,M,0.28,N,0.5,K,A*06
$GPGGA,212000.000,3748.7972,N,12217.8658,W,1,05,4.2,5.8,M,-25.1,M,,0000*6D
$GPGSA,A,3,32,13,23,20,24,,,,,,,,7.0,4.2,5.6*36
$GPRMC,212000.000,A,3748.7972,N,12217.8658,W,0.94,109.28,110411,,,A*71
$GPVTG,109.28,T,,M,0.94,N,1.7,K,A*04
$GPGGA,212001.000,3748.7971,N,12217.8640,W,1,05,4.2,4.4,M,-25.1,M,,0000*6B
$GPGSA,A,3,32,13,23,20,24,,,,,,,,7.0,4.2,5.6*36
$GPGSV,3,1,11,32,80,107,29,20,69,306,25,23,48,295,25,31,38,045,25*7B
$GPGSV,3,2,11,24,35,214,35,30,35,113,26,16,25,135,35,13,17,274,26*7B
$GPGSV,3,3,11,11,17,210,33,04,04,325,28,48,44,197,36*44
$GPRMC,212001.000,A,3748.7971,N,12217.8640,W,1.69,122.71,110411,,,A*7C
$GPVTG,122.71,T,,M,1.69,N,3.1,K,A*06
$GPGGA,212002.000,3748.7970,N,12217.8629,W,1,05,4.2,4.5,M,-25.1,M,,0000*67
$GPGSA,A,3,32,13,23,20,24,,,,,,,,7.0,4.2,5.6*36
$GPRMC,212002.000,A,3748.7970,N,12217.8629,W,1.73,123.16,110411,,,A*7A
$GPVTG,123.16,T,,M,1.73,N,3.2,K,A*0E
$GPGGA,212003.000,3748.7969,N,12217.8615,W,1,05,4.2,3.9,M,-25.1,M,,0000*6A
$GPGSA,A,3,32,13,23,20,24,,,,,,,,7.0,4.2,5.6*36
$GPRMC,212003.000,A,3748.7969,N,12217.8615,W,1.96,116.41,110411,,,A*73
$GPVTG,116.41,T,,M,1.96,N,3.6,K,A*05
$GPGGA,212004.000,3748.7969,N,12217.8605,W,1,05,4.2,3.6,M,-25.1,M,,0000*63
$GPGSA,A,3,32,13,23,20,24,,,,,,,,7.0,4.2,5.6*36
$GPRMC,212004.000,A,3748.7969,N,12217.8605,W,2.09,124.74,110411,,,A*77
$GPVTG,124.74,T,,M,2.09,N,3.9,K,A*08
$GPGGA,212005.000,3748.7969,N,12217.8595,W,1,05,4.2,3.1,M,-25.1,M,,0000*6F
$GPGSA,A,3,32,13,23,20,24,,,,,,,,7.0,4.2,5.6*36
$GPRMC,212005.000,A,3748.7969,N,12217.8595,W,1.99,123.19,110411,,,A*7A
$GPVTG,123.19,T,,M,1.99,N,3.7,K,A*00
$GPGGA,212006.000,3748.7968,N,12217.8577,W,1,05,4.2,1.3,M,-25.1,M,,0000*61
$GPGSA,A,3,32,13,23,20,24,,,,,,,,7.0,4.2,5.6*36
$GPGSV,3,1,11,32,80,107,30,20,69,306,27,23,48,295,26,31,38,045,26*71
$GPGSV,3,2,11,24,35,214,38,30,35,113,26,16,25,135,35,13,17,274,29*79
$GPGSV,3,3,11,11,17,210,37,04,04,325,27,48,44,197,35*4C
$GPRMC,212006.000,A,3748.7968,N,12217.8577,W,2.03,116.84,110411,,,A*76
$GPGGA,212007.000,3748.7966,N,12217.8564,W,1,05,4.2,0.5,M,-25.1,M,,0000*6B
$GPGSA,A,3,32,13,23,20,24,,,,,,,,7.0,4.2,5.6*36
$GPRMC,212007.000,A,3748.7966,N,12217.8564,W,2.05,119.86,110411,,,A*70
$GPVTG,119.86,T,,M,2.05,N,3.8,K,A*06
$GPGGA,212008.000,3748.7965,N,12217.8551,W,1,05,4.2,-0.4,M,-25.1,M,,0000*4D
$GPGSA,A,3,32,13,23,20,24,,,,,,,,7.0,4.2,5.6*36
$GPRMC,212008.000,A,3748.7965,N,12217.8551,W,2.14,125.63,110411,,,A*7E
$GPVTG,125.63,T,,M,2.14,N,4.0,K,A*0D
$GPGGA,212009.000,3748.7963,N,12217.8542,W,1,05,4.2,-0.2,M,-25.1,M,,0000*4E
$GPGSA,A,3,32,13,23,20,24,,,,,,,,7.0,4.2,5.6*36
$GPRMC,212009.000,A,3748.7963,N,12217.8542,W,2.05,116.03,110411,,,A*7D
$GPVTG,116.03,T,,M,2.05,N,3.8,K,A*04
$GPGGA,212010.000,3748.7961,N,12217.8530,W,1,05,4.2,-0.7,M,-25.1,M,,0000*44
$GPGSA,A,3,32,13,23,20,24,,,,,,,,7.0,4.2,5.6*36
$GPRMC,212010.000,A,3748.7961,N,12217.8530,W,2.01,119.96,110411,,,A*75
$GPVTG,119.96,T,,M,2.01,N,3.7,K,A*0C
$GPGGA,212011.000,3748.7959,N,12217.8525,W,1,05,4.2,-0.2,M,-25.1,M,,0000*4F
$GPGSA,A,3,32,13,23,20,24,,,,,,,,7.0,4.2,5.6*36
$GPGSV,3,1,11,32,80,107,30,20,69,306,26,23,48,295,27,31,38,045,26*71
$GPGSV,3,2,11,24,35,214,33,30,35,113,27,16,25,135,35,13,17,274,29*73
$GPGSV,3,3,11,11,17,210,37,04,04,325,24,48,44,197,34*4E
$GPRMC,212011.000,A,3748.7959,N,12217.8525,W,2.04,134.60,110411,,,A*78
$GPVTG,134.60,T,,M,2.04,N,3.8,K,A*00
$GPGGA,212012.000,3748.7959,N,12217.8522,W,1,05,4.2,0.3,M,-25.1,M,,0000*67
$GPGSA,A,3,32,13,23,20,24,,,,,,,,7.0,4.2,5.6*36
$GPRMC,212012.000,A,3748.7959,N,12217.8522,W,1.33,121.82,110411,,,A*73
$GPVTG,121.82,T,,M,1.33,N,2.5,K,A*03
$GPGGA,212013.000,3748.7959,N,12217.8510,W,1,05,4.2,-1.3,M,-25.1,M,,0000*4B
$GPGSA,A,3,32,13,23,20,24,,,,,,,,7.0,4.2,5.6*36
$GPRMC,212013.000,A,3748.7959,N,12217.8510,W,1.08,130.97,110411,,,A*7F
$GPVTG,130.97,T,,M,1.08,N,2.0,K,A*0A
$GPGGA,212014.000,3748.7960,N,12217.8511,W,1,05,4.2,-0.4,M,-25.1,M,,0000*41
$GPGSA,A,3,32,13,23,20,24,,,,,,,,7.0,4.2,5.6*36
$GPRMC,212014.000,A,3748.7960,N,12217.8511,W,0.47,151.18,110411,,,A*79
$GPVTG,151.18,T,,M,0.47,N,0.9,K,A*0B
$GPGGA,212015.000,3748.7963,N,12217.8523,W,1,05,4.2,2.1,M,-25.1,M,,0000*68
$GPGSA,A,3,32,13,23,20,24,,,,,,,,7.0,4.2,5.6*36
$GPRMC,212015.000,A,3748.7963,N,12217.8523,W,0.44,179.18,110411,,,A*73
$GPVTG,179.18,T,,M,0.44,N,0.8,K,A*03
$GPGGA,212016.000,3748.7965,N,12217.8530,W,1,05,4.2,4.1,M,-25.1,M,,0000*69
$GPGSA,A,3,32,13,23,20,24,,,,,,,,7.0,4.2,5.6*36
$GPGSV,3,1,11,32,80,107,30,20,69,306,21,23,48,295,25,31,38,045,18*79
$GPGSV,3,2,11,24,35,214,33,30,35,113,27,16,25,135,34,13,17,274,30*7A
$GPGSV,3,3,11,11,17,210,38,04,04,325,23,48,44,197,33*41
$GPRMC,212016.000,A,3748.7965,N,12217.8530,W,0.16,301.51,110411,,,A*73
$GPVTG,301.51,T,,M,0.16,N,0.3,K,A*0F
$GPGGA,212017.000,3748.7969,N,12217.8540,W,1,05,4.2,7.0,M,-25.1,M,,0000*61
$GPGSA,A,3,32,13,23,20,24,,,,,,,,7.0,4.2,5.6*36
$GPRMC,212017.000,A,3748.7969,N,12217.8540,W,0.29,310.44,110411,,,A*71
$GPVTG,310.44,T,,M,0.29,N,0.5,K,A*01
$GPGGA,212018.000,3748.7972,N,12217.8542,W,1,05,4.2,7.3,M,-25.1,M,,0000*65
$GPGSA,A,3,32,13,23,20,24,,,,,,,,7.0,4.2,5.6*36
$GPRMC,212018.000,A,3748.7972,N,12217.8542,W,0.34,243.20,110411,,,A*7F
$GPVTG,243.20,T,,M,0.34,N,0.6,K,A*0B
$GPGGA,212019.000,3748.7975,N,12217.8548,W,1,05,4.2,8.6,M,-25.1,M,,0000*63
$GPGSA,A,3,32,13,23,20,24,,,,,,,,7.0,4.2,5.6*36
$GPRMC,212019.000,A,3748.7975,N,12217.8548,W,0.40,267.61,110411,,,A*73
$GPVTG,267.61,T,,M,0.40,N,0.7,K,A*0A
$GPGGA,212020.000,3748.7978,N,12217.8557,W,1,05,4.2,10.6,M,-25.1,M,,0000*53
$GPGSA,A,3,32,13,23,20,24,,,,,,,,7.0,4.2,5.6*36
$GPRMC,212020.000,A,3748.7978,N,12217.8557,W,0.56,276.07,110411,,,A*7D
$GPVTG,276.07,T,,M,0.56,N,1.0,K,A*0B
$GPGGA,212021.000,3748.7976,N,12217.8563,W,1,05,4.2,12.6,M,-25.1,M,,0000*59
$GPGSA,A,3,32,13,23,20,24,,,,,,,,7.0,4.2,5.6*36
$GPGSV,3,1,11,32,80,108,31,20,69,306,23,23,48,296,27,31,38,045,24*7B
$GPGSV,3,2,11,30,35,113,30,24,34,214,33,16,26,135,33,13,17,274,30*79
$GPGSV,3,3,11,11,17,210,39,04,04,325,24,48,44,197,33*47
$GPRMC,212021.000,A,3748.7976,N,12217.8563,W,0.34,203.60,110411,,,A*72
$GPGGA,212022.000,3748.7977,N,12217.8554,W,1,05,4.2,11.4,M,-25.1,M,,0000*5E
$GPGSA,A,3,32,13,23,20,24,,,,,,,,7.0,4.2,5.6*36
$GPRMC,212022.000,A,3748.7977,N,12217.8554,W,0.84,149.31,110411,,,A*76
$GPVTG,149.31,T,,M,0.84,N,1.6,K,A*08
$GPGGA,212023.000,3748.7975,N,12217.8547,W,1,05,4.2,10.7,M,-25.1,M,,0000*5D
$GPGSA,A,3,32,13,23,20,24,,,,,,,,7.0,4.2,5.6*36
$GPRMC,212023.000,A,3748.7975,N,12217.8547,W,0.97,175.08,110411,,,A*70
$GPVTG,175.08,T,,M,0.97,N,1.8,K,A*01
$GPGGA,212024.000,3748.7970,N,12217.8541,W,1,05,4.2,10.3,M,-25.1,M,,0000*5D
$GPGSA,A,3,32,13,23,20,24,,,,,,,,7.0,4.2,5.6*36
$GPRMC,212024.000,A,3748.7970,N,12217.8541,W,1.59,149.00,110411,,,A*70
$GPVTG,149.00,T,,M,1.59,N,2.9,K,A*07
$GPGGA,212025.000,3748.7964,N,12217.8542,W,1,05,4.2,11.3,M,-25.1,M,,0000*5B
$GPGSA,A,3,32,13,23,20,24,,,,,,,,7.0,4.2,5.6*36
$GPRMC,212025.000,A,3748.7964,N,12217.8542,W,1.10,169.47,110411,,,A*7B
$GPVTG,169.47,T,,M,1.10,N,2.0,K,A*02
$GPGGA,212026.000,3748.7959,N,12217.8537,W,1,05,4.2,12.1,M,-25.1,M,,0000*55
$GPGSA,A,3,32,13,23,20,24,,,,,,,,7.0,4.2,5.6*36
$GPGSV,3,1,11,32,80,108,30,20,69,306,24,23,48,296,26,31,38,045,25*7D
$GPGSV,3,2,11,30,35,113,24,24,34,214,34,16,26,135,33,13,17,274,29*73
$GPGSV,3,3,11,11,17,210,39,04,04,325,22,48,44,197,34*46
$GPRMC,212026.000,A,3748.7959,N,12217.8537,W,1.41,144.62,110411,,,A*78
$GPVTG,144.62,T,,M,1.41,N,2.6,K,A*08
$GPGGA,212027.000,3748.7956,N,12217.8538,W,1,05,4.2,13.5,M,-25.1,M,,0000*51
$GPGSA,A,3,32,13,23,20,24,,,,,,,,7.0,4.2,5.6*36
$GPRMC,212027.000,A,3748.7956,N,12217.8538,W,0.55,174.96,110411,,,A*75
$GPVTG,174.96,T,,M,0.55,N,1.0,K,A*01
$GPGGA,212028.000,3748.7960,N,12217.8498,W,1,06,1.9,5.8,M,-25.1,M,,0000*67
$GPGSA,A,3,32,13,23,20,24,16,,,,,,,2.9,1.9,2.2*30
$GPRMC,212028.000,A,3748.7960,N,12217.8498,W,1.79,116.15,110411,,,A*74
$GPVTG,116.15,T,,M,1.79,N,3.3,K,A*00
$GPGGA,212029.000,3748.7959,N,12217.8480,W,1,06,1.9,3.5,M,-25.1,M,,0000*6E
$GPGSA,A,3,32,13,23,20,24,16,,,,,,,2.9,1.9,2.2*30
$GPRMC,212029.000,A,3748.7959,N,12217.8480,W,1.80,108.97,110411,,,A*75
$GPVTG,108.97,T,,M,1.80,N,3.3,K,A*03
$GPGGA,212030.000,3748.7956,N,12217.8468,W,1,06,1.9,2.5,M,-25.1,M,,0000*6E
$GPGSA,A,3,32,13,23,20,24,16,,,,,,,2.9,1.9,2.2*30
$GPRMC,212030.000,A,3748.7956,N,12217.8468,W,2.14,101.20,110411,,,A*7F
$GPVTG,101.20,T,,M,2.14,N,4.0,K,A*0C
$GPGGA,212031.000,3748.7952,N,12217.8457,W,1,06,1.9,1.9,M,-25.1,M,,0000*68
$GPGSA,A,3,32,13,23,20,24,16,,,,,,,2.9,1.9,2.2*30
$GPGSV,3,1,11,32,80,109,30,20,69,306,24,23,48,296,26,31,38,045,26*7F
$GPGSV,3,2,11,30,35,113,31,24,34,214,34,16,26,135,33,13,17,274,29*77
$GPGSV,3,3,11,11,17,210,31,04,04,325,21,48,44,197,33*4A
$GPRMC,212031.000,A,3748.7952,N,12217.8457,W,1.97,108.24,110411,,,A*73
$GPVTG,108.24,T,,M,1.97,N,3.6,K,A*08
$GPGGA,212032.000,3748.7947,N,12217.8449,W,1,06,1.9,2.1,M,-25.1,M,,0000*6B
$GPGSA,A,3,32,13,23,20,24,16,,,,,,,2.9,1.9,2.2*30
$GPRMC,212032.000,A,3748.7947,N,12217.8449,W,2.24,101.48,110411,,,A*73
$GPVTG,101.48,T,,M,2.24,N,4.1,K,A*00
$GPGGA,212033.000,3748.7945,N,12217.8442,W,1,06,1.9,2.0,M,-25.1,M,,0000*62
$GPGSA,A,3,32,13,23,20,24,16,,,,,,,2.9,1.9,2.2*30
$GPRMC,212033.000,A,3748.7945,N,12217.8442,W,1.92,114.43,110411,,,A*7A
$GPVTG,114.43,T,,M,1.92,N,3.6,K,A*01
$GPGGA,212034.000,3748.7942,N,12217.8435,W,1,06,1.9,1.9,M,-25.1,M,,0000*68
$GPGSA,A,3,32,13,23,20,24,16,,,,,,,2.9,1.9,2.2*30
$GPRMC,212034.000,A,3748.7942,N,12217.8435,W,1.55,111.65,110411,,,A*70
$GPVTG,111.65,T,,M,1.55,N,2.9,K,A*05
$GPGGA,212035.000,3748.7939,N,12217.8427,W,1,06,1.9,1.6,M,-25.1,M,,0000*69
$GPGSA,A,3,32,13,23,20,24,16,,,,,,,2.9,1.9,2.2*30
$GPRMC,212035.000,A,3748.7939,N,12217.8427,W,1.75,98.35,110411,,,A*49
$GPVTG,98.35,T,,M,1.75,N,3.2,K,A*38
$GPGGA,212036.000,3748.7938,N,12217.8420,W,1,06,1.9,1.4,M,-25.1,M,,0000*6E
$GPGSA,A,3,32,13,23,20,24,16,,,,,,,2.9,1.9,2.2*30
$GPGSV,3,1,11,32,80,109,26,20,69,306,24,23,48,296,26,31,38,045,23*7D
$GPGSV,3,2,11,30,35,113,27,24,34,214,35,16,26,135,37,13,17,274,26*7A
$GPGSV,3,3,11,11,17,210,36,04,04,325,20,48,44,197,36*49
$GPRMC,212036.000,A,3748.7938,N,12217.8420,W,2.04,104.88,110411,,,A*7B
$GPGGA,212037.000,3748.7934,N,12217.8413,W,1,06,1.9,0.9,M,-25.1,M,,0000*6F
$GPGSA,A,3,32,13,23,20,24,16,,,,,,,2.9,1.9,2.2*30
$GPRMC,212037.000,A,3748.7934,N,12217.8413,W,1.96,111.33,110411,,,A*7A
$GPVTG,111.33,T,,M,1.96,N,3.6,K,A*07
$GPGGA,212038.000,3748.7929,N,12217.8407,W,1,06,1.9,0.3,M,-25.1,M,,0000*63
$GPGSA,A,3,32,13,23,20,24,16,,,,,,,2.9,1.9,2.2*30
$GPRMC,212038.000,A,3748.7929,N,12217.8407,W,2.11,117.05,110411,,,A*73
$GPVTG,117.05,T,,M,2.11,N,3.9,K,A*07
$GPGGA,212039.000,3748.7923,N,12217.8401,W,1,06,1.9,0.4,M,-25.1,M,,0000*69
$GPGSA,A,3,32,13,23,20,24,16,,,,,,,2.9,1.9,2.2*30
$GPRMC,212039.000,A,3748.7923,N,12217.8401,W,2.29,122.20,110411,,,A*74
$GPVTG,122.20,T,,M,2.29,N,4.2,K,A*01
$GPGGA,212040.000,3748.7918,N,12217.8395,W,1,06,1.9,0.6,M,-25.1,M,,0000*67
$GPGSA,A,3,32,13,23,20,24,16,,,,,,,2.9,1.9,2.2*30
$GPRMC,212040.000,A,3748.7918,N,12217.8395,W,2.40,121.87,110411,,,A*79
$GPVTG,121.87,T,,M,2.40,N,4.4,K,A*06
$GPGGA,212041.000,3748.7909,N,12217.8387,W,1,06,1.9,1.6,M,-25.1,M,,0000*64
$GPGSA,A,3,32,13,23,20,24,16,,,,,,,2.9,1.9,2.2*30
$GPGSV,3,1,11,32,80,109,29,20,69,306,24,23,48,296,24,31,38,045,24*77
$GPGSV,3,2,11,30,35,113,28,24,34,214,37,16,26,135,33,13,17,274,31*75
$GPGSV,3,3,11,11,17,210,36,04,04,325,21,48,44,197,36*48
$GPRMC,212041.000,A,3748.7909,N,12217.8387,W,2.42,126.36,110411,,,A*74
$GPVTG,126.36,T,,M,2.42,N,4.5,K,A*08
$GPGGA,212042.000,3748.7905,N,12217.8381,W,1,06,1.9,2.0,M,-25.1,M,,0000*68
$GPGSA,A,3,32,13,23,20,24,16,,,,,,,2.9,1.9,2.2*30
$GPRMC,212042.000,A,3748.7905,N,12217.8381,W,2.56,127.33,110411,,,A*7C
$GPVTG,127.33,T,,M,2.56,N,4.7,K,A*0B
$GPGGA,212043.000,3748.7899,N,12217.8374,W,1,06,1.9,2.5,M,-25.1,M,,0000*62
$GPGSA,A,3,32,13,23,20,24,16,,,,,,,2.9,1.9,2.2*30
$GPRMC,212043.000,A,3748.7899,N,12217.8374,W,2.34,125.58,110411,,,A*78
$GPVTG,125.58,T,,M,2.34,N,4.3,K,A*04
$GPGGA,212044.000,3748.7898,N,12217.8365,W,1,06,1.9,1.9,M,-25.1,M,,0000*6B
$GPGSA,A,3,32,13,23,20,24,16,,,,,,,2.9,1.9,2.2*30
$GPRMC,212044.000,A,3748.7898,N,12217.8365,W,2.20,113.43,110411,,,A*74
$GPVTG,113.43,T,,M,2.20,N,4.1,K,A*0C
$GPGGA,212045.000,3748.7895,N,12217.8358,W,1,06,1.9,2.2,M,-25.1,M,,0000*61
$GPGSA,A,3,32,13,23,20,24,16,,,,,,,2.9,1.9,2.2*30
$GPRMC,212045.000,A,3748.7895,N,12217.8358,W,2.22,113.06,110411,,,A*75
$GPVTG,113.06,T,,M,2.22,N,4.1,K,A*0F
$GPGGA,212046.000,3748.7890,N,12217.8351,W,1,06,1.9,2.0,M,-25.1,M,,0000*6C
$GPGSA,A,3,32,13,23,20,24,16,,,,,,,2.9,1.9,2.2*30
$GPGSV,3,1,11,32,80,109,29,20,69,306,25,23,48,296,23,31,38,045,24*71
$GPGSV,3,2,11,30,35,113,33,24,34,214,32,16,26,135,37,13,17,274,25*7B
$GPGSV,3,3,11,11,17,210,37,04,04,325,20,48,44,197,34*4A
$GPRMC,212046.000,A,3748.7890,N,12217.8351,W,2.45,123.46,110411,,,A*7C
$GPVTG,123.46,T,,M,2.45,N,4.5,K,A*0D
$GPGGA,212047.000,3748.7884,N,12217.8344,W,1,06,1.9,1.7,M,-25.1,M,,0000*68
$GPGSA,A,3,32,13,23,20,24,16,,,,,,,2.9,1.9,2.2*30
$GPRMC,212047.000,A,3748.7884,N,12217.8344,W,2.50,132.20,110411,,,A*78
$GPVTG,132.20,T,,M,2.50,N,4.6,K,A*0A
$GPGGA,212048.000,3748.7885,N,12217.8338,W,1,06,1.9,1.2,M,-25.1,M,,0000*68
$GPGSA,A,3,32,13,23,20,24,16,,,,,,,2.9,1.9,2.2*30
$GPRMC,212048.000,A,3748.7885,N,12217.8338,W,1.71,115.58,110411,,,A*77
$GPVTG,115.58,T,,M,1.71,N,3.2,K,A*03
$GPGGA,212049.000,3748.7878,N,12217.8331,W,1,06,1.9,1.8,M,-25.1,M,,0000*68
$GPGSA,A,3,32,13,23,20,24,16,,,,,,,2.9,1.9,2.2*30
$GPRMC,212049.000,A,3748.7878,N,12217.8331,W,2.61,125.24,110411,,,A*77
$GPVTG,125.24,T,,M,2.61,N,4.8,K,A*04
$GPGGA,212050.000,3748.7875,N,12217.8324,W,1,04,2.6,1.3,M,-25.1,M,,0000*6C
$GPGSA,A,3,13,23,20,24,,,,,,,,,2.8,2.6,1.0*3A
$GPRMC,212050.000,A,3748.7875,N,12217.8324,W,2.45,125.86,110411,,,A*78
$GPVTG,125.86,T,,M,2.45,N,4.5,K,A*07
$GPGGA,212051.000,3748.7868,N,12217.8319,W,1,04,2.0,1.7,M,-25.1,M,,0000*6D
$GPGSA,A,3,13,23,24,16,,,,,,,,,3.7,2.0,3.1*34
$GPGSV,3,1,11,32,79,109,09,20,69,306,08,23,48,296,16,31,38,045,24*7C
$GPGSV,3,2,11,30,35,112,24,24,34,214,18,16,26,135,15,13,17,274,23*72
$GPGSV,3,3,11,11,17,210,21,04,04,325,19,48,44,197,21*43
$GPRMC,212051.000,A,3748.7868,N,12217.8319,W,2.95,142.92,110411,,,A*72
$GPGGA,212052.000,3748.7856,N,12217.8320,W,1,04,2.2,3.5,M,-25.1,M,,0000*6B
$GPGSA,A,3,32,23,24,16,,,,,,,,,4.2,2.2,3.5*33
$GPRMC,212052.000,A,3748.7856,N,12217.8320,W,3.78,146.95,110411,,,A*77
$GPVTG,146.95,T,,M,3.78,N,7.0,K,A*09
$GPGGA,212053.000,3748.7844,N,12217.8318,W,1,03,2.0,4.4,M,-25.1,M,,0000*61
$GPGSA,A,2,23,24,16,,,,,,,,,,2.3,2.0,1.0*31
$GPRMC,212053.000,A,3748.7844,N,12217.8318,W,4.64,153.99,110411,,,A*7C
$GPVTG,153.99,T,,M,4.64,N,8.6,K,A*02
$GPGGA,212054.000,3748.7824,N,12217.8316,W,1,03,2.0,5.2,M,-25.1,M,,0000*69
$GPGSA,A,2,23,24,16,,,,,,,,,,2.3,2.0,1.0*31
$GPRMC,212054.000,A,3748.7824,N,12217.8316,W,6.14,161.88,110411,,,A*77
$GPVTG,161.88,T,,M,6.14,N,11.4,K,A*3C
$GPGGA,212055.000,3748.7815,N,12217.8305,W,1,03,2.6,6.3,M,-25.1,M,,0000*6C
$GPGSA,A,2,32,24,16,,,,,,,,,,2.7,2.6,1.0*33
$GPRMC,212055.000,A,3748.7815,N,12217.8305,W,5.50,147.77,110411,,,A*71
$GPVTG,147.77,T,,M,5.50,N,10.2,K,N*33
$GPGGA,212056.000,3748.7817,N,12217.8288,W,1,03,2.6,7.8,M,-25.1,M,,0000*63
$GPGSA,A,2,32,24,16,,,,,,,,,,2.7,2.6,1.0*33
$GPGSV,3,1,10,32,79,109,14,20,69,306,,23,48,296,,31,38,045,18*71
$GPGSV,3,2,10,30,35,112,24,24,34,214,16,16,26,135,16,13,17,274,*7F
$GPGSV,3,3,10,11,17,210,20,04,04,325,*7B
$GPRMC,212056.000,A,3748.7817,N,12217.8288,W,4.78,123.87,110411,,,A*72
$GPVTG,123.87,T,,M,4.78,N,8.8,K,N*06
$GPGGA,212057.000,3748.7810,N,12217.8274,W,6,00,50.0,8.2,M,-25.1,M,,0000*56
$GPGSA,A,2,,,,,,,,,,,,,50.0,50.0,50.0*06
$GPRMC,212057.000,A,3748.7810,N,12217.8274,W,4.78,123.87,110411,,,E*73
$GPVTG,123.87,T,,M,4.78,N,8.8,K,N*06
$GPGGA,212058.000,3748.7802,N,12217.8260,W,6,00,50.0,8.6,M,-25.1,M,,0000*5B
$GPGSA,A,2,,,,,,,,,,,,,50.0,50.0,50.0*06
$GPRMC,212058.000,A,3748.7802,N,12217.8260,W,4.78,123.87,110411,,,E*7A
$GPVTG,123.87,T,,M,4.78,N,8.8,K,N*06
$GPGGA,212059.000,3748.7795,N,12217.8246,W,6,00,50.0,9.0,M,-25.1,M,,0000*58
$GPGSA,A,2,,,,,,,,,,,,,50.0,50.0,50.0*06
$GPRMC,212059.000,A,3748.7795,N,12217.8246,W,4.78,123.87,110411,,,E*7E
$GPVTG,123.87,T,,M,4.78,N,8.8,K,N*06
$GPGGA,212100.000,3748.7787,N,12217.8233,W,6,00,50.0,9.4,M,-25.1,M,,0000*50
$GPGSA,A,2,,,,,,,,,,,,,50.0,50.0,50.0*06
$GPRMC,212100.000,A,3748.7787,N,12217.8233,W,4.78,123.87,110411,,,E*72
$GPVTG,123.87,T,,M,4.78,N,8.8,K,N*06
$GPGGA,212101.000,3748.7780,N,12217.8219,W,6,00,50.0,9.8,M,-25.1,M,,0000*52
$GPGSA,A,2,,,,,,,,,,,,,50.0,50.0,50.0*06
$GPGSV,3,1,10,32,79,109,,20,69,306,,23,48,296,,31,38,045,17*7B
$GPGSV,3,2,10,30,35,112,24,24,34,214,16,16,26,135,16,13,17,274,*7F
$GPGSV,3,3,10,11,17,210,20,04,04,325,*7B
$GPVTG,123.87,T,,M,4.78,N,8.8,K,N*06
$GPGGA,212102.000,3748.7773,N,12217.8205,W,6,00,50.0,10.2,M,-25.1,M,,0000*62
$GPGSA,A,2,,,,,,,,,,,,,50.0,50.0,50.0*06
$GPRMC,212102.000,A,3748.7773,N,12217.8205,W,4.78,123.87,110411,,,E*7E
$GPVTG,123.87,T,,M,4.78,N,8.8,K,N*06
$GPGGA,212103.000,3748.7765,N,12217.8191,W,6,00,50.0,10.6,M,-25.1,M,,0000*6E
$GPGSA,A,2,,,,,,,,,,,,,50.0,50.0,50.0*06
$GPRMC,212103.000,A,3748.7765,N,12217.8191,W,4.78,123.87,110411,,,E*76
$GPVTG,123.87,T,,M,4.78,N,8.8,K,N*06
$GPGGA,212104.000,3748.7758,N,12217.8177,W,6,00,50.0,10.9,M,-25.1,M,,0000*60
$GPGSA,A,2,,,,,,,,,,,,,50.0,50.0,50.0*06
$GPRMC,212104.000,A,3748.7758,N,12217.8177,W,4.78,123.87,110411,,,E*77
$GPVTG,123.87,T,,M,4.78,N,8.8,K,N*06
$GPGGA,212105.000,3748.7750,N,12217.8163,W,6,00,50.0,11.3,M,-25.1,M,,0000*67
$GPGSA,A,2,,,,,,,,,,,,,50.0,50.0,50.0*06
$GPRMC,212105.000,A,3748.7750,N,12217.8163,W,4.78,123.87,110411,,,E*7B
$GPVTG,123.87,T,,M,4.78,N,8.8,K,N*06
$GPGGA,212106.000,3748.7743,N,12217.8149,W,6,00,50.0,11.7,M,-25.1,M,,0000*6A
$GPGSA,A,2,,,,,,,,,,,,,50.0,50.0,50.0*06
$GPGSV,3,1,11,32,79,109,,20,69,306,,23,48,296,20,31,38,045,18*77
$GPGSV,3,2,11,30,35,112,25,24,34,214,30,16,26,135,22,13,17,274,*7C
$GPGSV,3,3,11,11,17,210,30,04,04,325,,48,44,197,37*4C
$GPRMC,212106.000,A,3748.7743,N,12217.8149,W,4.78,123.87,110411,,,E*72
$GPVTG,123.87,T,,M,4.78,N,8.8,K,N*06
$GPGGA,212107.000,3748.7784,N,12217.8193,W,1,06,1.9,10.2,M,-25.1,M,,0000*5F
$GPGSA,A,3,23,13,32,20,24,16,,,,,,,2.9,1.9,2.2*30
$GPRMC,212107.000,A,3748.7784,N,12217.8193,W,2.21,117.53,110411,,,A*7F
$GPVTG,117.53,T,,M,2.21,N,4.1,K,A*08
$GPGGA,212108.000,3748.7799,N,12217.8185,W,1,06,1.9,7.9,M,-25.1,M,,0000*66
$GPGSA,A,3,23,13,32,20,24,16,,,,,,,2.9,1.9,2.2*30
$GPRMC,212108.000,A,3748.7799,N,12217.8185,W,2.35,116.70,110411,,,A*7E
$GPVTG,116.70,T,,M,2.35,N,4.3,K,A*0F
$GPGGA,212109.000,3748.7808,N,12217.8179,W,1,06,1.9,6.6,M,-25.1,M,,0000*6D
$GPGSA,A,3,23,13,32,20,24,16,,,,,,,2.9,1.9,2.2*30
$GPRMC,212109.000,A,3748.7808,N,12217.8179,W,2.29,116.16,110411,,,A*76
$GPVTG,116.16,T,,M,2.29,N,4.2,K,A*03
$GPGGA,212110.000,3748.7799,N,12217.8170,W,1,06,1.9,6.1,M,-25.1,M,,0000*6C
$GPGSA,A,3,23,13,32,20,24,16,,,,,,,2.9,1.9,2.2*30
$GPRMC,212110.000,A,3748.7799,N,12217.8170,W,2.40,119.22,110411,,,A*77
$GPVTG,119.22,T,,M,2.40,N,4.4,K,A*02
$GPGGA,212111.000,3748.7788,N,12217.8163,W,1,06,1.9,5.4,M,-25.1,M,,0000*69
$GPGSA,A,3,23,13,32,20,24,16,,,,,,,2.9,1.9,2.2*30
$GPGSV,3,1,11,32,79,109,31,20,69,306,25,23,48,296,25,31,38,045,23*7F
$GPGSV,3,2,11,30,35,112,32,24,34,214,34,16,26,135,36,13,17,274,31*79
$GPGSV,3,3,11,11,17,210,36,04,04,325,,48,44,197,34*49
$GPRMC,212111.000,A,3748.7788,N,12217.8163,W,2.54,130.45,110411,,,A*7B
$GPVTG,130.45,T,,M,2.54,N,4.7,K,A*0E
$GPGGA,212112.000,3748.7784,N,12217.8155,W,1,06,1.9,5.0,M,-25.1,M,,0000*67
$GPGSA,A,3,23,13,32,20,24,16,,,,,,,2.9,1.9,2.2*30
$GPRMC,212112.000,A,3748.7784,N,12217.8155,W,2.45,120.27,110411,,,A*74
$GPVTG,120.27,T,,M,2.45,N,4.5,K,A*09
$GPGGA,212113.000,3748.7782,N,12217.8148,W,1,06,1.9,5.0,M,-25.1,M,,0000*6C
$GPGSA,A,3,23,13,32,20,24,16,,,,,,,2.9,1.9,2.2*30
$GPRMC,212113.000,A,3748.7782,N,12217.8148,W,2.44,120.24,110411,,,A*7D
$GPVTG,120.24,T,,M,2.44,N,4.5,K,A*0B
$GPGGA,212114.000,3748.7780,N,12217.8139,W,1,06,1.9,4.9,M,-25.1,M,,0000*67
$GPGSA,A,3,23,13,32,20,24,16,,,,,,,2.9,1.9,2.2*30
$GPRMC,212114.000,A,3748.7780,N,12217.8139,W,2.40,118.71,110411,,,A*71
$GPVTG,118.71,T,,M,2.40,N,4.4,K,A*05
$GPGGA,212115.000,3748.7776,N,12217.8131,W,1,06,1.9,4.9,M,-25.1,M,,0000*67
$GPGSA,A,3,23,13,32,20,24,16,,,,,,,2.9,1.9,2.2*30
$GPRMC,212115.000,A,3748.7776,N,12217.8131,W,2.47,120.95,110411,,,A*77
$GPVTG,120.95,T,,M,2.47,N,4.6,K,A*01
$GPGGA,212116.000,3748.7773,N,12217.8123,W,1,06,1.9,4.6,M,-25.1,M,,0000*6D
$GPGSA,A,3,23,13,32,20,24,16,,,,,,,2.9,1.9,2.2*30
$GPGSV,3,1,11,32,79,109,31,20,69,306,27,23,48,296,24,31,38,045,28*77
$GPGSV,3,2,11,30,35,112,31,24,34,214,36,16,26,135,35,13,17,274,32*78
$GPGSV,3,3,11,11,17,210,37,04,04,325,,48,44,197,37*4B
$GPRMC,212116.000,A,3748.7773,N,12217.8123,W,2.76,125.68,110411,,,A*77
$GPGGA,212117.000,3748.7770,N,12217.8116,W,1,06,1.9,4.2,M,-25.1,M,,0000*6D
$GPGSA,A,3,23,13,32,20,24,16,,,,,,,2.9,1.9,2.2*30
$GPRMC,212117.000,A,3748.7770,N,12217.8116,W,2.64,126.40,110411,,,A*79
$GPVTG,126.40,T,,M,2.64,N,4.9,K,A*01
$GPGGA,212118.000,3748.7767,N,12217.8109,W,1,06,1.9,4.1,M,-25.1,M,,0000*69
$GPGSA,A,3,23,13,32,20,24,16,,,,,,,2.9,1.9,2.2*30
$GPRMC,212118.000,A,3748.7767,N,12217.8109,W,2.48,124.79,110411,,,A*78
$GPVTG,124.79,T,,M,2.48,N,4.6,K,A*08
$GPGGA,212119.000,3748.7764,N,12217.8101,W,1,06,1.9,4.2,M,-25.1,M,,0000*60
$GPGSA,A,3,23,13,32,20,24,16,,,,,,,2.9,1.9,2.2*30
$GPRMC,212119.000,A,3748.7764,N,12217.8101,W,2.48,121.49,110411,,,A*74
$GPVTG,121.49,T,,M,2.48,N,4.6,K,A*0E
$GPGGA,212120.000,3748.7761,N,12217.8094,W,1,06,1.9,4.3,M,-25.1,M,,0000*63
$GPGSA,A,3,23,13,32,20,24,16,,,,,,,2.9,1.9,2.2*30
$GPRMC,212120.000,A,3748.7761,N,12217.8094,W,2.39,124.02,110411,,,A*7A
$GPVTG,124.02,T,,M,2.39,N,4.4,K,A*00
$GPGGA,212121.000,3748.7759,N,12217.8087,W,1,06,1.9,4.4,M,-25.1,M,,0000*6C
$GPGSA,A,3,23,13,32,20,24,16,,,,,,,2.9,1.9,2.2*30
$GPGSV,3,1,11,32,79,110,31,20,69,305,27,23,48,296,24,31,37,045,21*7A
$GPGSV,3,2,11,30,35,112,30,24,34,214,36,16,26,135,35,13,17,274,32*79
$GPGSV,3,3,11,11,16,210,38,04,04,324,,48,44,197,37*44
$GPRMC,212121.000,A,3748.7759,N,12217.8087,W,2.37,116.07,110411,,,A*78
$GPVTG,116.07,T,,M,2.37,N,4.4,K,A*0A
$GPGGA,212122.000,3748.7756,N,12217.8080,W,1,06,1.9,4.5,M,-25.1,M,,0000*66
$GPGSA,A,3,23,13,32,20,24,16,,,,,,,2.9,1.9,2.2*30
$GPRMC,212122.000,A,3748.7756,N,12217.8080,W,2.35,121.47,110411,,,A*71
$GPVTG,121.47,T,,M,2.35,N,4.4,K,A*08
$GPGGA,212123.000,3748.7751,N,12217.8072,W,1,06,1.9,4.3,M,-25.1,M,,0000*6B
$GPGSA,A,3,23,13,32,20,24,16,,,,,,,2.9,1.9,2.2*30
$GPRMC,212123.000,A,3748.7751,N,12217.8072,W,2.46,122.97,110411,,,A*70
$GPVTG,122.97,T,,M,2.46,N,4.6,K,A*00
$GPGGA,212124.000,3748.7748,N,12217.8066,W,1,06,1.9,4.4,M,-25.1,M,,0000*66
$GPGSA,A,3,23,13,32,20,24,16,,,,,,,2.9,1.9,2.2*30
$GPRMC,212124.000,A,3748.7748,N,12217.8066,W,2.31,123.75,110411,,,A*77
$GPVTG,123.75,T,,M,2.31,N,4.3,K,A*08
$GPGGA,212125.000,3748.7745,N,12217.8059,W,1,06,1.9,4.5,M,-25.1,M,,0000*67
$GPGSA,A,3,23,13,32,20,24,16,,,,,,,2.9,1.9,2.2*30
$GPRMC,212125.000,A,3748.7745,N,12217.8059,W,2.52,126.41,110411,,,A*70
$GPVTG,126.41,T,,M,2.52,N,4.7,K,A*0B
$GPGGA,212126.000,3748.7744,N,12217.8052,W,1,06,1.9,4.8,M,-25.1,M,,0000*63
$GPGSA,A,3,23,13,32,20,24,16,,,,,,,2.9,1.9,2.2*30
$GPGSV,3,1,11,32,79,110,31,20,69,305,26,23,48,296,24,31,37,045,23*79
$GPGSV,3,2,11,30,35,112,30,24,34,214,34,16,26,135,35,13,17,274,32*7B
$GPGSV,3,3,11,11,16,210,39,04,04,324,,48,44,197,37*45
$GPRMC,212126.000,A,3748.7744,N,12217.8052,W,2.29,123.56,110411,,,A*76
$GPVTG,123.56,T,,M,2.29,N,4.2,K,A*01
$GPGGA,212127.000,3748.7742,N,12217.8046,W,1,06,1.9,4.9,M,-25.1,M,,0000*60
$GPGSA,A,3,23,13,32,20,24,16,,,,,,,2.9,1.9,2.2*30
$GPRMC,212127.000,A,3748.7742,N,12217.8046,W,2.38,121.20,110411,,,A*77
$GPVTG,121.20,T,,M,2.38,N,4.4,K,A*04
$GPGGA,212128.000,3748.7740,N,12217.8039,W,1,06,1.9,5.1,M,-25.1,M,,0000*6C
$GPGSA,A,3,23,13,32,20,24,16,,,,,,,2.9,1.9,2.2*30
$GPRMC,212128.000,A,3748.7740,N,12217.8039,W,2.31,126.63,110411,,,A*7B
$GPVTG,126.63,T,,M,2.31,N,4.3,K,A*0A
$GPGGA,212129.000,3748.7738,N,12217.8032,W,1,06,1.9,5.1,M,-25.1,M,,0000*69
$GPGSA,A,3,23,13,32,20,24,16,,,,,,,2.9,1.9,2.2*30
$GPRMC,212129.000,A,3748.7738,N,12217.8032,W,2.28,124.50,110411,,,A*74
$GPVTG,124.50,T,,M,2.28,N,4.2,K,A*01
$GPGGA,212130.000,3748.7733,N,12217.8025,W,1,05,1.9,4.9,M,-25.1,M,,0000*66
$GPGSA,A,3,23,13,20,24,16,,,,,,,,3.1,1.9,2.4*3E
$GPRMC,212130.000,A,3748.7733,N,12217.8025,W,2.29,121.41,110411,,,A*75
$GPVTG,121.41,T,,M,2.29,N,4.2,K,A*05
$GPGGA,212131.000,3748.7725,N,12217.8017,W,1,06,1.9,5.4,M,-25.1,M,,0000*6E
$GPGSA,A,3,23,13,32,20,24,16,,,,,,,2.9,1.9,2.2*30
$GPGSV,3,1,11,32,79,110,13,20,69,305,20,23,48,296,24,31,37,045,23*7F
$GPGSV,3,2,11,30,35,112,21,24,34,214,31,16,26,135,25,13,17,274,28*74
$GPGSV,3,3,11,11,16,210,25,04,04,324,,48,44,197,27*49
$GPRMC,212131.000,A,3748.7725,N,12217.8017,W,2.32,123.36,110411,,,A*7A
$GPGGA,212132.000,3748.7721,N,12217.8009,W,1,06,1.9,5.9,M,-25.1,M,,0000*6B
$GPGSA,A,3,23,13,32,20,24,16,,,,,,,2.9,1.9,2.2*30
$GPRMC,212132.000,A,3748.7721,N,12217.8009,W,2.52,113.03,110411,,,A*71
$GPVTG,113.03,T,,M,2.52,N,4.7,K,A*0B
$GPGGA,212133.000,3748.7715,N,12217.8002,W,1,06,1.9,6.2,M,-25.1,M,,0000*6E
$GPGSA,A,3,23,13,32,20,24,16,,,,,,,2.9,1.9,2.2*30
$GPRMC,212133.000,A,3748.7715,N,12217.8002,W,2.48,128.48,110411,,,A*70
$GPVTG,128.48,T,,M,2.48,N,4.6,K,A*06
$GPGGA,212134.000,3748.7709,N,12217.7995,W,1,06,1.9,5.5,M,-25.1,M,,0000*68
$GPGSA,A,3,23,13,32,20,24,16,,,,,,,2.9,1.9,2.2*30
$GPRMC,212134.000,A,3748.7709,N,12217.7995,W,1.71,138.28,110411,,,A*7C
$GPVTG,138.28,T,,M,1.71,N,3.2,K,A*0B
$GPGGA,212135.000,3748.7699,N,12217.7995,W,1,05,4.2,4.8,M,-25.1,M,,0000*60
$GPGSA,A,3,23,13,32,20,24,,,,,,,,7.1,4.2,5.7*36
$GPRMC,212135.000,A,3748.7699,N,12217.7995,W,2.67,126.57,110411,,,A*76
$GPVTG,126.57,T,,M,2.67,N,4.9,K,A*04
$GPGGA,212136.000,3748.7696,N,12217.7989,W,1,05,4.2,3.2,M,-25.1,M,,0000*6C
$GPGSA,A,3,23,13,32,20,24,,,,,,,,7.1,4.2,5.7*36
$GPGSV,3,1,10,32,79,110,20,20,69,305,16,23,48,296,19,31,37,045,21*77
$GPGSV,3,2,10,30,35,112,24,24,34,214,20,16,26,135,15,13,17,274,17*7F
$GPGSV,3,3,10,11,16,210,16,04,04,324,*7E
$GPRMC,212136.000,A,3748.7696,N,12217.7989,W,3.26,114.90,110411,,,A*79
$GPVTG,114.90,T,,M,3.26,N,6.0,K,A*01
$GPGGA,212137.000,3748.7693,N,12217.7965,W,1,06,1.9,2.6,M,-25.1,M,,0000*62
$GPGSA,A,3,23,13,32,20,24,16,,,,,,,2.9,1.9,2.2*30
$GPRMC,212137.000,A,3748.7693,N,12217.7965,W,4.94,112.41,110411,,,A*7B
$GPVTG,112.41,T,,M,4.94,N,9.2,K,A*08
$GPGGA,212138.000,3748.7692,N,12217.7947,W,1,06,1.9,3.6,M,-25.1,M,,0000*6D
$GPGSA,A,3,23,13,32,20,24,16,,,,,,,2.9,1.9,2.2*30
$GPRMC,212138.000,A,3748.7692,N,12217.7947,W,3.93,116.15,110411,,,A*70
$GPVTG,116.15,T,,M,3.93,N,7.3,K,A*02
$GPGGA,212139.000,3748.7690,N,12217.7932,W,1,06,1.9,4.4,M,-25.1,M,,0000*69
$GPGSA,A,3,23,13,32,20,24,16,,,,,,,2.9,1.9,2.2*30
$GPRMC,212139.000,A,3748.7690,N,12217.7932,W,2.77,113.72,110411,,,A*7E
$GPVTG,113.72,T,,M,2.77,N,5.1,K,A*0D
$GPGGA,212140.000,3748.7680,N,12217.7939,W,1,06,1.9,5.0,M,-25.1,M,,0000*68
$GPGSA,A,3,23,13,32,20,24,16,,,,,,,2.9,1.9,2.2*30
$GPRMC,212140.000,A,3748.7680,N,12217.7939,W,2.52,137.62,110411,,,A*7A
$GPVTG,137.62,T,,M,2.52,N,4.7,K,A*0A
$GPGGA,212141.000,3748.7681,N,12217.7934,W,1,06,1.9,5.0,M,-25.1,M,,0000*65
$GPGSA,A,3,23,13,32,20,24,16,,,,,,,2.9,1.9,2.2*30
$GPGSV,3,1,10,32,79,110,20,20,69,305,17,23,48,296,21,31,37,045,25*79
$GPGSV,3,2,10,30,35,112,21,24,34,214,19,16,26,135,25,13,17,274,24*73
$GPGSV,3,3,10,11,16,210,25,04,04,324,*7E
$GPRMC,212141.000,A,3748.7681,N,12217.7934,W,2.23,135.93,110411,,,A*7D
$GPVTG,135.93,T,,M,2.23,N,4.1,K,A*06
$GPGGA,212142.000,3748.7678,N,12217.7926,W,1,06,1.9,5.0,M,-25.1,M,,0000*63
$GPGSA,A,3,23,13,32,20,24,16,,,,,,,2.9,1.9,2.2*30
$GPRMC,212142.000,A,3748.7678,N,12217.7926,W,1.72,126.25,110411,,,A*73
$GPVTG,126.25,T,,M,1.72,N,3.2,K,A*0A
$GPGGA,212143.000,3748.7673,N,12217.7925,W,1,05,1.9,5.1,M,-25.1,M,,0000*68
$GPGSA,A,3,23,13,20,24,16,,,,,,,,3.1,1.9,2.4*3E
$GPRMC,212143.000,A,3748.7673,N,12217.7925,W,1.78,131.10,110411,,,A*70
$GPVTG,131.10,T,,M,1.78,N,3.3,K,A*01
$GPGGA,212144.000,3748.7668,N,12217.7922,W,1,05,1.9,4.3,M,-25.1,M,,0000*61
$GPGSA,A,3,23,13,20,24,16,,,,,,,,3.1,1.9,2.4*3E
$GPRMC,212144.000,A,3748.7668,N,12217.7922,W,2.50,140.47,110411,,,A*77
$GPVTG,140.47,T,,M,2.50,N,4.6,K,A*0E
$GPGGA,212145.000,3748.7662,N,12217.7917,W,6,00,50.0,4.2,M,-25.1,M,,0000*52
$GPGSA,A,2,,,,,,,,,,,,,50.0,50.0,50.0*06
$GPRMC,212145.000,A,3748.7662,N,12217.7917,W,2.50,140.47,110411,,,E*7E
$GPVTG,140.47,T,,M,2.50,N,4.6,K,N*01
$GPGGA,212146.000,3748.7657,N,12217.7911,W,6,00,50.0,4.1,M,-25.1,M,,0000*52
$GPGSA,A,2,,,,,,,,,,,,,50.0,50.0,50.0*06
$GPGSV,3,1,10,32,79,110,14,20,69,305,16,23,48,296,12,31,37,045,19*70
$GPGSV,3,2,10,30,35,112,21,24,34,214,12,16,26,135,25,13,17,274,11*7E
$GPGSV,3,3,10,11,16,210,14,04,04,324,*7C
$GPRMC,212146.000,A,3748.7657,N,12217.7911,W,2.50,140.47,110411,,,E*7D
$GPVTG,140.47,T,,M,2.50,N,4.6,K,N*01
$GPGGA,212147.000,3748.7652,N,12217.7905,W,6,00,50.0,4.1,M,-25.1,M,,0000*53
$GPGSA,A,2,,,,,,,,,,,,,50.0,50.0,50.0*06
$GPRMC,212147.000,A,3748.7652,N,12217.7905,W,2.50,140.47,110411,,,E*7C
$GPVTG,140.47,T,,M,2.50,N,4.6,K,N*01
$GPGGA,212148.000,3748.7673,N,12217.7916,W,1,04,6.9,6.4,M,-25.1,M,,0000*63
$GPGSA,A,3,23,32,20,16,,,,,,,,,7.0,6.9,1.0*3E
$GPRMC,212148.000,A,3748.7673,N,12217.7916,W,2.78,92.23,110411,,,A*40
$GPVTG,92.23,T,,M,2.78,N,5.2,K,A*3D
$GPGGA,212149.000,3748.7701,N,12217.7891,W,1,06,1.9,4.1,M,-25.1,M,,0000*6A
$GPGSA,A,3,23,13,32,20,24,16,,,,,,,2.9,1.9,2.2*30
$GPRMC,212149.000,A,3748.7701,N,12217.7891,W,4.11,70.74,110411,,,A*4C
$GPVTG,70.74,T,,M,4.11,N,7.6,K,A*3C
$GPGGA,212150.000,3748.7694,N,12217.7884,W,1,06,1.9,3.9,M,-25.1,M,,0000*64
$GPGSA,A,3,23,13,32,20,24,16,,,,,,,2.9,1.9,2.2*30
$GPRMC,212150.000,A,3748.7694,N,12217.7884,W,3.68,67.67,110411,,,A*40
$GPVTG,67.67,T,,M,3.68,N,6.8,K,A*3E
$GPGGA,212151.000,3748.7691,N,12217.7873,W,1,04,2.0,4.9,M,-25.1,M,,0000*67
$GPGSA,A,3,23,13,24,16,,,,,,,,,3.7,2.0,3.2*37
$GPGSV,3,1,10,32,79,110,20,20,69,305,17,23,48,296,20,31,37,045,18*76
$GPGSV,3,2,10,30,35,112,26,24,34,214,21,16,26,135,26,13,17,274,14*7F
$GPGSV,3,3,10,11,16,210,26,04,04,324,*7D
$GPRMC,212151.000,A,3748.7691,N,12217.7873,W,2.88,79.54,110411,,,A*4C
$GPVTG,79.54,T,,M,2.88,N,5.3,K,A*36
$GPGGA,212152.000,3748.7677,N,12217.7868,W,1,05,1.7,7.2,M,-25.1,M,,0000*6B
$GPGSA,A,3,23,13,30,24,16,,,,,,,,3.6,1.7,3.2*31
$GPRMC,212152.000,A,3748.7677,N,12217.7868,W,1.95,100.80,110411,,,A*74
$GPVTG,100.80,T,,M,1.95,N,3.6,K,A*0C
$GPGGA,212153.000,3748.7677,N,12217.7854,W,1,05,1.8,7.3,M,-25.1,M,,0000*6B
$GPGSA,A,3,13,30,20,24,16,,,,,,,,3.0,1.8,2.4*3C
$GPRMC,212153.000,A,3748.7677,N,12217.7854,W,2.42,81.69,110411,,,A*4C
$GPVTG,81.69,T,,M,2.42,N,4.5,K,A*3E
$GPGGA,212154.000,3748.7666,N,12217.7849,W,1,06,1.7,8.0,M,-25.1,M,,0000*60
$GPGSA,A,3,23,13,30,20,24,16,,,,,,,2.9,1.7,2.4*3A
$GPRMC,212154.000,A,3748.7666,N,12217.7849,W,2.35,79.15,110411,,,A*4B
$GPVTG,79.15,T,,M,2.35,N,4.3,K,A*34
$GPGGA,212155.000,3748.7670,N,12217.7836,W,1,05,2.4,6.8,M,-25.1,M,,0000*6B
$GPGSA,A,3,23,30,20,24,16,,,,,,,,6.3,2.4,5.8*3D
$GPRMC,212155.000,A,3748.7670,N,12217.7836,W,2.92,71.62,110411,,,A*40
$GPVTG,71.62,T,,M,2.92,N,5.4,K,A*37
$GPGGA,212156.000,3748.7676,N,12217.7818,W,1,05,2.4,7.3,M,-25.1,M,,0000*68
$GPGSA,A,3,23,30,20,24,16,,,,,,,,6.3,2.4,5.8*3D
$GPGSV,3,1,10,32,79,111,,20,70,305,16,23,49,297,17,31,37,045,17*77
$GPGSV,3,2,10,30,35,112,22,24,34,214,13,16,26,135,26,13,18,275,*71
$GPGSV,3,3,10,11,16,210,15,04,04,324,*7D
$GPVTG,67.23,T,,M,3.72,N,6.9,K,A*34
$GPGGA,212157.000,3748.7676,N,12217.7804,W,1,05,2.4,5.7,M,-25.1,M,,0000*62
$GPGSA,A,3,23,30,20,24,16,,,,,,,,6.3,2.4,5.8*3D
$GPRMC,212157.000,A,3748.7676,N,12217.7804,W,3.90,67.36,110411,,,A*40
$GPVTG,67.36,T,,M,3.90,N,7.2,K,A*36
$GPGGA,212158.000,3748.7678,N,12217.7786,W,1,05,2.4,7.8,M,-25.1,M,,0000*6B
$GPGSA,A,3,23,30,20,24,16,,,,,,,,6.3,2.4,5.8*3D
$GPRMC,212158.000,A,3748.7678,N,12217.7786,W,3.97,62.12,110411,,,A*40
$GPVTG,62.12,T,,M,3.97,N,7.4,K,A*34
$GPGGA,212159.000,3748.7679,N,12217.7769,W,1,04,5.5,7.9,M,-25.1,M,,0000*6C
$GPGSA,A,3,23,30,20,16,,,,,,,,,8.4,5.5,6.4*3B
$GPRMC,212159.000,A,3748.7679,N,12217.7769,W,3.35,80.12,110411,,,A*45
$GPVTG,80.12,T,,M,3.35,N,6.2,K,A*37
$GPGGA,212200.000,3748.7669,N,12217.7765,W,1,05,2.4,9.9,M,-25.1,M,,0000*67
$GPGSA,A,3,23,30,20,24,16,,,,,,,,6.3,2.4,5.8*3D
$GPRMC,212200.000,A,3748.7669,N,12217.7765,W,2.35,108.54,110411,,,A*75
$GPVTG,108.54,T,,M,2.35,N,4.3,K,A*06
$GPGGA,212201.000,3748.7659,N,12217.7760,W,1,05,2.4,11.0,M,-25.1,M,,0000*50
$GPGSA,A,3,23,30,20,24,16,,,,,,,,6.3,2.4,5.8*3D
$GPGSV,3,1,10,32,79,111,,20,70,305,16,23,49,297,18,31,37,045,16*79
$GPGSV,3,2,10,30,35,112,24,24,34,214,17,16,26,135,21,13,18,275,*74
$GPGSV,3,3,10,11,16,210,21,04,04,324,*7A
$GPRMC,212201.000,A,3748.7659,N,12217.7760,W,3.17,129.71,110411,,,A*77
$GPVTG,129.71,T,,M,3.17,N,5.9,K,A*08
$GPGGA,212202.000,3748.7646,N,12217.7749,W,1,05,2.4,10.2,M,-25.1,M,,0000*55
$GPGSA,A,3,23,30,20,24,16,,,,,,,,6.3,2.4,5.8*3D
$GPRMC,212202.000,A,3748.7646,N,12217.7749,W,3.75,136.79,110411,,,A*73
$GPVTG,136.79,T,,M,3.75,N,6.9,K,A*09
$GPGGA,212203.000,3748.7632,N,12217.7744,W,1,05,2.4,10.8,M,-25.1,M,,0000*50
$GPGSA,A,3,23,30,20,24,16,,,,,,,,6.3,2.4,5.8*3D
$GPRMC,212203.000,A,3748.7632,N,12217.7744,W,3.33,134.63,110411,,,A*77
$GPVTG,134.63,T,,M,3.33,N,6.2,K,A*09
$GPGGA,212204.000,3748.7628,N,12217.7743,W,1,07,1.7,9.7,M,-25.1,M,,0000*6E
$GPGSA,A,3,13,23,32,30,20,24,16,,,,,,2.6,1.7,2.0*30
$GPRMC,212204.000,A,3748.7628,N,12217.7743,W,2.37,148.32,110411,,,A*76
$GPVTG,148.32,T,,M,2.37,N,4.4,K,A*07
$GPGGA,212205.000,3748.7632,N,12217.7743,W,1,07,1.7,6.9,M,-25.1,M,,0000*65
$GPGSA,A,3,13,23,32,30,20,24,16,,,,,,2.6,1.7,2.0*30
$GPRMC,212205.000,A,3748.7632,N,12217.7743,W,2.20,146.63,110411,,,A*70
$GPVTG,146.63,T,,M,2.20,N,4.1,K,A*0E
$GPGGA,212206.000,3748.7632,N,12217.7744,W,1,07,1.7,4.1,M,-25.1,M,,0000*6B
$GPGSA,A,3,13,23,32,30,20,24,16,,,,,,2.6,1.7,2.0*30
$GPGSV,3,1,10,32,79,111,21,20,70,305,16,23,49,297,19,31,37,045,16*7B
$GPGSV,3,2,10,30,35,112,22,24,34,214,18,16,26,135,23,13,18,275,16*78
$GPGSV,3,3,10,11,16,210,20,04,04,324,*7B
$GPRMC,212206.000,A,3748.7632,N,12217.7744,W,2.06,145.03,110411,,,A*75
$GPVTG,145.03,T,,M,2.06,N,3.8,K,A*01
$GPGGA,212207.000,3748.7628,N,12217.7745,W,1,07,1.7,5.6,M,-25.1,M,,0000*66
$GPGSA,A,3,13,23,32,30,20,24,16,,,,,,2.6,1.7,2.0*30
$GPRMC,212207.000,A,3748.7628,N,12217.7745,W,1.39,148.27,110411,,,A*7A
$GPVTG,148.27,T,,M,1.39,N,2.6,K,A*0A
$GPGGA,212208.000,3748.7616,N,12217.7744,W,1,07,1.7,7.1,M,-25.1,M,,0000*60
$GPGSA,A,3,13,23,32,30,20,24,16,,,,,,2.6,1.7,2.0*30
$GPRMC,212208.000,A,3748.7616,N,12217.7744,W,2.35,146.93,110411,,,A*77
$GPVTG,146.93,T,,M,2.35,N,4.3,K,A*07
$GPGGA,212209.000,3748.7607,N,12217.7738,W,1,07,1.7,7.7,M,-25.1,M,,0000*6C
$GPGSA,A,3,13,23,32,30,20,24,16,,,,,,2.6,1.7,2.0*30
$GPRMC,212209.000,A,3748.7607,N,12217.7738,W,2.14,140.01,110411,,,A*73
$GPVTG,140.01,T,,M,2.14,N,4.0,K,A*0A
$GPGGA,212210.000,3748.7605,N,12217.7730,W,1,07,1.7,6.7,M,-25.1,M,,0000*6F
$GPGSA,A,3,13,23,32,30,20,24,16,,,,,,2.6,1.7,2.0*30
$GPRMC,212210.000,A,3748.7605,N,12217.7730,W,2.60,142.83,110411,,,A*7A
$GPVTG,142.83,T,,M,2.60,N,4.8,K,A*09
$GPGGA,212211.000,3748.7606,N,12217.7723,W,1,07,1.7,6.8,M,-25.1,M,,0000*60
$GPGSA,A,3,13,23,32,30,20,24,16,,,,,,2.6,1.7,2.0*30
$GPGSV,3,1,10,32,79,111,15,20,70,305,16,23,49,297,19,31,37,045,15*7F
$GPGSV,3,2,10,30,35,112,24,24,34,214,18,16,26,135,23,13,18,275,15*7D
$GPGSV,3,3,10,11,16,210,20,04,04,324,*7B
$GPRMC,212211.000,A,3748.7606,N,12217.7723,W,2.34,152.75,110411,,,A*73
$GPGGA,212212.000,3748.7605,N,12217.7716,W,1,07,1.7,7.3,M,-25.1,M,,0000*6C
$GPGSA,A,3,13,23,32,30,20,24,16,,,,,,2.6,1.7,2.0*30
$GPRMC,212212.000,A,3748.7605,N,12217.7716,W,1.70,139.60,110411,,,A*7F
$GPVTG,139.60,T,,M,1.70,N,3.1,K,A*04
$GPGGA,212213.000,3748.7607,N,12217.7713,W,1,07,1.7,6.9,M,-25.1,M,,0000*61
$GPGSA,A,3,13,23,32,30,20,24,16,,,,,,2.6,1.7,2.0*30
$GPRMC,212213.000,A,3748.7607,N,12217.7713,W,1.91,160.31,110411,,,A*7E
$GPVTG,160.31,T,,M,1.91,N,3.5,K,A*07
$GPGGA,212214.000,3748.7605,N,12217.7704,W,1,07,1.7,6.3,M,-25.1,M,,0000*68
$GPGSA,A,3,13,23,32,30,20,24,16,,,,,,2.6,1.7,2.0*30
$GPRMC,212214.000,A,3748.7605,N,12217.7704,W,2.44,118.56,110411,,,A*78
$GPVTG,118.56,T,,M,2.44,N,4.5,K,A*05
$GPGGA,212215.000,3748.7607,N,12217.7694,W,1,07,1.7,6.1,M,-25.1,M,,0000*61
$GPGSA,A,3,13,23,32,30,20,24,16,,,,,,2.6,1.7,2.0*30
$GPRMC,212215.000,A,3748.7607,N,12217.7694,W,2.39,110.28,110411,,,A*78
$GPVTG,110.28,T,,M,2.39,N,4.4,K,A*0F
$GPGGA,212216.000,3748.7607,N,12217.7690,W,1,06,1.7,5.4,M,-25.1,M,,0000*61
$GPGSA,A,3,13,23,32,30,24,16,,,,,,,2.7,1.7,2.1*32
$GPGSV,3,1,10,32,79,111,14,20,70,305,16,23,49,297,18,31,37,045,14*7E
$GPGSV,3,2,10,30,35,112,23,24,34,214,29,16,26,135,27,13,18,275,15*7C
$GPGSV,3,3,10,11,16,210,29,04,04,324,*72
$GPRMC,212216.000,A,3748.7607,N,12217.7690,W,1.44,122.51,110411,,,A*79
$GPVTG,122.51,T,,M,1.44,N,2.7,K,A*0C
$GPGGA,212217.000,3748.7606,N,12217.7683,W,1,07,1.7,6.1,M,-25.1,M,,0000*64
$GPGSA,A,3,13,23,32,30,20,24,16,,,,,,2.6,1.7,2.0*30
$GPRMC,212217.000,A,3748.7606,N,12217.7683,W,1.60,122.46,110411,,,A*7B
$GPVTG,122.46,T,,M,1.60,N,3.0,K,A*0A
$GPGGA,212218.000,3748.7603,N,12217.7673,W,1,07,1.7,4.3,M,-25.1,M,,0000*61
$GPGSA,A,3,13,23,32,30,20,24,16,,,,,,2.6,1.7,2.0*30
$GPRMC,212218.000,A,3748.7603,N,12217.7673,W,1.55,104.77,110411,,,A*7E
$GPVTG,104.77,T,,M,1.55,N,2.9,K,A*02
$GPGGA,212219.000,3748.7602,N,12217.7661,W,1,07,1.7,2.4,M,-25.1,M,,0000*63
$GPGSA,A,3,13,23,32,30,20,24,16,,,,,,2.6,1.7,2.0*30
$GPRMC,212219.000,A,3748.7602,N,12217.7661,W,1.63,95.47,110411,,,A*42
$GPVTG,95.47,T,,M,1.63,N,3.0,K,A*35
$GPGGA,212220.000,3748.7594,N,12217.7656,W,1,07,1.7,2.6,M,-25.1,M,,0000*63
$GPGSA,A,3,13,23,32,30,20,24,16,,,,,,2.6,1.7,2.0*30
$GPRMC,212220.000,A,3748.7594,N,12217.7656,W,1.38,133.14,110411,,,A*75
$GPVTG,133.14,T,,M,1.38,N,2.6,K,A*07
$GPGGA,212221.000,3748.7574,N,12217.7655,W,1,07,1.7,4.1,M,-25.1,M,,0000*6E
$GPGSA,A,3,13,23,32,30,20,24,16,,,,,,2.6,1.7,2.0*30
$GPGSV,3,1,11,32,79,111,15,20,70,305,16,23,49,297,19,31,37,045,14*7F
$GPGSV,3,2,11,30,35,112,19,24,34,214,23,16,26,135,27,13,18,275,15*7E
$GPGSV,3,3,11,11,16,210,25,04,04,324,,48,44,197,26*48
$GPRMC,212221.000,A,3748.7574,N,12217.7655,W,1.94,136.59,110411,,,A*73
$GPVTG,136.59,T,,M,1.94,N,3.6,K,A*0C
$GPGGA,212222.000,3748.7566,N,12217.7645,W,1,07,1.7,5.2,M,-25.1,M,,0000*6D
$GPGSA,A,3,13,23,32,30,20,24,16,,,,,,2.6,1.7,2.0*30
$GPRMC,212222.000,A,3748.7566,N,12217.7645,W,3.09,113.86,110411,,,A*71
$GPVTG,113.86,T,,M,3.09,N,5.7,K,A*08
$GPGGA,212223.000,3748.7570,N,12217.7629,W,1,07,1.7,5.2,M,-25.1,M,,0000*61
$GPGSA,A,3,13,23,32,30,20,24,16,,,,,,2.6,1.7,2.0*30
$GPRMC,212223.000,A,3748.7570,N,12217.7629,W,4.17,96.58,110411,,,A*4A
$GPVTG,96.58,T,,M,4.17,N,7.7,K,A*3D
$GPGGA,212224.000,3748.7578,N,12217.7605,W,1,07,1.7,4.1,M,-25.1,M,,0000*62
$GPGSA,A,3,13,23,32,30,20,24,16,,,,,,2.6,1.7,2.0*30
$GPRMC,212224.000,A,3748.7578,N,12217.7605,W,4.53,82.11,110411,,,A*43
$GPVTG,82.11,T,,M,4.53,N,8.4,K,A*39
$GPGGA,212225.000,3748.7591,N,12217.7590,W,1,06,1.7,3.1,M,-25.1,M,,0000*6D
$GPGSA,A,3,13,23,30,20,24,16,,,,,,,2.9,1.7,2.4*3A
$GPRMC,212225.000,A,3748.7591,N,12217.7590,W,4.54,60.78,110411,,,A*4E
$GPVTG,60.78,T,,M,4.54,N,8.4,K,A*3D
$GPGGA,212226.000,3748.7605,N,12217.7579,W,1,06,2.0,2.1,M,-25.1,M,,0000*62
$GPGSA,A,3,23,32,30,20,24,16,,,,,,,3.8,2.0,3.3*3B
$GPGSV,3,1,10,32,79,111,14,20,70,305,15,23,49,297,19,31,37,045,*79
$GPGSV,3,2,10,30,35,112,20,24,34,214,20,16,26,135,25,13,18,275,*70
$GPGSV,3,3,10,11,16,210,24,04,04,324,*7F
$GPRMC,212226.000,A,3748.7605,N,12217.7579,W,3.91,43.26,110411,,,A*40
$GPGGA,212227.000,3748.7596,N,12217.7585,W,1,06,2.0,4.8,M,-25.1,M,,0000*66
$GPGSA,A,3,23,32,30,20,24,16,,,,,,,3.8,2.0,3.3*3B
$GPRMC,212227.000,A,3748.7596,N,12217.7585,W,0.54,34.12,110411,,,A*46
$GPVTG,34.12,T,,M,0.54,N,1.0,K,A*39
$GPGGA,212228.000,3748.7587,N,12217.7584,W,1,05,2.0,6.1,M,-25.1,M,,0000*60
$GPGSA,A,3,23,32,30,20,24,,,,,,,,4.0,2.0,3.5*35
$GPRMC,212228.000,A,3748.7587,N,12217.7584,W,1.65,106.02,110411,,,A*7A
$GPVTG,106.02,T,,M,1.65,N,3.0,K,A*09
$GPGGA,212229.000,3748.7577,N,12217.7587,W,1,05,2.4,7.2,M,-25.1,M,,0000*6B
$GPGSA,A,3,23,30,20,24,16,,,,,,,,6.3,2.4,5.8*3D
$GPRMC,212229.000,A,3748.7577,N,12217.7587,W,1.79,124.36,110411,,,A*7D
$GPVTG,124.36,T,,M,1.79,N,3.3,K,A*00
$GPGGA,212230.000,3748.7569,N,12217.7575,W,1,05,2.4,8.5,M,-25.1,M,,0000*69
$GPGSA,A,3,23,30,20,24,16,,,,,,,,6.3,2.4,5.8*3D
$GPRMC,212230.000,A,3748.7569,N,12217.7575,W,2.34,134.28,110411,,,A*73
$GPVTG,134.28,T,,M,2.34,N,4.3,K,A*03
$GPGGA,212231.000,3748.7569,N,12217.7560,W,1,05,2.4,8.2,M,-25.1,M,,0000*6B
$GPGSA,A,3,23,30,20,24,16,,,,,,,,6.3,2.4,5.8*3D
$GPGSV,3,1,10,32,79,111,,20,70,305,15,23,49,297,18,31,37,045,*7D
$GPGSV,3,2,10,30,35,112,21,24,34,214,15,16,26,135,22,13,18,275,*70
$GPGSV,3,3,10,11,16,210,21,04,04,324,*7A
$GPRMC,212231.000,A,3748.7569,N,12217.7560,W,2.56,124.05,110411,,,A*7C
$GPVTG,124.05,T,,M,2.56,N,4.7,K,A*0D
$GPGGA,212232.000,3748.7560,N,12217.7557,W,1,05,2.4,8.8,M,-25.1,M,,0000*6F
$GPGSA,A,3,23,30,20,24,16,,,,,,,,6.3,2.4,5.8*3D
$GPRMC,212232.000,A,3748.7560,N,12217.7557,W,2.84,157.40,110411,,,A*78
$GPVTG,157.40,T,,M,2.84,N,5.3,K,A*02
$GPGGA,212233.000,3748.7553,N,12217.7554,W,1,04,5.4,8.9,M,-25.1,M,,0000*6A
$GPGSA,A,3,23,30,20,16,,,,,,,,,8.3,5.4,6.3*3A
$GPRMC,212233.000,A,3748.7553,N,12217.7554,W,2.80,164.97,110411,,,A*74
$GPVTG,164.97,T,,M,2.80,N,5.2,K,A*0D
$GPGGA,212234.000,3748.7546,N,12217.7548,W,1,04,5.4,9.8,M,-25.1,M,,0000*64
$GPGSA,A,3,23,30,20,16,,,,,,,,,8.3,5.4,6.3*3A
$GPRMC,212234.000,A,3748.7546,N,12217.7548,W,2.53,153.83,110411,,,A*75
$GPVTG,153.83,T,,M,2.53,N,4.7,K,A*06
$GPGGA,212235.000,3748.7540,N,12217.7540,W,1,04,5.4,10.3,M,-25.1,M,,0000*58
$GPGSA,A,3,23,30,20,16,,,,,,,,,8.3,5.4,6.3*3A
$GPRMC,212235.000,A,3748.7540,N,12217.7540,W,2.32,137.48,110411,,,A*78
$GPVTG,137.48,T,,M,2.32,N,4.3,K,A*00
$GPGGA,212236.000,3748.7516,N,12217.7542,W,1,05,2.4,11.4,M,-25.1,M,,0000*5A
$GPGSA,A,3,23,30,20,24,16,,,,,,,,6.3,2.4,5.8*3D
$GPGSV,3,1,10,32,79,111,,20,70,305,14,23,49,297,18,31,37,045,*7C
$GPGSV,3,2,10,30,35,112,21,24,34,214,18,16,26,135,23,13,18,275,*7C
$GPGSV,3,3,10,11,16,210,21,04,04,324,*7A
$GPVTG,151.07,T,,M,2.97,N,5.5,K,A*03
$GPGGA,212237.000,3748.7508,N,12217.7526,W,1,06,2.0,10.9,M,-25.1,M,,0000*5D
$GPGSA,A,3,32,23,30,20,24,16,,,,,,,3.8,2.0,3.3*3B
$GPRMC,212237.000,A,3748.7508,N,12217.7526,W,3.53,133.50,110411,,,A*7D
$GPVTG,133.50,T,,M,3.53,N,6.5,K,A*0F
$GPGGA,212238.000,3748.7486,N,12217.7515,W,1,05,2.0,14.7,M,-25.1,M,,0000*5C
$GPGSA,A,3,32,23,30,20,24,,,,,,,,4.0,2.0,3.5*35
$GPRMC,212238.000,A,3748.7486,N,12217.7515,W,3.91,134.36,110411,,,A*7C
$GPVTG,134.36,T,,M,3.91,N,7.2,K,A*00
$GPGGA,212239.000,3748.7471,N,12217.7514,W,1,05,2.0,16.8,M,-25.1,M,,0000*59
$GPGSA,A,3,32,23,30,24,16,,,,,,,,3.9,2.0,3.4*3F
$GPRMC,212239.000,A,3748.7471,N,12217.7514,W,3.19,145.65,110411,,,A*74
$GPVTG,145.65,T,,M,3.19,N,5.9,K,A*09
$GPGGA,212240.000,3748.7467,N,12217.7505,W,1,05,2.0,21.5,M,-25.1,M,,0000*59
$GPGSA,A,3,32,23,30,24,16,,,,,,,,3.9,2.0,3.4*3F
$GPRMC,212240.000,A,3748.7467,N,12217.7505,W,2.77,107.06,110411,,,A*77
$GPVTG,107.06,T,,M,2.77,N,5.1,K,A*0B
$GPGGA,212241.000,3748.7471,N,12217.7493,W,1,04,2.2,22.5,M,-25.1,M,,0000*51
$GPGSA,A,3,32,23,24,16,,,,,,,,,4.2,2.2,3.6*30
$GPGSV,3,1,10,32,79,111,13,20,70,305,,23,49,297,18,31,37,045,*7B
$GPGSV,3,2,10,30,35,112,20,24,34,214,18,16,26,135,15,13,18,275,*78
$GPGSV,3,3,10,11,16,210,,04,04,324,*79
$GPRMC,212241.000,A,3748.7471,N,12217.7493,W,3.63,86.26,110411,,,A*41
$GPVTG,86.26,T,,M,3.63,N,6.7,K,A*30
$GPGGA,212242.000,3748.7479,N,12217.7490,W,1,04,1.7,22.3,M,-25.1,M,,0000*59
$GPGSA,A,3,23,30,24,16,,,,,,,,,1.9,1.7,1.0*3E
$GPRMC,212242.000,A,3748.7479,N,12217.7490,W,3.69,85.73,110411,,,A*40
$GPVTG,85.73,T,,M,3.69,N,6.8,K,A*36
$GPGGA,212243.000,3748.7467,N,12217.7488,W,1,04,1.7,22.4,M,-25.1,M,,0000*59
$GPGSA,A,3,23,30,24,16,,,,,,,,,1.9,1.7,1.0*3E
$GPRMC,212243.000,A,3748.7467,N,12217.7488,W,4.06,99.52,110411,,,A*47
$GPVTG,99.52,T,,M,4.06,N,7.5,K,A*3A
$GPGGA,212244.000,3748.7473,N,12217.7478,W,1,04,1.7,21.3,M,-25.1,M,,0000*50
$GPGSA,A,3,23,30,24,16,,,,,,,,,1.9,1.7,1.0*3E
$GPRMC,212244.000,A,3748.7473,N,12217.7478,W,3.74,107.04,110411,,,A*7D
$GPVTG,107.04,T,,M,3.74,N,6.9,K,A*00
$GPGGA,212245.000,3748.7476,N,12217.7465,W,1,04,1.7,21.6,M,-25.1,M,,0000*5D
$GPGSA,A,3,23,30,24,16,,,,,,,,,1.9,1.7,1.0*3E
$GPRMC,212245.000,A,3748.7476,N,12217.7465,W,3.15,112.69,110411,,,A*7D
$GPVTG,112.69,T,,M,3.15,N,5.8,K,A*0A
$GPGGA,212246.000,3748.7471,N,12217.7455,W,1,03,5.0,22.1,M,-25.1,M,,0000*5A
$GPGSA,A,2,30,24,16,,,,,,,,,,5.1,5.0,1.0*31
$GPGSV,3,1,10,32,79,111,,20,70,305,,23,49,297,17,31,37,045,18*7F
$GPGSV,3,2,10,30,35,112,18,24,34,214,18,16,26,135,15,13,18,275,*73
$GPGSV,3,3,10,11,16,210,,04,04,324,*79
$GPRMC,212246.000,A,3748.7471,N,12217.7455,W,3.35,121.51,110411,,,A*73
$GPVTG,121.51,T,,M,3.35,N,6.2,K,A*0A
$GPGGA,212247.000,3748.7458,N,12217.7448,W,1,03,2.0,22.6,M,-25.1,M,,0000*5C
$GPGSA,A,2,23,24,16,,,,,,,,,,2.2,2.0,1.0*30
$GPRMC,212247.000,A,3748.7458,N,12217.7448,W,3.89,142.47,110411,,,A*70
$GPVTG,142.47,T,,M,3.89,N,7.2,K,A*0E
$GPGGA,212248.000,3748.7446,N,12217.7443,W,1,03,5.0,23.2,M,-25.1,M,,0000*55
$GPGSA,A,2,30,24,16,,,,,,,,,,5.1,5.0,1.0*31
$GPRMC,212248.000,A,3748.7446,N,12217.7443,W,4.74,157.28,110411,,,A*73
$GPVTG,157.28,T,,M,4.74,N,8.8,K,A*03
$GPGGA,212249.000,3748.7434,N,12217.7436,W,6,00,50.0,23.6,M,-25.1,M,,0000*63
$GPGSA,A,2,,,,,,,,,,,,,50.0,50.0,50.0*06
$GPRMC,212249.000,A,3748.7434,N,12217.7436,W,4.74,157.28,110411,,,E*71
$GPVTG,157.28,T,,M,4.74,N,8.8,K,N*0C
$GPGGA,212250.000,3748.7419,N,12217.7419,W,1,03,4.3,24.2,M,-25.1,M,,0000*5C
$GPGSA,A,2,23,30,16,,,,,,,,,,4.4,4.3,1.0*30
$GPRMC,212250.000,A,3748.7419,N,12217.7419,W,5.89,143.77,110411,,,A*73
$GPVTG,143.77,T,,M,5.89,N,10.9,K,N*38
$GPGGA,212251.000,3748.7413,N,12217.7407,W,1,04,1.7,23.8,M,-25.1,M,,0000*53
$GPGSA,A,3,23,30,24,16,,,,,,,,,1.9,1.7,1.0*3E
$GPGSV,3,1,10,32,79,111,,20,70,305,,23,49,297,17,31,37,045,16*71
